$GNGGA,074533.40,3019.29514292,N,12004.26258172,E,4,46,0.4,5.2591,M,7.8964,M,1.4,0*57
$GNRMC,074533.40,D,3019.29514292,N,12004.26258172,E,0.783,273.3,101125,6.1,W,R,S*5B
$WTRTK,-0.029,0.556,0.000,0.556,-7.02,1.30,2.37,4,21,5,31,841,--,1,9.3,23.4,194,2,3019.28964827,N,12004.25818319,E,1.10,357.63,3.59*68
$GNGGA,074533.50,3019.29514271,N,12004.26255514,E,4,46,0.4,5.2571,M,7.8964,M,1.5,0*5D
$GNRMC,074533.50,D,3019.29514271,N,12004.26255514,E,0.801,272.7,101125,6.1,W,R,S*5E
$WTRTK,-0.029,0.556,0.000,0.556,-7.01,1.23,2.85,4,21,5,31,841,--,1,9.3,23.4,194,2,3019.28964546,N,12004.25817417,E,1.11,357.15,3.59*6C
$GNGGA,074533.50,3019.29514271,N,12004.26255514,E,4,46,0.4,5.2571,M,7.8964,M,1.5,0*5D
$GNRMC,074533.50,D,3019.29514271,N,12004.26255514,E,0.801,272.7,101125,6.1,W,R,S*5E
$WTRTK,-0.039,0.554,0.001,0.555,-7.03,1.26,3.33,4,21,5,31,841,--,1,9.3,23.4,194,2,3019.28964815,N,12004.25815864,E,1.13,356.67,3.59*61
$GNGGA,074533.60,3019.29514209,N,12004.26252874,E,4,46,0.4,5.2568,M,7.8964,M,0.6,0*57
$GNRMC,074533.60,D,3019.29514209,N,12004.26252874,E,0.819,271.6,101125,6.1,W,R,S*55
$WTRTK,-0.039,0.554,0.001,0.555,-7.04,1.26,3.84,4,21,5,31,841,--,1,9.3,23.3,194,2,3019.28964519,N,12004.25814948,E,1.13,356.16,3.59*64
$GNGGA,074533.60,3019.29514209,N,12004.26252874,E,4,46,0.4,5.2568,M,7.8964,M,0.6,0*57
$GNRMC,074533.60,D,3019.29514209,N,12004.26252874,E,0.819,271.6,101125,6.1,W,R,S*55
$WTRTK,-0.049,0.557,0.009,0.560,-7.09,1.35,4.35,4,21,5,31,841,--,1,9.3,23.4,194,2,3019.28964762,N,12004.25813357,E,1.14,355.65,3.59*66
$GNGGA,074533.70,3019.29514100,N,12004.26250074,E,4,46,0.4,5.2540,M,7.8964,M,0.7,0*5D
$GNRMC,074533.70,D,3019.29514100,N,12004.26250074,E,0.818,265.5,101125,6.1,W,R,S*53
$WTRTK,-0.049,0.557,0.009,0.560,-7.11,1.33,4.90,4,21,5,31,841,--,1,9.3,23.4,194,2,3019.28964461,N,12004.25812429,E,1.15,355.10,3.59*6A
$GNGGA,074533.70,3019.29514100,N,12004.26250074,E,4,46,0.4,5.2540,M,7.8964,M,0.7,0*5D
$GNRMC,074533.70,D,3019.29514100,N,12004.26250074,E,0.818,265.5,101125,6.1,W,R,S*53
$WTRTK,-0.054,0.551,0.013,0.554,-7.13,1.32,5.50,4,21,5,31,841,--,1,9.3,23.4,194,2,3019.28964693,N,12004.25810796,E,1.16,354.50,3.59*6E
$GNGGA,074533.80,3019.29514087,N,12004.26247388,E,4,46,0.4,5.2574,M,7.8964,M,0.8,0*52
$GNRMC,074533.80,D,3019.29514087,N,12004.26247388,E,0.837,266.1,101125,6.1,W,R,S*5E
$WTRTK,-0.054,0.551,0.013,0.554,-7.16,1.25,6.12,4,21,5,31,841,--,1,9.3,23.4,194,2,3019.28964712,N,12004.25809242,E,1.19,353.88,3.59*69
$GNGGA,074533.80,3019.29514087,N,12004.26247388,E,4,46,0.4,5.2574,M,7.8964,M,0.8,0*52
$GNRMC,074533.80,D,3019.29514087,N,12004.26247388,E,0.837,266.1,101125,6.1,W,R,S*5E
$WTRTK,-0.067,0.552,0.006,0.556,-7.16,1.26,6.70,4,21,5,31,841,--,1,9.3,23.4,194,2,3019.28964752,N,12004.25807696,E,1.23,353.30,3.59*66
$GNGGA,074533.90,3019.29513619,N,12004.26244407,E,4,45,0.4,5.2581,M,7.8963,M,0.9,0*59
$GNRMC,074533.90,D,3019.29513619,N,12004.26244407,E,0.920,265.4,101125,6.1,W,R,S*5B
$WTRTK,-0.067,0.552,0.006,0.556,-7.15,1.34,7.21,4,21,5,31,841,--,1,9.3,23.4,194,2,3019.28964392,N,12004.25806694,E,1.27,352.79,3.59*60
$GNGGA,074533.90,3019.29513619,N,12004.26244407,E,4,45,0.4,5.2581,M,7.8963,M,0.9,0*59
$GNRMC,074533.90,D,3019.29513619,N,12004.26244407,E,0.920,265.4,101125,6.1,W,R,S*5B
$WTRTK,-0.079,0.551,0.009,0.557,-7.16,1.33,7.72,4,21,5,31,841,--,1,9.3,23.3,194,2,3019.28964509,N,12004.25805118,E,1.29,352.28,3.59*69
$GNGGA,074533.90,3019.29513619,N,12004.26244407,E,4,45,0.4,5.2581,M,7.8963,M,0.9,0*59
$GNRMC,074533.90,D,3019.29513619,N,12004.26244407,E,0.920,265.4,101125,6.1,W,R,S*5B
$WTRTK,-0.079,0.551,0.009,0.557,-7.17,1.37,8.21,4,21,5,31,0,--,1,9.3,23.3,194,2,3019.28964131,N,12004.25804078,E,1.31,351.79,3.59*6F
$GNGGA,074534.00,3019.29513366,N,12004.26241234,E,4,47,0.4,5.2597,M,7.8963,M,1.0,0*54
$GNRMC,074534.00,D,3019.29513366,N,12004.26241234,E,1.021,264.0,101125,6.1,W,R,S*57
$WTRTK,-0.091,0.550,0.000,0.558,-7.20,1.32,8.67,4,21,5,31,0,--,1,9.3,23.3,194,2,3019.28964209,N,12004.25802265,E,1.34,351.33,3.60*6C
$GNGGA,074534.10,3019.29512985,N,12004.26237864,E,4,46,0.4,5.2585,M,7.8963,M,1.1,0*5E
$GNRMC,074534.10,D,3019.29512985,N,12004.26237864,E,1.132,263.4,101125,6.1,W,R,S*5E
$WTRTK,-0.091,0.550,0.000,0.558,-7.25,1.22,9.09,4,21,5,31,0,--,1,9.3,23.3,194,2,3019.28963842,N,12004.25801169,E,1.36,350.91,3.60*64
$GNGGA,074534.10,3019.29512985,N,12004.26237864,E,4,46,0.4,5.2585,M,7.8963,M,1.1,0*5E
$GNRMC,074534.10,D,3019.29512985,N,12004.26237864,E,1.132,263.4,101125,6.1,W,R,S*5E
$WTRTK,-0.097,0.548,0.003,0.556,-7.26,1.23,9.45,4,21,5,31,0,--,1,9.3,23.2,194,2,3019.28963821,N,12004.25799132,E,1.40,350.55,3.59*6B
$GNGGA,074534.20,3019.29512619,N,12004.26234496,E,4,46,0.4,5.2609,M,7.8963,M,1.2,0*51
$GNRMC,074534.20,D,3019.29512619,N,12004.26234496,E,1.127,263.0,101125,6.1,W,R,S*55
$WTRTK,-0.097,0.548,0.003,0.556,-7.28,1.30,9.76,4,21,5,31,0,--,1,9.3,23.5,194,2,3019.28963481,N,12004.25797981,E,1.41,350.24,3.59*6F
$GNGGA,074534.20,3019.29512619,N,12004.26234496,E,4,46,0.4,5.2609,M,7.8963,M,1.2,0*51
$GNRMC,074534.20,D,3019.29512619,N,12004.26234496,E,1.127,263.0,101125,6.1,W,R,S*55
$WTRTK,-0.104,0.546,-0.008,0.555,-7.28,1.35,10.04,4,21,5,31,0,--,1,9.3,23.5,194,2,3019.28963402,N,12004.25795721,E,1.45,349.96,3.58*7E
$GNGGA,074534.30,3019.29512061,N,12004.26231123,E,4,46,0.4,5.2660,M,7.8963,M,1.3,0*59
$GNRMC,074534.30,D,3019.29512061,N,12004.26231123,E,1.052,260.7,101125,6.1,W,R,S*54
$WTRTK,-0.104,0.546,-0.008,0.555,-7.30,1.38,10.30,4,21,5,31,0,--,1,9.3,23.3,194,2,3019.28963097,N,12004.25794514,E,1.46,349.70,3.58*7D
$GNGGA,074534.30,3019.29512061,N,12004.26231123,E,4,46,0.4,5.2660,M,7.8963,M,1.3,0*59
$GNRMC,074534.30,D,3019.29512061,N,12004.26231123,E,1.052,260.7,101125,6.1,W,R,S*54
$WTRTK,-0.110,0.551,-0.020,0.563,-7.31,1.42,10.54,4,21,5,31,0,--,1,9.3,23.4,194,2,3019.28962961,N,12004.25792299,E,1.49,349.46,3.58*77
$GNGGA,074534.40,3019.29511684,N,12004.26227731,E,4,46,0.4,5.2640,M,7.8963,M,1.4,0*57
$GNRMC,074534.40,D,3019.29511684,N,12004.26227731,E,1.030,259.9,101125,6.1,W,R,S*5F
$WTRTK,-0.110,0.551,-0.020,0.563,-7.30,1.42,10.76,4,21,5,31,0,--,1,9.3,23.4,194,2,3019.28962701,N,12004.25791042,E,1.49,349.24,3.58*7D
$GNGGA,074534.40,3019.29511684,N,12004.26227731,E,4,46,0.4,5.2640,M,7.8963,M,1.4,0*57
$GNRMC,074534.40,D,3019.29511684,N,12004.26227731,E,1.030,259.9,101125,6.1,W,R,S*5F
$WTRTK,-0.112,0.549,-0.008,0.561,-7.29,1.49,10.90,4,21,5,31,0,--,1,9.3,23.4,194,2,3019.28962506,N,12004.25789078,E,1.54,349.10,3.58*7B
$GNGGA,074534.50,3019.29511217,N,12004.26224297,E,4,46,0.4,5.2590,M,7.8963,M,1.5,0*5D
$GNRMC,074534.50,D,3019.29511217,N,12004.26224297,E,1.038,260.5,101125,6.1,W,R,S*54
$WTRTK,-0.112,0.549,-0.008,0.561,-7.31,1.49,11.04,4,21,5,31,0,--,1,9.3,23.2,194,2,3019.28962299,N,12004.25787757,E,1.56,348.96,3.58*70
$GNGGA,074534.50,3019.29511217,N,12004.26224297,E,4,46,0.4,5.2590,M,7.8963,M,1.5,0*5D
$GNRMC,074534.50,D,3019.29511217,N,12004.26224297,E,1.038,260.5,101125,6.1,W,R,S*54
$WTRTK,-0.112,0.546,0.000,0.557,-7.36,1.43,11.15,4,21,5,31,0,--,1,9.3,23.4,194,2,3019.28962041,N,12004.25785891,E,1.59,348.85,3.59*58
$GNGGA,074534.60,3019.29510697,N,12004.26220912,E,4,46,0.4,5.2580,M,7.8963,M,1.6,0*53
$GNRMC,074534.60,D,3019.29510697,N,12004.26220912,E,1.052,261.3,101125,6.1,W,R,S*53
$WTRTK,-0.112,0.546,0.000,0.557,-7.39,1.31,11.24,4,21,5,31,0,--,1,9.3,23.3,194,2,3019.28961922,N,12004.25784500,E,1.61,348.76,3.59*5B
$GNGGA,074534.60,3019.29510697,N,12004.26220912,E,4,46,0.4,5.2580,M,7.8963,M,1.6,0*53
$GNRMC,074534.60,D,3019.29510697,N,12004.26220912,E,1.052,261.3,101125,6.1,W,R,S*53
$WTRTK,-0.109,0.541,0.001,0.552,-7.42,1.42,11.22,4,21,5,31,0,--,1,9.3,23.4,194,2,3019.28961674,N,12004.25782693,E,1.64,348.78,3.59*53
$GNGGA,074534.70,3019.29510150,N,12004.26217744,E,4,46,0.4,5.2591,M,7.8963,M,1.7,0*56
$GNRMC,074534.70,D,3019.29510150,N,12004.26217744,E,1.055,260.8,101125,6.1,W,R,S*5A
$WTRTK,-0.109,0.541,0.001,0.552,-7.42,1.25,11.22,4,21,5,31,0,--,1,9.3,23.4,194,2,3019.28961629,N,12004.25781255,E,1.66,348.78,3.59*55
$GNGGA,074534.70,3019.29510150,N,12004.26217744,E,4,46,0.4,5.2591,M,7.8963,M,1.7,0*56
$GNRMC,074534.70,D,3019.29510150,N,12004.26217744,E,1.055,260.8,101125,6.1,W,R,S*5A
$WTRTK,-0.110,0.542,0.001,0.554,-7.42,1.24,11.18,4,21,5,31,0,--,1,9.3,23.5,194,2,3019.28961305,N,12004.25779426,E,1.71,348.82,3.59*5C
$GNGGA,074534.80,3019.29509768,N,12004.26214446,E,4,46,0.4,5.2570,M,7.8963,M,1.8,0*5E
$GNRMC,074534.80,D,3019.29509768,N,12004.26214446,E,1.049,261.6,101125,6.1,W,R,S*50
$WTRTK,-0.110,0.542,0.001,0.554,-7.40,1.29,11.11,4,21,5,31,0,--,1,9.3,23.3,194,2,3019.28961296,N,12004.25777929,E,1.74,348.89,3.59*55
$GNGGA,074534.80,3019.29509768,N,12004.26214446,E,4,46,0.4,5.2570,M,7.8963,M,1.8,0*5E
$GNRMC,074534.80,D,3019.29509768,N,12004.26214446,E,1.049,261.6,101125,6.1,W,R,S*50
$WTRTK,-0.108,0.544,0.003,0.555,-7.40,1.31,11.00,4,21,5,31,0,--,1,9.3,23.3,194,2,3019.28960957,N,12004.25776146,E,1.79,349.00,3.59*5A
$GNGGA,074534.90,3019.29509240,N,12004.26211234,E,4,46,0.4,5.2531,M,7.8963,M,1.9,0*52
$GNRMC,074534.90,D,3019.29509240,N,12004.26211234,E,1.017,260.3,101125,6.1,W,R,S*57
$WTRTK,-0.108,0.544,0.003,0.555,-7.39,1.33,10.88,4,21,5,31,0,--,1,9.3,23.5,194,2,3019.28960996,N,12004.25774589,E,1.80,349.12,3.59*5C
$GNGGA,074534.90,3019.29509240,N,12004.26211234,E,4,46,0.4,5.2531,M,7.8963,M,1.9,0*52
$GNRMC,074534.90,D,3019.29509240,N,12004.26211234,E,1.017,260.3,101125,6.1,W,R,S*57
$WTRTK,-0.104,0.545,0.007,0.555,-7.37,1.31,10.81,4,21,5,31,0,--,1,9.3,23.3,194,2,3019.28960653,N,12004.25772858,E,1.83,349.19,3.59*5F
$GNGGA,074534.90,3019.29509240,N,12004.26211234,E,4,46,0.4,5.2531,M,7.8963,M,1.9,0*52
$GNRMC,074534.90,D,3019.29509240,N,12004.26211234,E,1.017,260.3,101125,6.1,W,R,S*57
$WTRTK,-0.104,0.545,0.007,0.555,-7.36,1.23,10.80,4,21,5,31,0,--,1,9.3,23.3,194,2,3019.28960691,N,12004.25771282,E,1.81,349.20,3.59*54
$GNGGA,074535.00,3019.29508816,N,12004.26208036,E,4,47,0.4,5.2575,M,7.8963,M,2.0,0*51
$GNRMC,074535.00,D,3019.29508816,N,12004.26208036,E,0.968,260.2,101125,6.1,W,R,S*5E
$WTRTK,-0.108,0.547,-0.002,0.557,-7.33,1.23,10.84,4,21,5,31,0,--,1,9.3,23.5,194,2,3019.28960283,N,12004.25769701,E,1.82,349.16,3.59*71
$GNGGA,074535.10,3019.29508412,N,12004.26204838,E,4,47,0.4,5.2582,M,7.8963,M,2.1,0*5B
$GNRMC,074535.10,D,3019.29508412,N,12004.26204838,E,0.958,260.7,101125,6.1,W,R,S*5B
$WTRTK,-0.108,0.547,-0.002,0.557,-7.32,1.25,10.95,4,21,5,31,0,--,1,9.3,23.4,194,2,3019.28960299,N,12004.25768127,E,1.81,349.05,3.59*7E
$GNGGA,074535.10,3019.29508412,N,12004.26204838,E,4,47,0.4,5.2582,M,7.8963,M,2.1,0*5B
$GNRMC,074535.10,D,3019.29508412,N,12004.26204838,E,0.958,260.7,101125,6.1,W,R,S*5B
$WTRTK,-0.110,0.547,-0.008,0.558,-7.31,1.24,11.15,4,21,5,31,0,--,1,9.3,23.3,194,2,3019.28959892,N,12004.25766669,E,1.80,348.85,3.59*7E
$GNGGA,074535.20,3019.29508005,N,12004.26201862,E,4,47,0.4,5.2608,M,7.8963,M,2.2,0*52
$GNRMC,074535.20,D,3019.29508005,N,12004.26201862,E,0.964,261.7,101125,6.1,W,R,S*5E
$WTRTK,-0.110,0.547,-0.008,0.558,-7.31,1.23,11.40,4,21,5,31,745,--,1,9.3,23.3,194,2,3019.28959867,N,12004.25765105,E,1.81,348.60,3.59*71
$GNGGA,074535.20,3019.29508005,N,12004.26201862,E,4,47,0.4,5.2608,M,7.8963,M,2.2,0*52
$GNRMC,074535.20,D,3019.29508005,N,12004.26201862,E,0.964,261.7,101125,6.1,W,R,S*5E
$WTRTK,-0.118,0.547,-0.005,0.560,-7.29,1.22,11.70,4,21,5,31,745,--,1,9.3,23.4,194,2,3019.28959535,N,12004.25763681,E,1.81,348.30,3.59*71
$GNGGA,074535.30,3019.29507767,N,12004.26198674,E,4,47,0.4,5.2492,M,7.8963,M,1.3,0*56
$GNRMC,074535.30,D,3019.29507767,N,12004.26198674,E,1.003,261.3,101125,6.1,W,R,S*54
$WTRTK,-0.118,0.547,-0.005,0.560,-7.26,1.15,12.02,4,21,5,31,745,--,1,9.3,23.5,194,2,3019.28959474,N,12004.25762103,E,1.82,347.98,3.59*7B
$GNGGA,074535.30,3019.29507767,N,12004.26198674,E,4,47,0.4,5.2492,M,7.8963,M,1.3,0*56
$GNRMC,074535.30,D,3019.29507767,N,12004.26198674,E,1.003,261.3,101125,6.1,W,R,S*54
$WTRTK,-0.124,0.546,-0.002,0.560,-7.25,1.15,12.32,4,21,5,31,745,--,1,9.3,23.3,194,2,3019.28959173,N,12004.25760608,E,1.84,347.68,3.59*71
$GNGGA,074535.40,3019.29507154,N,12004.26195306,E,4,47,0.4,5.2487,M,7.8963,M,1.4,0*59
$GNRMC,074535.40,D,3019.29507154,N,12004.26195306,E,1.079,258.9,101125,6.1,W,R,S*55
$WTRTK,-0.124,0.546,-0.002,0.560,-7.22,1.18,12.61,4,21,5,31,745,--,1,9.3,23.4,193,2,3019.28959084,N,12004.25759008,E,1.87,347.39,3.59*7F
$GNGGA,074535.40,3019.29507154,N,12004.26195306,E,4,47,0.4,5.2487,M,7.8963,M,1.4,0*59
$GNRMC,074535.40,D,3019.29507154,N,12004.26195306,E,1.079,258.9,101125,6.1,W,R,S*55
$WTRTK,-0.129,0.543,-0.007,0.558,-7.24,1.29,12.89,4,21,5,31,832,--,1,9.3,23.4,193,2,3019.28958821,N,12004.25757418,E,1.89,347.11,3.59*7D
$GNGGA,074535.50,3019.29506682,N,12004.26191784,E,4,47,0.4,5.2458,M,7.8963,M,1.5,0*5C
$GNRMC,074535.50,D,3019.29506682,N,12004.26191784,E,1.076,259.7,101125,6.1,W,R,S*53
$WTRTK,-0.129,0.543,-0.007,0.558,-7.22,1.20,13.21,4,21,5,31,832,--,1,9.3,23.3,193,2,3019.28958707,N,12004.25755769,E,1.94,346.79,3.59*79
$GNGGA,074535.50,3019.29506682,N,12004.26191784,E,4,47,0.4,5.2458,M,7.8963,M,1.5,0*5C
$GNRMC,074535.50,D,3019.29506682,N,12004.26191784,E,1.076,259.7,101125,6.1,W,R,S*53
$WTRTK,-0.131,0.539,0.007,0.555,-7.19,1.06,13.57,4,21,5,31,832,--,1,9.3,23.4,193,2,3019.28958281,N,12004.25754059,E,1.93,346.43,3.59*57
$GNGGA,074535.60,3019.29506186,N,12004.26188283,E,4,47,0.4,5.2438,M,7.8963,M,1.6,0*53
$GNRMC,074535.60,D,3019.29506186,N,12004.26188283,E,1.091,260.4,101125,6.1,W,R,S*59
$WTRTK,-0.131,0.539,0.007,0.555,-7.16,1.22,13.82,4,21,5,31,832,--,1,9.3,23.4,193,2,3019.28958120,N,12004.25752398,E,1.96,346.18,3.59*5D
$GNGGA,074535.60,3019.29506186,N,12004.26188283,E,4,47,0.4,5.2438,M,7.8963,M,1.6,0*53
$GNRMC,074535.60,D,3019.29506186,N,12004.26188283,E,1.091,260.4,101125,6.1,W,R,S*59
$WTRTK,-0.138,0.539,-0.003,0.556,-7.15,1.26,14.05,4,21,5,31,832,--,1,9.3,23.3,193,2,3019.28957808,N,12004.25750683,E,1.99,345.95,3.59*7E
$GNGGA,074535.70,3019.29505512,N,12004.26184660,E,4,47,0.4,5.2440,M,7.8963,M,1.7,0*53
$GNRMC,074535.70,D,3019.29505512,N,12004.26184660,E,1.131,258.7,101125,6.1,W,R,S*54
$WTRTK,-0.138,0.539,-0.003,0.556,-7.12,1.32,14.21,4,21,5,31,832,--,1,9.3,23.3,193,2,3019.28957674,N,12004.25748953,E,2.03,345.79,3.59*76
$GNGGA,074535.70,3019.29505512,N,12004.26184660,E,4,47,0.4,5.2440,M,7.8963,M,1.7,0*53
$GNRMC,074535.70,D,3019.29505512,N,12004.26184660,E,1.131,258.7,101125,6.1,W,R,S*54
$WTRTK,-0.139,0.541,-0.003,0.558,-7.14,1.30,14.34,4,21,5,31,832,--,1,9.3,23.5,193,2,3019.28957385,N,12004.25747220,E,2.07,345.66,3.59*71
$GNGGA,074535.80,3019.29504794,N,12004.26181146,E,4,47,0.4,5.2500,M,7.8963,M,1.8,0*5D
$GNRMC,074535.80,D,3019.29504794,N,12004.26181146,E,1.150,257.0,101125,6.1,W,R,S*5F
$WTRTK,-0.139,0.541,-0.003,0.558,-7.14,1.24,14.44,4,21,5,31,832,--,1,9.3,23.5,193,2,3019.28957317,N,12004.25745421,E,2.08,345.56,3.59*71
$GNGGA,074535.80,3019.29504794,N,12004.26181146,E,4,47,0.4,5.2500,M,7.8963,M,1.8,0*5D
$GNRMC,074535.80,D,3019.29504794,N,12004.26181146,E,1.150,257.0,101125,6.1,W,R,S*5F
$WTRTK,-0.137,0.539,-0.020,0.557,-7.09,1.30,14.44,4,21,5,31,832,--,1,9.3,23.4,193,2,3019.28956898,N,12004.25743648,E,2.11,345.56,3.59*78
$GNGGA,074535.90,3019.29504126,N,12004.26177654,E,4,47,0.4,5.2424,M,7.8963,M,1.9,0*58
$GNRMC,074535.90,D,3019.29504126,N,12004.26177654,E,1.097,256.1,101125,6.1,W,R,S*56
$WTRTK,-0.137,0.539,-0.020,0.557,-7.10,1.24,14.44,4,21,5,31,832,--,1,9.3,23.3,193,2,3019.28956890,N,12004.25741784,E,2.18,345.56,3.59*70
$GNGGA,074535.90,3019.29504126,N,12004.26177654,E,4,47,0.4,5.2424,M,7.8963,M,1.9,0*58
$GNRMC,074535.90,D,3019.29504126,N,12004.26177654,E,1.097,256.1,101125,6.1,W,R,S*56
$WTRTK,-0.136,0.537,0.000,0.554,-7.08,1.18,14.39,4,21,5,31,832,--,1,9.3,23.5,193,2,3019.28956346,N,12004.25740083,E,2.16,345.61,3.59*52
$GNGGA,074535.90,3019.29504126,N,12004.26177654,E,4,47,0.4,5.2424,M,7.8963,M,1.9,0*58
$GNRMC,074535.90,D,3019.29504126,N,12004.26177654,E,1.097,256.1,101125,6.1,W,R,S*56
$WTRTK,-0.136,0.537,0.000,0.554,-7.06,1.20,14.26,4,21,5,31,0,--,1,9.3,23.4,193,2,3019.28956403,N,12004.25738180,E,2.23,345.74,3.59*58
$GNGGA,074536.00,3019.29503452,N,12004.26174305,E,4,47,0.4,5.2395,M,7.8963,M,2.0,0*56
$GNRMC,074536.00,D,3019.29503452,N,12004.26174305,E,1.062,255.4,101125,6.1,W,R,S*53
$WTRTK,-0.137,0.539,-0.003,0.557,-7.06,1.20,14.11,4,21,5,31,0,--,1,9.3,23.4,193,2,3019.28955833,N,12004.25736655,E,2.27,345.89,3.59*75
$GNGGA,074536.10,3019.29502782,N,12004.26170949,E,4,47,0.4,5.2412,M,7.8963,M,2.1,0*57
$GNRMC,074536.10,D,3019.29502782,N,12004.26170949,E,1.053,258.1,101125,6.1,W,R,S*51
$WTRTK,-0.137,0.539,-0.003,0.557,-7.05,1.16,13.95,4,21,5,31,0,--,1,9.3,23.4,193,2,3019.28955947,N,12004.25734688,E,2.28,346.05,3.59*70
$GNGGA,074536.10,3019.29502782,N,12004.26170949,E,4,47,0.4,5.2412,M,7.8963,M,2.1,0*57
$GNRMC,074536.10,D,3019.29502782,N,12004.26170949,E,1.053,258.1,101125,6.1,W,R,S*51
$WTRTK,-0.136,0.542,0.000,0.559,-7.04,1.14,13.77,4,21,5,31,745,--,1,9.3,23.4,193,2,3019.28955316,N,12004.25733342,E,2.30,346.23,3.59*53
$GNGGA,074536.20,3019.29502242,N,12004.26167486,E,4,47,0.4,5.2357,M,7.8963,M,2.2,0*50
$GNRMC,074536.20,D,3019.29502242,N,12004.26167486,E,1.053,259.3,101125,6.1,W,R,S*50
$WTRTK,-0.136,0.542,0.000,0.559,-7.06,1.09,13.60,4,21,5,31,745,--,1,9.3,23.4,193,2,3019.28955441,N,12004.25731335,E,2.34,346.40,3.59*5D
$GNGGA,074536.20,3019.29502242,N,12004.26167486,E,4,47,0.4,5.2357,M,7.8963,M,2.2,0*50
$GNRMC,074536.20,D,3019.29502242,N,12004.26167486,E,1.053,259.3,101125,6.1,W,R,S*50
$WTRTK,-0.131,0.538,0.003,0.554,-7.04,1.03,13.44,4,21,5,31,745,--,1,9.3,23.4,193,2,3019.28954848,N,12004.25729980,E,2.34,346.56,3.59*59
$GNGGA,074536.30,3019.29501487,N,12004.26164231,E,4,47,0.4,5.2476,M,7.8963,M,1.3,0*52
$GNRMC,074536.30,D,3019.29501487,N,12004.26164231,E,1.063,259.8,101125,6.1,W,R,S*5C
$WTRTK,-0.131,0.538,0.003,0.554,-7.03,0.99,13.28,4,21,5,31,745,--,1,9.3,23.4,193,2,3019.28954946,N,12004.25727937,E,2.37,346.72,3.59*5E
$GNGGA,074536.30,3019.29501487,N,12004.26164231,E,4,47,0.4,5.2476,M,7.8963,M,1.3,0*52
$GNRMC,074536.30,D,3019.29501487,N,12004.26164231,E,1.063,259.8,101125,6.1,W,R,S*5C
$WTRTK,-0.132,0.544,-0.009,0.560,-7.03,0.95,13.17,4,21,5,31,745,--,1,9.3,23.3,193,2,3019.28954377,N,12004.25726624,E,2.35,346.83,3.59*79
$GNGGA,074536.40,3019.29500990,N,12004.26160675,E,4,47,0.4,5.2444,M,7.8963,M,1.4,0*59
$GNRMC,074536.40,D,3019.29500990,N,12004.26160675,E,1.076,259.2,101125,6.1,W,R,S*5F
$WTRTK,-0.132,0.544,-0.009,0.560,-7.01,0.91,13.13,4,21,5,31,745,--,1,9.3,23.4,193,2,3019.28954409,N,12004.25724578,E,2.37,346.87,3.59*7C
$GNGGA,074536.40,3019.29500990,N,12004.26160675,E,4,47,0.4,5.2444,M,7.8963,M,1.4,0*59
$GNRMC,074536.40,D,3019.29500990,N,12004.26160675,E,1.076,259.2,101125,6.1,W,R,S*5F
$WTRTK,-0.131,0.543,-0.012,0.559,-6.99,0.90,13.13,4,21,5,31,832,--,1,9.3,23.4,193,2,3019.28953935,N,12004.25723260,E,2.37,346.87,3.60*70
$GNGGA,074536.50,3019.29500442,N,12004.26157252,E,4,47,0.4,5.2437,M,7.8963,M,1.5,0*5A
$GNRMC,074536.50,D,3019.29500442,N,12004.26157252,E,1.129,258.7,101125,6.1,W,R,S*56
$WTRTK,-0.131,0.543,-0.012,0.559,-6.97,0.88,13.17,4,21,5,31,1569,--,1,9.4,23.4,193,2,3019.28953911,N,12004.25721200,E,2.39,346.83,3.60*4E
$GNGGA,074536.50,3019.29500442,N,12004.26157252,E,4,47,0.4,5.2437,M,7.8963,M,1.5,0*5A
$GNRMC,074536.50,D,3019.29500442,N,12004.26157252,E,1.129,258.7,101125,6.1,W,R,S*56
$WTRTK,-0.132,0.539,-0.001,0.556,-6.95,0.86,13.29,4,21,5,31,1569,--,1,9.4,23.4,193,2,3019.28953414,N,12004.25719856,E,2.35,346.71,3.60*47
$GNGGA,074536.60,3019.29499767,N,12004.26153666,E,4,47,0.4,5.2469,M,7.8963,M,0.6,0*52
$GNRMC,074536.60,D,3019.29499767,N,12004.26153666,E,1.131,258.3,101125,6.1,W,R,S*5A
$WTRTK,-0.132,0.539,-0.001,0.556,-6.93,0.84,13.47,4,21,5,31,1569,--,1,9.4,23.4,193,2,3019.28953311,N,12004.25717827,E,2.35,346.53,3.60*41
$GNGGA,074536.60,3019.29499767,N,12004.26153666,E,4,47,0.4,5.2469,M,7.8963,M,0.6,0*52
$GNRMC,074536.60,D,3019.29499767,N,12004.26153666,E,1.131,258.3,101125,6.1,W,R,S*5A
$WTRTK,-0.132,0.543,-0.006,0.559,-6.92,0.80,13.77,4,21,5,31,1569,--,1,9.4,23.4,193,2,3019.28952810,N,12004.25716353,E,2.33,346.23,3.60*41
$GNGGA,074536.70,3019.29499225,N,12004.26149946,E,4,47,0.4,5.2481,M,7.8963,M,0.7,0*51
$GNRMC,074536.70,D,3019.29499225,N,12004.26149946,E,1.151,259.8,101125,6.1,W,R,S*52
$WTRTK,-0.132,0.543,-0.006,0.559,-6.90,0.77,14.15,4,21,5,31,1569,--,1,9.4,23.3,193,2,3019.28952614,N,12004.25714349,E,2.33,345.85,3.60*43
$GNGGA,074536.70,3019.29499225,N,12004.26149946,E,4,47,0.4,5.2481,M,7.8963,M,0.7,0*51
$GNRMC,074536.70,D,3019.29499225,N,12004.26149946,E,1.151,259.8,101125,6.1,W,R,S*52
$WTRTK,-0.142,0.541,0.000,0.560,-6.89,0.76,14.62,4,21,5,31,1569,--,1,9.3,23.4,193,2,3019.28952191,N,12004.25712835,E,2.33,345.38,3.60*64
$GNGGA,074536.80,3019.29498733,N,12004.26146232,E,4,47,0.4,5.2547,M,7.8963,M,0.8,0*5E
$GNRMC,074536.80,D,3019.29498733,N,12004.26146232,E,1.184,262.0,101125,6.1,W,R,S*51
$WTRTK,-0.142,0.541,0.000,0.560,-6.93,0.59,15.20,4,21,5,31,1569,--,1,9.3,23.4,193,2,3019.28951905,N,12004.25710846,E,2.30,344.80,3.60*64
$GNGGA,074536.80,3019.29498733,N,12004.26146232,E,4,47,0.4,5.2547,M,7.8963,M,0.8,0*5E
$GNRMC,074536.80,D,3019.29498733,N,12004.26146232,E,1.184,262.0,101125,6.1,W,R,S*51
$WTRTK,-0.156,0.537,-0.011,0.560,-6.92,0.62,15.76,4,21,5,31,1569,--,1,9.3,23.4,193,2,3019.28951604,N,12004.25709195,E,2.30,344.24,3.60*48
$GNGGA,074536.90,3019.29497884,N,12004.26142329,E,4,47,0.4,5.2460,M,7.8963,M,0.9,0*59
$GNRMC,074536.90,D,3019.29497884,N,12004.26142329,E,1.276,259.8,101125,6.1,W,R,S*5D
$WTRTK,-0.156,0.537,-0.011,0.560,-6.92,0.70,16.36,4,21,5,31,1569,--,1,9.3,23.3,193,2,3019.28951237,N,12004.25707253,E,2.30,343.64,3.60*4B
$GNGGA,074536.90,3019.29497884,N,12004.26142329,E,4,47,0.4,5.2460,M,7.8963,M,0.9,0*59
$GNRMC,074536.90,D,3019.29497884,N,12004.26142329,E,1.276,259.8,101125,6.1,W,R,S*5D
$WTRTK,-0.167,0.533,-0.011,0.559,-6.94,0.75,16.96,4,21,5,31,1569,--,1,9.3,23.4,193,2,3019.28951106,N,12004.25705412,E,2.33,343.04,3.60*4C
$GNGGA,074536.90,3019.29497884,N,12004.26142329,E,4,47,0.4,5.2460,M,7.8963,M,0.9,0*59
$GNRMC,074536.90,D,3019.29497884,N,12004.26142329,E,1.276,259.8,101125,6.1,W,R,S*5D
$WTRTK,-0.167,0.533,-0.011,0.559,-6.96,0.83,17.52,4,21,5,31,0,--,1,9.3,23.3,193,2,3019.28950657,N,12004.25703452,E,2.36,342.48,3.60*7E
$GNGGA,074537.00,3019.29496982,N,12004.26138212,E,4,47,0.4,5.2441,M,7.8963,M,1.0,0*58
$GNRMC,074537.00,D,3019.29496982,N,12004.26138212,E,1.376,254.4,101125,6.1,W,R,S*57
$WTRTK,-0.176,0.531,-0.007,0.559,-6.99,0.81,18.03,4,21,5,31,0,--,1,9.3,23.3,193,2,3019.28950445,N,12004.25701384,E,2.40,341.97,3.60*72
$GNGGA,074537.10,3019.29495849,N,12004.26133987,E,4,47,0.4,5.2354,M,7.8963,M,1.1,0*52
$GNRMC,074537.10,D,3019.29495849,N,12004.26133987,E,1.443,251.4,101125,6.1,W,R,S*5B
$WTRTK,-0.176,0.531,-0.007,0.559,-7.04,0.92,18.44,4,21,5,31,0,--,1,9.3,23.4,193,2,3019.28949967,N,12004.25699377,E,2.42,341.56,3.60*77
$GNGGA,074537.10,3019.29495849,N,12004.26133987,E,4,47,0.4,5.2354,M,7.8963,M,1.1,0*52
$GNRMC,074537.10,D,3019.29495849,N,12004.26133987,E,1.443,251.4,101125,6.1,W,R,S*5B
$WTRTK,-0.187,0.532,-0.015,0.564,-7.03,0.80,18.80,4,21,5,31,0,--,1,9.3,23.4,193,2,3019.28949402,N,12004.25697120,E,2.48,341.20,3.60*70
$GNGGA,074537.20,3019.29494693,N,12004.26129429,E,4,47,0.4,5.2378,M,7.8963,M,1.2,0*56
$GNRMC,074537.20,D,3019.29494693,N,12004.26129429,E,1.506,251.1,101125,6.1,W,R,S*57
$WTRTK,-0.187,0.532,-0.015,0.564,-7.01,0.88,19.06,4,21,5,31,0,--,1,9.3,23.4,193,2,3019.28948924,N,12004.25695023,E,2.53,340.94,3.59*73
$GNGGA,074537.20,3019.29494693,N,12004.26129429,E,4,47,0.4,5.2378,M,7.8963,M,1.2,0*56
$GNRMC,074537.20,D,3019.29494693,N,12004.26129429,E,1.506,251.1,101125,6.1,W,R,S*57
$WTRTK,-0.188,0.529,-0.012,0.562,-7.05,0.80,19.24,4,21,5,31,0,--,1,9.3,23.4,193,2,3019.28948176,N,12004.25692735,E,2.58,340.76,3.59*74
$GNGGA,074537.30,3019.29493381,N,12004.26124938,E,4,47,0.4,5.2411,M,7.8963,M,1.3,0*5F
$GNRMC,074537.30,D,3019.29493381,N,12004.26124938,E,1.541,251.2,101125,6.1,W,R,S*57
$WTRTK,-0.188,0.529,-0.012,0.562,-7.09,0.82,19.32,4,21,5,31,0,--,1,9.3,23.4,192,2,3019.28947702,N,12004.25690543,E,2.63,340.68,3.59*70
$GNGGA,074537.30,3019.29493381,N,12004.26124938,E,4,47,0.4,5.2411,M,7.8963,M,1.3,0*5F
$GNRMC,074537.30,D,3019.29493381,N,12004.26124938,E,1.541,251.2,101125,6.1,W,R,S*57
$WTRTK,-0.187,0.532,-0.017,0.564,-7.16,0.81,19.39,4,21,5,31,0,--,1,9.3,23.4,192,2,3019.28946863,N,12004.25688170,E,2.67,340.61,3.59*79
$GNGGA,074537.40,3019.29492231,N,12004.26120289,E,4,47,0.4,5.2354,M,7.8963,M,1.4,0*57
$GNRMC,074537.40,D,3019.29492231,N,12004.26120289,E,1.518,252.2,101125,6.1,W,R,S*51
$WTRTK,-0.187,0.532,-0.017,0.564,-7.27,0.77,19.48,4,21,5,31,0,--,1,9.3,23.4,192,2,3019.28946400,N,12004.25685905,E,2.71,340.52,3.59*7D
$GNGGA,074537.40,3019.29492231,N,12004.26120289,E,4,47,0.4,5.2354,M,7.8963,M,1.4,0*57
$GNRMC,074537.40,D,3019.29492231,N,12004.26120289,E,1.518,252.2,101125,6.1,W,R,S*51
$WTRTK,-0.191,0.529,-0.019,0.563,-7.36,0.79,19.52,4,21,5,31,0,--,1,9.3,23.4,192,2,3019.28945552,N,12004.25683488,E,2.73,340.48,3.59*7E
$GNGGA,074537.50,3019.29490936,N,12004.26115687,E,4,47,0.4,5.2349,M,7.8963,M,1.5,0*59
$GNRMC,074537.50,D,3019.29490936,N,12004.26115687,E,1.508,253.2,101125,6.1,W,R,S*52
$WTRTK,-0.191,0.529,-0.019,0.563,-7.32,0.73,19.57,4,21,5,31,0,--,1,9.3,23.3,192,2,3019.28945091,N,12004.25681172,E,2.75,340.43,3.59*77
$GNGGA,074537.50,3019.29490936,N,12004.26115687,E,4,47,0.4,5.2349,M,7.8963,M,1.5,0*59
$GNRMC,074537.50,D,3019.29490936,N,12004.26115687,E,1.508,253.2,101125,6.1,W,R,S*52
$WTRTK,-0.193,0.527,-0.017,0.561,-7.27,0.80,19.56,4,21,5,31,0,--,1,9.3,23.5,192,2,3019.28944335,N,12004.25678848,E,2.80,340.44,3.59*7F
$GNGGA,074537.60,3019.29489496,N,12004.26110771,E,4,47,0.4,5.2345,M,7.8963,M,1.6,0*57
$GNRMC,074537.60,D,3019.29489496,N,12004.26110771,E,1.543,253.8,101125,6.1,W,R,S*56
$WTRTK,-0.193,0.527,-0.017,0.561,-7.30,0.79,19.50,4,21,5,31,0,--,1,9.3,23.3,192,2,3019.28943869,N,12004.25676459,E,2.84,340.50,3.59*79
$GNGGA,074537.60,3019.29489496,N,12004.26110771,E,4,47,0.4,5.2345,M,7.8963,M,1.6,0*57
$GNRMC,074537.60,D,3019.29489496,N,12004.26110771,E,1.543,253.8,101125,6.1,W,R,S*56
$WTRTK,-0.186,0.528,-0.015,0.560,-7.27,0.82,19.41,4,21,5,31,0,--,1,9.3,23.3,192,2,3019.28943183,N,12004.25674182,E,2.88,340.59,3.59*7A
$GNGGA,074537.70,3019.29488378,N,12004.26106050,E,4,47,0.4,5.2261,M,7.8963,M,1.7,0*55
$GNRMC,074537.70,D,3019.29488378,N,12004.26106050,E,1.555,253.7,101125,6.1,W,R,S*5A
$WTRTK,-0.186,0.528,-0.015,0.560,-7.25,0.90,19.27,4,21,5,31,0,--,1,9.3,23.3,192,2,3019.28942728,N,12004.25671721,E,2.93,340.73,3.59*75
$GNGGA,074537.70,3019.29488378,N,12004.26106050,E,4,47,0.4,5.2261,M,7.8963,M,1.7,0*55
$GNRMC,074537.70,D,3019.29488378,N,12004.26106050,E,1.555,253.7,101125,6.1,W,R,S*5A
$WTRTK,-0.183,0.525,-0.005,0.556,-7.25,0.87,19.09,4,21,5,31,737,--,1,9.3,23.3,192,2,3019.28942037,N,12004.25669382,E,2.98,340.91,3.58*7B
$GNGGA,074537.80,3019.29486895,N,12004.26101143,E,4,47,0.4,5.2266,M,7.8963,M,1.8,0*50
$GNRMC,074537.80,D,3019.29486895,N,12004.26101143,E,1.570,252.4,101125,6.1,W,R,S*52
$WTRTK,-0.183,0.525,-0.005,0.556,-7.27,0.78,18.90,4,21,5,31,737,--,1,9.3,23.3,192,2,3019.28941596,N,12004.25666827,E,3.02,341.10,3.59*75
$GNGGA,074537.80,3019.29486895,N,12004.26101143,E,4,47,0.4,5.2266,M,7.8963,M,1.8,0*50
$GNRMC,074537.80,D,3019.29486895,N,12004.26101143,E,1.570,252.4,101125,6.1,W,R,S*52
$WTRTK,-0.181,0.529,-0.002,0.559,-7.36,0.73,18.74,4,21,5,31,737,--,1,9.3,23.4,192,2,3019.28940902,N,12004.25664576,E,3.05,341.26,3.58*7D
$GNGGA,074537.90,3019.29485613,N,12004.26096244,E,4,46,0.4,5.2228,M,7.8963,M,0.9,0*52
$GNRMC,074537.90,D,3019.29485613,N,12004.26096244,E,1.621,252.1,101125,6.1,W,R,S*59
$WTRTK,-0.181,0.529,-0.002,0.559,-7.29,0.81,18.51,4,21,5,31,737,--,1,9.3,23.4,192,2,3019.28940483,N,12004.25661965,E,3.08,341.49,3.58*72
$GNGGA,074537.90,3019.29485613,N,12004.26096244,E,4,46,0.4,5.2228,M,7.8963,M,0.9,0*52
$GNRMC,074537.90,D,3019.29485613,N,12004.26096244,E,1.621,252.1,101125,6.1,W,R,S*59
$WTRTK,-0.175,0.530,-0.009,0.558,-7.26,0.85,18.25,4,21,5,31,737,--,1,9.3,23.4,192,2,3019.28939673,N,12004.25659775,E,3.12,341.75,3.58*70
$GNGGA,074538.00,3019.29484201,N,12004.26091514,E,4,47,0.4,5.2269,M,7.8963,M,1.0,0*5B
$GNRMC,074538.00,D,3019.29484201,N,12004.26091514,E,1.608,251.9,101125,6.1,W,R,S*5C
$WTRTK,-0.175,0.530,-0.009,0.558,-7.20,0.90,18.06,4,21,5,31,0,--,1,9.3,23.3,192,2,3019.28939258,N,12004.25657108,E,3.14,341.94,3.58*71
$GNGGA,074538.00,3019.29484201,N,12004.26091514,E,4,47,0.4,5.2269,M,7.8963,M,1.0,0*5B
$GNRMC,074538.00,D,3019.29484201,N,12004.26091514,E,1.608,251.9,101125,6.1,W,R,S*5C
$WTRTK,-0.170,0.535,-0.011,0.562,-7.15,0.94,17.86,4,21,5,31,0,--,1,9.3,23.3,192,2,3019.28938375,N,12004.25654808,E,3.17,342.14,3.58*79
$GNGGA,074538.10,3019.29483139,N,12004.26086635,E,4,47,0.4,5.2287,M,7.8963,M,1.1,0*52
$GNRMC,074538.10,D,3019.29483139,N,12004.26086635,E,1.551,255.9,101125,6.1,W,R,S*5F
$WTRTK,-0.170,0.535,-0.011,0.562,-7.16,0.93,17.73,4,21,5,31,0,--,1,9.3,23.3,192,2,3019.28937951,N,12004.25652101,E,3.18,342.27,3.58*7D
$GNGGA,074538.10,3019.29483139,N,12004.26086635,E,4,47,0.4,5.2287,M,7.8963,M,1.1,0*52
$GNRMC,074538.10,D,3019.29483139,N,12004.26086635,E,1.551,255.9,101125,6.1,W,R,S*5F
$WTRTK,-0.173,0.535,-0.019,0.562,-7.16,0.94,17.62,4,21,5,31,0,--,1,9.3,23.3,192,2,3019.28937078,N,12004.25649914,E,3.17,342.38,3.58*74
$GNGGA,074538.20,3019.29481991,N,12004.26081844,E,4,47,0.4,5.2246,M,7.8963,M,1.2,0*58
$GNRMC,074538.20,D,3019.29481991,N,12004.26081844,E,1.529,256.7,101125,6.1,W,R,S*59
$WTRTK,-0.173,0.535,-0.019,0.562,-7.18,0.92,17.58,4,21,5,31,0,--,1,9.3,23.5,192,2,3019.28936650,N,12004.25647201,E,3.19,342.42,3.58*7C
$GNGGA,074538.20,3019.29481991,N,12004.26081844,E,4,47,0.4,5.2246,M,7.8963,M,1.2,0*58
$GNRMC,074538.20,D,3019.29481991,N,12004.26081844,E,1.529,256.7,101125,6.1,W,R,S*59
$WTRTK,-0.169,0.536,-0.009,0.562,-7.17,0.98,17.56,4,21,5,31,0,--,1,9.3,23.5,192,2,3019.28936073,N,12004.25645071,E,3.18,342.44,3.58*79
$GNGGA,074538.30,3019.29481030,N,12004.26077000,E,4,47,0.4,5.2279,M,7.8963,M,1.3,0*57
$GNRMC,074538.30,D,3019.29481030,N,12004.26077000,E,1.546,256.2,101125,6.1,W,R,S*57
$WTRTK,-0.169,0.536,-0.009,0.562,-7.16,0.96,17.57,4,21,5,31,0,--,1,9.3,23.4,192,2,3019.28935627,N,12004.25642357,E,3.19,342.43,3.58*74
$GNGGA,074538.30,3019.29481030,N,12004.26077000,E,4,47,0.4,5.2279,M,7.8963,M,1.3,0*57
$GNRMC,074538.30,D,3019.29481030,N,12004.26077000,E,1.546,256.2,101125,6.1,W,R,S*57
$WTRTK,-0.173,0.535,-0.020,0.563,-7.16,1.01,17.59,4,21,5,31,0,--,1,9.3,23.3,192,2,3019.28935120,N,12004.25640281,E,3.19,342.41,3.57*75
$GNGGA,074538.40,3019.29479866,N,12004.26071773,E,4,47,0.4,5.2187,M,7.8963,M,1.4,0*5C
$GNRMC,074538.40,D,3019.29479866,N,12004.26071773,E,1.596,255.3,101125,6.1,W,R,S*56
$WTRTK,-0.173,0.535,-0.020,0.563,-7.16,1.01,17.64,4,21,5,31,0,--,1,9.3,23.5,192,2,3019.28934677,N,12004.25637559,E,3.21,342.36,3.57*70
$GNGGA,074538.40,3019.29479866,N,12004.26071773,E,4,47,0.4,5.2187,M,7.8963,M,1.4,0*5C
$GNRMC,074538.40,D,3019.29479866,N,12004.26071773,E,1.596,255.3,101125,6.1,W,R,S*56
$WTRTK,-0.165,0.537,-0.001,0.562,-7.14,1.07,17.64,4,21,5,31,87,--,1,9.3,23.3,192,2,3019.28934175,N,12004.25635419,E,3.22,342.36,3.58*44
$GNGGA,074538.50,3019.29478730,N,12004.26066947,E,4,46,0.4,5.2146,M,7.8963,M,1.5,0*52
$GNRMC,074538.50,D,3019.29478730,N,12004.26066947,E,1.571,254.0,101125,6.1,W,R,S*5E
$WTRTK,-0.165,0.537,-0.001,0.562,-7.13,1.14,17.62,4,21,5,31,87,--,1,9.3,23.3,192,2,3019.28933741,N,12004.25632668,E,3.24,342.38,3.58*4A
$GNGGA,074538.50,3019.29478730,N,12004.26066947,E,4,46,0.4,5.2146,M,7.8963,M,1.5,0*52
$GNRMC,074538.50,D,3019.29478730,N,12004.26066947,E,1.571,254.0,101125,6.1,W,R,S*5E
$WTRTK,-0.167,0.531,0.008,0.557,-7.10,1.13,17.58,4,21,5,31,87,--,1,9.3,23.4,192,2,3019.28933144,N,12004.25630428,E,3.26,342.42,3.58*6E
$GNGGA,074538.60,3019.29477392,N,12004.26062185,E,4,46,0.4,5.2237,M,7.8963,M,1.6,0*56
$GNRMC,074538.60,D,3019.29477392,N,12004.26062185,E,1.587,252.8,101125,6.1,W,R,S*5B
$WTRTK,-0.167,0.531,0.008,0.557,-7.06,1.18,17.47,4,21,5,31,832,--,1,9.3,23.4,192,2,3019.28932739,N,12004.25627622,E,3.31,342.53,3.58*5F
$GNGGA,074538.60,3019.29477392,N,12004.26062185,E,4,46,0.4,5.2237,M,7.8963,M,1.6,0*56
$GNRMC,074538.60,D,3019.29477392,N,12004.26062185,E,1.587,252.8,101125,6.1,W,R,S*5B
$WTRTK,-0.166,0.537,-0.005,0.563,-7.06,1.19,17.32,4,21,5,31,832,--,1,9.3,23.3,192,2,3019.28932050,N,12004.25625531,E,3.33,342.68,3.58*7A
$GNGGA,074538.70,3019.29476211,N,12004.26057250,E,4,46,0.4,5.2194,M,7.8963,M,0.7,0*5B
$GNRMC,074538.70,D,3019.29476211,N,12004.26057250,E,1.587,253.7,101125,6.1,W,R,S*52
$WTRTK,-0.166,0.537,-0.005,0.563,-7.09,1.08,17.17,4,21,5,31,832,--,1,9.3,23.5,191,2,3019.28931687,N,12004.25622660,E,3.36,342.83,3.58*78
$GNGGA,074538.70,3019.29476211,N,12004.26057250,E,4,46,0.4,5.2194,M,7.8963,M,0.7,0*5B
$GNRMC,074538.70,D,3019.29476211,N,12004.26057250,E,1.587,253.7,101125,6.1,W,R,S*52
$WTRTK,-0.162,0.539,0.000,0.563,-7.10,1.10,17.01,4,21,5,31,832,--,1,9.3,23.3,191,2,3019.28930859,N,12004.25620595,E,3.35,342.99,3.58*55
$GNGGA,074538.80,3019.29475053,N,12004.26052497,E,4,46,0.4,5.2193,M,7.8963,M,0.8,0*53
$GNRMC,074538.80,D,3019.29475053,N,12004.26052497,E,1.510,254.5,101125,6.1,W,R,S*59
$WTRTK,-0.162,0.539,0.000,0.563,-7.03,1.10,16.87,4,21,5,31,832,--,1,9.3,23.3,191,2,3019.28930532,N,12004.25617720,E,3.34,343.13,3.58*52
$GNGGA,074538.80,3019.29475053,N,12004.26052497,E,4,46,0.4,5.2193,M,7.8963,M,0.8,0*53
$GNRMC,074538.80,D,3019.29475053,N,12004.26052497,E,1.510,254.5,101125,6.1,W,R,S*59
$WTRTK,-0.159,0.539,0.003,0.563,-6.92,1.02,16.74,4,21,5,31,832,--,1,9.3,23.4,191,2,3019.28929771,N,12004.25615673,E,3.35,343.26,3.58*57
$GNGGA,074538.90,3019.29473982,N,12004.26047857,E,4,46,0.4,5.2217,M,7.8963,M,0.9,0*5B
$GNRMC,074538.90,D,3019.29473982,N,12004.26047857,E,1.451,255.5,101125,6.1,W,R,S*5A
$WTRTK,-0.159,0.539,0.003,0.563,-6.90,0.98,16.64,4,21,5,31,832,--,1,9.3,23.3,191,2,3019.28929501,N,12004.25612787,E,3.37,343.36,3.58*5A
$GNGGA,074538.90,3019.29473982,N,12004.26047857,E,4,46,0.4,5.2217,M,7.8963,M,0.9,0*5B
$GNRMC,074538.90,D,3019.29473982,N,12004.26047857,E,1.451,255.5,101125,6.1,W,R,S*5A
$WTRTK,-0.161,0.540,-0.010,0.563,-6.89,0.99,16.55,4,21,5,31,832,--,1,9.3,23.3,191,2,3019.28928800,N,12004.25610983,E,3.37,343.45,3.58*7A
$GNGGA,074538.90,3019.29473982,N,12004.26047857,E,4,46,0.4,5.2217,M,7.8963,M,0.9,0*5B
$GNRMC,074538.90,D,3019.29473982,N,12004.26047857,E,1.451,255.5,101125,6.1,W,R,S*5A
$WTRTK,-0.161,0.540,-0.010,0.563,-6.85,1.12,16.38,4,21,5,31,0,--,1,9.3,23.4,191,2,3019.28928564,N,12004.25608069,E,3.38,343.62,3.58*70
$GNGGA,074539.00,3019.29472964,N,12004.26043037,E,4,47,0.4,5.2144,M,7.8963,M,1.0,0*5C
$GNRMC,074539.00,D,3019.29472964,N,12004.26043037,E,1.459,256.3,101125,6.1,W,R,S*5C
$WTRTK,-0.155,0.537,0.005,0.559,-6.83,1.16,16.16,4,21,5,31,0,--,1,9.3,23.4,191,2,3019.28927936,N,12004.25606395,E,3.39,343.84,3.58*5A
$GNGGA,074539.10,3019.29471989,N,12004.26038559,E,4,46,0.4,5.2137,M,7.8963,M,1.1,0*58
$GNRMC,074539.10,D,3019.29471989,N,12004.26038559,E,1.462,255.8,101125,6.1,W,R,S*5C
$WTRTK,-0.155,0.537,0.005,0.559,-6.86,1.16,15.90,4,21,5,31,0,--,1,9.3,23.4,191,2,3019.28927737,N,12004.25603451,E,3.42,344.10,3.58*51
$GNGGA,074539.10,3019.29471989,N,12004.26038559,E,4,46,0.4,5.2137,M,7.8963,M,1.1,0*58
$GNRMC,074539.10,D,3019.29471989,N,12004.26038559,E,1.462,255.8,101125,6.1,W,R,S*5C
$WTRTK,-0.150,0.540,-0.002,0.560,-6.81,1.18,15.63,4,21,5,31,0,--,1,9.3,23.3,191,2,3019.28927124,N,12004.25601818,E,3.39,344.37,3.58*78
$GNGGA,074539.20,3019.29470999,N,12004.26033890,E,4,47,0.4,5.2190,M,7.8963,M,1.2,0*57
$GNRMC,074539.20,D,3019.29470999,N,12004.26033890,E,1.463,255.9,101125,6.1,W,R,S*5C
$WTRTK,-0.150,0.540,-0.002,0.560,-6.77,1.26,15.38,4,21,5,31,0,--,1,9.3,23.4,191,2,3019.28926977,N,12004.25598898,E,3.37,344.62,3.58*7F
$GNGGA,074539.20,3019.29470999,N,12004.26033890,E,4,47,0.4,5.2190,M,7.8963,M,1.2,0*57
$GNRMC,074539.20,D,3019.29470999,N,12004.26033890,E,1.463,255.9,101125,6.1,W,R,S*5C
$WTRTK,-0.144,0.542,0.000,0.561,-6.73,1.22,15.13,4,21,5,31,0,--,1,9.3,23.4,191,2,3019.28926288,N,12004.25597260,E,3.36,344.87,3.58*5C
$GNGGA,074539.30,3019.29469954,N,12004.26029543,E,4,47,0.4,5.2197,M,7.8963,M,1.3,0*51
$GNRMC,074539.30,D,3019.29469954,N,12004.26029543,E,1.402,256.5,101125,6.1,W,R,S*54
$WTRTK,-0.144,0.542,0.000,0.561,-6.71,1.30,14.88,4,21,5,31,0,--,1,9.3,23.3,191,2,3019.28926206,N,12004.25594343,E,3.39,345.12,3.58*5E
$GNGGA,074539.30,3019.29469954,N,12004.26029543,E,4,47,0.4,5.2197,M,7.8963,M,1.3,0*51
$GNRMC,074539.30,D,3019.29469954,N,12004.26029543,E,1.402,256.5,101125,6.1,W,R,S*54
$WTRTK,-0.140,0.540,-0.002,0.558,-6.68,1.32,14.60,4,21,5,31,0,--,1,9.3,23.4,191,2,3019.28925445,N,12004.25592712,E,3.37,345.40,3.58*7B
$GNGGA,074539.40,3019.29469163,N,12004.26025410,E,4,47,0.4,5.2248,M,7.8963,M,1.4,0*57
$GNRMC,074539.40,D,3019.29469163,N,12004.26025410,E,1.339,257.2,101125,6.1,W,R,S*5D
$WTRTK,-0.140,0.540,-0.002,0.558,-6.66,1.37,14.33,4,21,5,31,0,--,1,9.3,23.3,191,2,3019.28925394,N,12004.25589792,E,3.37,345.67,3.58*7D
$GNGGA,074539.40,3019.29469163,N,12004.26025410,E,4,47,0.4,5.2248,M,7.8963,M,1.4,0*57
$GNRMC,074539.40,D,3019.29469163,N,12004.26025410,E,1.339,257.2,101125,6.1,W,R,S*5D
$WTRTK,-0.140,0.539,-0.005,0.557,-6.63,1.43,14.11,4,21,5,31,87,--,1,9.3,23.3,191,2,3019.28924640,N,12004.25588307,E,3.34,345.89,3.59*44
$GNGGA,074539.50,3019.29468296,N,12004.26021033,E,4,47,0.4,5.2213,M,7.8963,M,1.5,0*50
$GNRMC,074539.50,D,3019.29468296,N,12004.26021033,E,1.321,256.8,101125,6.1,W,R,S*57
$WTRTK,-0.140,0.539,-0.005,0.557,-6.59,1.47,13.95,4,21,5,31,87,--,1,9.3,23.5,191,2,3019.28924538,N,12004.25585410,E,3.35,346.05,3.59*42
$GNGGA,074539.50,3019.29468296,N,12004.26021033,E,4,47,0.4,5.2213,M,7.8963,M,1.5,0*50
$GNRMC,074539.50,D,3019.29468296,N,12004.26021033,E,1.321,256.8,101125,6.1,W,R,S*57
$WTRTK,-0.135,0.542,-0.009,0.559,-6.55,1.52,13.84,4,21,5,31,832,--,1,9.3,23.3,191,2,3019.28923840,N,12004.25584100,E,3.29,346.16,3.59*79
$GNGGA,074539.60,3019.29467399,N,12004.26016813,E,4,46,0.4,5.2262,M,7.8962,M,1.6,0*59
$GNRMC,074539.60,D,3019.29467399,N,12004.26016813,E,1.365,255.2,101125,6.1,W,R,S*52
$WTRTK,-0.135,0.542,-0.009,0.559,-6.51,1.78,13.72,4,21,5,31,832,--,1,9.3,23.4,191,2,3019.28923738,N,12004.25581286,E,3.23,346.28,3.59*74
$GNGGA,074539.60,3019.29467399,N,12004.26016813,E,4,46,0.4,5.2262,M,7.8962,M,1.6,0*59
$GNRMC,074539.60,D,3019.29467399,N,12004.26016813,E,1.365,255.2,101125,6.1,W,R,S*52
$WTRTK,-0.134,0.548,-0.013,0.564,-6.49,1.51,13.72,4,21,5,31,832,--,1,9.3,23.3,191,2,3019.28923104,N,12004.25579944,E,3.24,346.28,3.59*73
$GNGGA,074539.70,3019.29466740,N,12004.26012757,E,4,47,0.4,5.2217,M,7.8962,M,0.7,0*51
$GNRMC,074539.70,D,3019.29466740,N,12004.26012757,E,1.323,258.0,101125,6.1,W,R,S*54
$WTRTK,-0.134,0.548,-0.013,0.564,-6.58,1.49,13.83,4,21,5,31,832,--,1,9.3,23.5,191,2,3019.28923009,N,12004.25577153,E,3.21,346.17,3.59*77
$GNGGA,074539.70,3019.29466740,N,12004.26012757,E,4,47,0.4,5.2217,M,7.8962,M,0.7,0*51
$GNRMC,074539.70,D,3019.29466740,N,12004.26012757,E,1.323,258.0,101125,6.1,W,R,S*54
$WTRTK,-0.132,0.546,0.000,0.562,-6.59,1.52,13.93,4,21,5,31,832,--,1,9.3,23.3,191,2,3019.28922277,N,12004.25575707,E,3.22,346.07,3.59*57
$GNGGA,074539.80,3019.29465951,N,12004.26008741,E,4,47,0.4,5.2231,M,7.8962,M,0.8,0*54
$GNRMC,074539.80,D,3019.29465951,N,12004.26008741,E,1.302,258.6,101125,6.1,W,R,S*5F
$WTRTK,-0.132,0.546,0.000,0.562,-6.61,1.47,13.94,4,21,5,31,832,--,1,9.3,23.4,191,2,3019.28922194,N,12004.25572912,E,3.24,346.06,3.59*5C
$GNGGA,074539.80,3019.29465951,N,12004.26008741,E,4,47,0.4,5.2231,M,7.8962,M,0.8,0*54
$GNRMC,074539.80,D,3019.29465951,N,12004.26008741,E,1.302,258.6,101125,6.1,W,R,S*5F
$WTRTK,-0.138,0.546,-0.010,0.563,-6.60,1.46,13.93,4,21,5,31,832,--,1,9.3,23.3,191,2,3019.28921580,N,12004.25571538,E,3.21,346.07,3.59*7A
$GNGGA,074539.90,3019.29465257,N,12004.26004616,E,4,46,0.4,5.2193,M,7.8962,M,0.9,0*5C
$GNRMC,074539.90,D,3019.29465257,N,12004.26004616,E,1.286,259.0,101125,6.1,W,R,S*56
$WTRTK,-0.138,0.546,-0.010,0.563,-6.60,1.47,13.91,4,21,5,31,832,--,1,9.3,23.4,191,2,3019.28921487,N,12004.25568752,E,3.23,346.09,3.59*72
$GNGGA,074539.90,3019.29465257,N,12004.26004616,E,4,46,0.4,5.2193,M,7.8962,M,0.9,0*5C
$GNRMC,074539.90,D,3019.29465257,N,12004.26004616,E,1.286,259.0,101125,6.1,W,R,S*56
$WTRTK,-0.136,0.543,-0.005,0.560,-6.67,1.47,13.90,4,21,5,31,832,--,1,9.3,23.4,191,2,3019.28920924,N,12004.25567423,E,3.21,346.10,3.59*7D
$GNGGA,074539.90,3019.29465257,N,12004.26004616,E,4,46,0.4,5.2193,M,7.8962,M,0.9,0*5C
$GNRMC,074539.90,D,3019.29465257,N,12004.26004616,E,1.286,259.0,101125,6.1,W,R,S*56
$WTRTK,-0.136,0.543,-0.005,0.560,-6.67,1.44,13.89,4,21,5,31,0,--,1,9.3,23.3,191,2,3019.28920823,N,12004.25564641,E,3.21,346.11,3.59*7A
$GNGGA,074540.00,3019.29464453,N,12004.26000475,E,4,47,0.4,5.2168,M,7.8962,M,1.0,0*56
$GNRMC,074540.00,D,3019.29464453,N,12004.26000475,E,1.292,258.9,101125,6.1,W,R,S*5C
$WTRTK,-0.135,0.546,-0.009,0.563,-6.66,1.48,13.85,4,21,5,31,0,--,1,9.3,23.4,191,2,3019.28920335,N,12004.25563365,E,3.19,346.15,3.58*73
$GNGGA,074540.10,3019.29463697,N,12004.25996420,E,4,47,0.4,5.2156,M,7.8962,M,1.1,0*53
$GNRMC,074540.10,D,3019.29463697,N,12004.25996420,E,1.299,258.1,101125,6.1,W,R,S*56
$WTRTK,-0.135,0.546,-0.009,0.563,-6.65,1.55,13.82,4,21,5,31,0,--,1,9.3,23.5,191,2,3019.28920245,N,12004.25560597,E,3.20,346.18,3.58*73
$GNGGA,074540.10,3019.29463697,N,12004.25996420,E,4,47,0.4,5.2156,M,7.8962,M,1.1,0*53
$GNRMC,074540.10,D,3019.29463697,N,12004.25996420,E,1.299,258.1,101125,6.1,W,R,S*56
$WTRTK,-0.132,0.542,-0.001,0.558,-6.65,1.58,13.78,4,21,5,31,0,--,1,9.3,23.4,191,2,3019.28919745,N,12004.25559255,E,3.18,346.22,3.58*77
$GNGGA,074540.20,3019.29462889,N,12004.25992322,E,4,46,0.4,5.2137,M,7.8962,M,1.2,0*54
$GNRMC,074540.20,D,3019.29462889,N,12004.25992322,E,1.276,257.9,101125,6.1,W,R,S*52
$WTRTK,-0.132,0.542,-0.001,0.558,-6.64,1.59,13.73,4,21,5,31,0,--,1,9.3,23.4,191,2,3019.28919671,N,12004.25556491,E,3.21,346.27,3.58*74
$GNGGA,074540.20,3019.29462889,N,12004.25992322,E,4,46,0.4,5.2137,M,7.8962,M,1.2,0*54
$GNRMC,074540.20,D,3019.29462889,N,12004.25992322,E,1.276,257.9,101125,6.1,W,R,S*52
$WTRTK,-0.133,0.543,-0.004,0.559,-6.64,1.60,13.67,4,21,5,31,0,--,1,9.3,23.3,191,2,3019.28919127,N,12004.25555137,E,3.18,346.33,3.58*79
$GNGGA,074540.30,3019.29462179,N,12004.25988309,E,4,46,0.4,5.2178,M,7.8962,M,1.3,0*5B
$GNRMC,074540.30,D,3019.29462179,N,12004.25988309,E,1.258,256.8,101125,6.1,W,R,S*5B
$WTRTK,-0.133,0.543,-0.004,0.559,-6.64,1.61,13.58,4,21,5,31,745,--,1,9.3,23.3,190,2,3019.28919090,N,12004.25552376,E,3.20,346.42,3.58*73
$GNGGA,074540.30,3019.29462179,N,12004.25988309,E,4,46,0.4,5.2178,M,7.8962,M,1.3,0*5B
$GNRMC,074540.30,D,3019.29462179,N,12004.25988309,E,1.258,256.8,101125,6.1,W,R,S*5B
$WTRTK,-0.131,0.542,-0.007,0.558,-6.66,1.52,13.52,4,21,5,31,745,--,1,9.3,23.5,190,2,3019.28918513,N,12004.25551099,E,3.16,346.48,3.58*7D
$GNGGA,074540.40,3019.29461119,N,12004.25983972,E,4,46,0.4,5.2014,M,7.8962,M,1.4,0*58
$GNRMC,074540.40,D,3019.29461119,N,12004.25983972,E,1.225,258.3,101125,6.1,W,R,S*5B
$WTRTK,-0.131,0.542,-0.007,0.558,-6.66,1.55,13.43,4,21,5,31,745,--,1,9.3,23.3,190,2,3019.28918516,N,12004.25548347,E,3.19,346.57,3.58*70
$GNGGA,074540.40,3019.29461119,N,12004.25983972,E,4,46,0.4,5.2014,M,7.8962,M,1.4,0*58
$GNRMC,074540.40,D,3019.29461119,N,12004.25983972,E,1.225,258.3,101125,6.1,W,R,S*5B
$WTRTK,-0.129,0.544,-0.012,0.560,-6.62,1.63,13.29,4,21,5,31,832,--,1,9.3,23.5,190,2,3019.28917857,N,12004.25547114,E,3.17,346.71,3.59*73
$GNGGA,074540.50,3019.29460540,N,12004.25980256,E,4,45,0.4,5.1983,M,7.8962,M,0.5,0*59
$GNRMC,074540.50,D,3019.29460540,N,12004.25980256,E,1.187,259.5,101125,6.1,W,R,S*51
$WTRTK,-0.129,0.544,-0.012,0.560,-6.60,1.69,13.16,4,21,5,31,832,--,1,9.3,23.4,190,2,3019.28917889,N,12004.25544367,E,3.18,346.84,3.59*75
$GNGGA,074540.50,3019.29460540,N,12004.25980256,E,4,45,0.4,5.1983,M,7.8962,M,0.5,0*59
$GNRMC,074540.50,D,3019.29460540,N,12004.25980256,E,1.187,259.5,101125,6.1,W,R,S*51
$WTRTK,-0.126,0.544,0.001,0.559,-6.60,1.72,12.99,4,21,5,31,832,--,1,9.3,23.3,190,2,3019.28917314,N,12004.25543227,E,3.18,347.01,3.59*55
$GNGGA,074540.60,3019.29459786,N,12004.25976523,E,4,45,0.4,5.1945,M,7.8962,M,0.6,0*5D
$GNRMC,074540.60,D,3019.29459786,N,12004.25976523,E,1.162,259.3,101125,6.1,W,R,S*51
$WTRTK,-0.126,0.544,0.001,0.559,-6.60,1.76,12.77,4,21,5,31,832,--,1,9.3,23.3,190,2,3019.28917367,N,12004.25540460,E,3.21,347.23,3.59*59
$GNGGA,074540.60,3019.29459786,N,12004.25976523,E,4,45,0.4,5.1945,M,7.8962,M,0.6,0*5D
$GNRMC,074540.60,D,3019.29459786,N,12004.25976523,E,1.162,259.3,101125,6.1,W,R,S*51
$WTRTK,-0.122,0.546,0.005,0.560,-6.60,1.77,12.58,4,21,5,31,832,--,1,9.3,23.3,190,2,3019.28916806,N,12004.25539408,E,3.18,347.42,3.59*5D
$GNGGA,074540.70,3019.29459245,N,12004.25972696,E,4,45,0.4,5.1944,M,7.8962,M,0.7,0*5F
$GNRMC,074540.70,D,3019.29459245,N,12004.25972696,E,1.174,258.5,101125,6.1,W,R,S*53
$WTRTK,-0.122,0.546,0.005,0.560,-6.59,1.73,12.44,4,21,5,31,832,--,1,9.3,23.4,190,2,3019.28916856,N,12004.25536659,E,3.16,347.56,3.59*5E
$GNGGA,074540.70,3019.29459245,N,12004.25972696,E,4,45,0.4,5.1944,M,7.8962,M,0.7,0*5F
$GNRMC,074540.70,D,3019.29459245,N,12004.25972696,E,1.174,258.5,101125,6.1,W,R,S*53
$WTRTK,-0.116,0.545,0.005,0.558,-6.44,1.63,12.27,4,21,5,31,832,--,1,9.3,23.3,190,2,3019.28916258,N,12004.25535794,E,3.07,347.73,3.58*5F
$GNGGA,074540.80,3019.29458462,N,12004.25969118,E,4,45,0.4,5.2010,M,7.8962,M,0.8,0*5D
$GNRMC,074540.80,D,3019.29458462,N,12004.25969118,E,1.156,259.0,101125,6.1,W,R,S*51
$WTRTK,-0.116,0.545,0.005,0.558,-6.45,1.51,12.08,4,21,5,31,832,--,1,9.2,23.4,190,2,3019.28916352,N,12004.25533156,E,3.03,347.92,3.58*5A
$GNGGA,074540.80,3019.29458462,N,12004.25969118,E,4,45,0.4,5.2010,M,7.8962,M,0.8,0*5D
$GNRMC,074540.80,D,3019.29458462,N,12004.25969118,E,1.156,259.0,101125,6.1,W,R,S*51
$WTRTK,-0.115,0.549,0.000,0.561,-6.55,1.61,12.00,4,21,5,31,832,--,1,9.2,23.4,190,2,3019.28915593,N,12004.25532153,E,2.99,348.00,3.58*5A
$GNGGA,074540.90,3019.29457959,N,12004.25965592,E,4,45,0.4,5.1939,M,7.8962,M,0.9,0*5C
$GNRMC,074540.90,D,3019.29457959,N,12004.25965592,E,1.118,258.6,101125,6.1,W,R,S*5D
$WTRTK,-0.115,0.549,0.000,0.561,-6.68,1.41,12.16,4,21,5,31,832,--,1,9.2,23.5,190,2,3019.28915593,N,12004.25529534,E,3.03,347.84,3.58*5E
$GNGGA,074540.90,3019.29457959,N,12004.25965592,E,4,45,0.4,5.1939,M,7.8962,M,0.9,0*5C
$GNRMC,074540.90,D,3019.29457959,N,12004.25965592,E,1.118,258.6,101125,6.1,W,R,S*5D
$WTRTK,-0.113,0.545,0.002,0.557,-6.68,1.69,12.34,4,21,5,31,832,--,1,9.2,23.4,190,2,3019.28914939,N,12004.25528566,E,2.93,347.66,3.58*57
$GNGGA,074540.90,3019.29457959,N,12004.25965592,E,4,45,0.4,5.1939,M,7.8962,M,0.9,0*5C
$GNRMC,074540.90,D,3019.29457959,N,12004.25965592,E,1.118,258.6,101125,6.1,W,R,S*5D
$WTRTK,-0.113,0.545,0.002,0.557,-6.72,1.75,12.59,4,21,5,31,0,--,1,9.3,23.5,190,2,3019.28914892,N,12004.25526013,E,2.97,347.41,3.58*5B
$GNGGA,074541.00,3019.29457420,N,12004.25962159,E,4,45,0.4,5.1884,M,7.8962,M,1.0,0*5C
$GNRMC,074541.00,D,3019.29457420,N,12004.25962159,E,1.108,259.4,101125,6.1,W,R,S*50
$WTRTK,-0.124,0.544,0.000,0.558,-6.76,1.72,12.86,4,21,5,31,0,--,1,9.3,23.3,190,2,3019.28914375,N,12004.25525042,E,2.92,347.14,3.58*54
$GNGGA,074541.10,3019.29456886,N,12004.25958770,E,4,45,0.4,5.1896,M,7.8962,M,1.1,0*5A
$GNRMC,074541.10,D,3019.29456886,N,12004.25958770,E,1.087,260.5,101125,6.1,W,R,S*59
$WTRTK,-0.124,0.544,0.000,0.558,-6.78,1.80,13.04,4,21,5,31,0,--,1,9.3,23.3,190,2,3019.28914336,N,12004.25522500,E,2.96,346.96,3.58*50
$GNGGA,074541.10,3019.29456886,N,12004.25958770,E,4,45,0.4,5.1896,M,7.8962,M,1.1,0*5A
$GNRMC,074541.10,D,3019.29456886,N,12004.25958770,E,1.087,260.5,101125,6.1,W,R,S*59
$WTRTK,-0.128,0.546,-0.003,0.561,-6.84,1.79,13.18,4,21,5,31,0,--,1,9.2,23.4,190,2,3019.28913918,N,12004.25521465,E,2.97,346.82,3.58*70
$GNGGA,074541.20,3019.29456412,N,12004.25955183,E,4,44,0.4,5.1854,M,7.8962,M,1.2,0*53
$GNRMC,074541.20,D,3019.29456412,N,12004.25955183,E,1.089,262.0,101125,6.1,W,R,S*55
$WTRTK,-0.128,0.546,-0.003,0.561,-6.89,1.74,13.28,4,21,5,31,0,--,1,9.3,23.3,190,2,3019.28913899,N,12004.25518897,E,2.96,346.72,3.59*79
$GNGGA,074541.20,3019.29456412,N,12004.25955183,E,4,44,0.4,5.1854,M,7.8962,M,1.2,0*53
$GNRMC,074541.20,D,3019.29456412,N,12004.25955183,E,1.089,262.0,101125,6.1,W,R,S*55
$WTRTK,-0.124,0.545,0.007,0.559,-6.92,1.77,13.33,4,21,5,31,0,--,1,9.3,23.4,190,2,3019.28913503,N,12004.25517961,E,2.95,346.67,3.58*5F
$GNGGA,074541.30,3019.29455675,N,12004.25951920,E,4,44,0.4,5.1926,M,7.8962,M,1.3,0*52
$GNRMC,074541.30,D,3019.29455675,N,12004.25951920,E,1.099,261.4,101125,6.1,W,R,S*57
$WTRTK,-0.124,0.545,0.007,0.559,-6.95,1.76,13.33,4,21,5,31,0,--,1,9.3,23.3,190,2,3019.28913512,N,12004.25515392,E,2.98,346.67,3.59*56
$GNGGA,074541.30,3019.29455675,N,12004.25951920,E,4,44,0.4,5.1926,M,7.8962,M,1.3,0*52
$GNRMC,074541.30,D,3019.29455675,N,12004.25951920,E,1.099,261.4,101125,6.1,W,R,S*57
$WTRTK,-0.124,0.544,0.002,0.558,-6.99,1.78,13.24,4,21,5,31,0,--,1,9.2,23.4,190,2,3019.28913218,N,12004.25514444,E,2.97,346.76,3.58*5F
$GNGGA,074541.40,3019.29455058,N,12004.25948501,E,4,45,0.4,5.1922,M,7.8962,M,1.4,0*59
$GNRMC,074541.40,D,3019.29455058,N,12004.25948501,E,1.094,260.1,101125,6.1,W,R,S*57
$WTRTK,-0.124,0.544,0.002,0.558,-7.03,1.77,13.08,4,21,5,31,0,--,1,9.3,23.3,190,2,3019.28913291,N,12004.25511857,E,3.00,346.92,3.59*54
$GNGGA,074541.40,3019.29455058,N,12004.25948501,E,4,45,0.4,5.1922,M,7.8962,M,1.4,0*59
$GNRMC,074541.40,D,3019.29455058,N,12004.25948501,E,1.094,260.1,101125,6.1,W,R,S*57
$WTRTK,-0.118,0.544,0.001,0.557,-7.16,2.09,12.79,4,21,5,31,87,--,1,9.3,23.5,190,2,3019.28912914,N,12004.25510956,E,2.95,347.21,3.58*64
$GNGGA,074541.50,3019.29454411,N,12004.25945285,E,4,46,0.4,5.1874,M,7.8962,M,1.5,0*56
$GNRMC,074541.50,D,3019.29454411,N,12004.25945285,E,1.006,257.4,101125,6.1,W,R,S*52
$WTRTK,-0.118,0.544,0.001,0.557,-7.14,1.92,12.57,4,21,5,31,87,--,1,9.3,23.3,190,2,3019.28913106,N,12004.25508386,E,3.01,347.43,3.59*60
$GNGGA,074541.50,3019.29454411,N,12004.25945285,E,4,46,0.4,5.1874,M,7.8962,M,1.5,0*56
$GNRMC,074541.50,D,3019.29454411,N,12004.25945285,E,1.006,257.4,101125,6.1,W,R,S*52
$WTRTK,-0.116,0.551,-0.002,0.563,-7.15,1.71,12.38,4,21,5,31,87,--,1,9.3,23.5,190,2,3019.28912577,N,12004.25507449,E,2.98,347.62,3.58*4B
$GNGGA,074541.60,3019.29454250,N,12004.25942334,E,4,46,0.4,5.1878,M,7.8962,M,1.6,0*55
$GNRMC,074541.60,D,3019.29454250,N,12004.25942334,E,0.924,259.6,101125,6.1,W,R,S*5A
$WTRTK,-0.116,0.551,-0.002,0.563,-7.13,1.71,12.08,4,21,5,31,87,--,1,9.3,23.3,190,2,3019.28912828,N,12004.25504893,E,2.98,347.92,3.59*49
$GNGGA,074541.60,3019.29454250,N,12004.25942334,E,4,46,0.4,5.1878,M,7.8962,M,1.6,0*55
$GNRMC,074541.60,D,3019.29454250,N,12004.25942334,E,0.924,259.6,101125,6.1,W,R,S*5A
$WTRTK,-0.110,0.546,0.003,0.558,-7.14,1.75,11.75,4,21,5,31,87,--,1,9.3,23.4,190,2,3019.28912106,N,12004.25504266,E,2.97,348.25,3.58*68
$GNGGA,074541.70,3019.29453701,N,12004.25939367,E,4,46,0.4,5.1875,M,7.8962,M,1.7,0*54
$GNRMC,074541.70,D,3019.29453701,N,12004.25939367,E,0.883,263.3,101125,6.1,W,R,S*57
$WTRTK,-0.110,0.546,0.003,0.558,-7.14,1.77,11.40,4,21,5,31,87,--,1,9.3,23.3,190,2,3019.28912373,N,12004.25501713,E,2.97,348.60,3.58*68
$GNGGA,074541.70,3019.29453701,N,12004.25939367,E,4,46,0.4,5.1875,M,7.8962,M,1.7,0*54
$GNRMC,074541.70,D,3019.29453701,N,12004.25939367,E,0.883,263.3,101125,6.1,W,R,S*57
$WTRTK,-0.105,0.547,0.009,0.557,-7.17,1.97,10.96,4,21,5,31,87,--,1,9.3,23.4,190,2,3019.28911773,N,12004.25501349,E,2.93,349.04,3.58*63
$GNGGA,074541.80,3019.29453127,N,12004.25936455,E,4,46,0.4,5.1809,M,7.8962,M,1.8,0*54
$GNRMC,074541.80,D,3019.29453127,N,12004.25936455,E,0.878,261.2,101125,6.1,W,R,S*54
$WTRTK,-0.105,0.547,0.009,0.557,-7.19,1.95,10.55,4,21,5,31,87,--,1,9.3,23.4,190,2,3019.28912085,N,12004.25498811,E,3.00,349.45,3.58*64
$GNGGA,074541.80,3019.29453127,N,12004.25936455,E,4,46,0.4,5.1809,M,7.8962,M,1.8,0*54
$GNRMC,074541.80,D,3019.29453127,N,12004.25936455,E,0.878,261.2,101125,6.1,W,R,S*54
$WTRTK,-0.096,0.549,0.015,0.558,-7.21,1.85,10.15,4,21,5,31,87,--,1,9.3,23.3,190,2,3019.28911611,N,12004.25498464,E,2.94,349.85,3.58*6C
$GNGGA,074541.90,3019.29452844,N,12004.25933704,E,4,46,0.4,5.1806,M,7.8962,M,1.9,0*54
$GNRMC,074541.90,D,3019.29452844,N,12004.25933704,E,0.861,261.9,101125,6.1,W,R,S*59
$WTRTK,-0.096,0.549,0.015,0.558,-7.20,1.90,9.70,4,21,5,31,87,--,1,9.3,23.3,190,2,3019.28911939,N,12004.25495951,E,2.95,350.30,3.58*56
$GNGGA,074541.90,3019.29452844,N,12004.25933704,E,4,46,0.4,5.1806,M,7.8962,M,1.9,0*54
$GNRMC,074541.90,D,3019.29452844,N,12004.25933704,E,0.861,261.9,101125,6.1,W,R,S*59
$WTRTK,-0.092,0.550,0.008,0.558,-7.19,1.92,9.26,4,21,5,31,87,--,1,9.3,23.3,190,2,3019.28911378,N,12004.25495663,E,2.91,350.74,3.58*58
$GNGGA,074541.90,3019.29452844,N,12004.25933704,E,4,46,0.4,5.1806,M,7.8962,M,1.9,0*54
$GNRMC,074541.90,D,3019.29452844,N,12004.25933704,E,0.861,261.9,101125,6.1,W,R,S*59
$WTRTK,-0.092,0.550,0.008,0.558,-7.21,1.92,8.82,4,21,5,31,0,--,1,9.3,23.5,190,2,3019.28911718,N,12004.25493169,E,2.91,351.18,3.58*67
$GNGGA,074542.00,3019.29452574,N,12004.25931069,E,4,46,0.4,5.1818,M,7.8962,M,2.0,0*5B
$GNRMC,074542.00,D,3019.29452574,N,12004.25931069,E,0.860,263.4,101125,6.1,W,R,S*5D
$WTRTK,-0.086,0.551,0.007,0.558,-7.22,1.99,8.36,4,21,5,31,0,--,1,9.3,23.4,190,2,3019.28911119,N,12004.25492936,E,2.88,351.64,3.58*6D
$GNGGA,074542.10,3019.29452263,N,12004.25928129,E,4,45,0.4,5.1763,M,7.8962,M,2.1,0*57
$GNRMC,074542.10,D,3019.29452263,N,12004.25928129,E,0.903,263.7,101125,6.1,W,R,S*57
$WTRTK,-0.086,0.551,0.007,0.558,-7.26,1.97,7.91,4,21,5,31,0,--,1,9.3,23.3,190,2,3019.28911469,N,12004.25490465,E,2.88,352.09,3.58*61
$GNGGA,074542.10,3019.29452263,N,12004.25928129,E,4,45,0.4,5.1763,M,7.8962,M,2.1,0*57
$GNRMC,074542.10,D,3019.29452263,N,12004.25928129,E,0.903,263.7,101125,6.1,W,R,S*57
$WTRTK,-0.074,0.552,0.009,0.558,-7.28,2.05,7.43,4,21,5,31,0,--,1,9.3,23.4,190,2,3019.28910902,N,12004.25490225,E,2.83,352.57,3.58*6C
$GNGGA,074542.20,3019.29451960,N,12004.25925463,E,4,45,0.4,5.1823,M,7.8962,M,2.2,0*51
$GNRMC,074542.20,D,3019.29451960,N,12004.25925463,E,0.874,264.0,101125,6.1,W,R,S*58
$WTRTK,-0.074,0.552,0.009,0.558,-7.33,2.02,7.00,4,21,5,31,0,--,1,9.3,23.3,190,2,3019.28911276,N,12004.25487798,E,2.84,353.00,3.58*69
$GNGGA,074542.20,3019.29451960,N,12004.25925463,E,4,45,0.4,5.1823,M,7.8962,M,2.2,0*51
$GNRMC,074542.20,D,3019.29451960,N,12004.25925463,E,0.874,264.0,101125,6.1,W,R,S*58
$WTRTK,-0.062,0.554,0.008,0.558,-7.34,2.07,6.58,4,21,5,31,0,--,1,9.3,23.5,190,2,3019.28910669,N,12004.25487359,E,2.77,353.42,3.58*69
$GNGGA,074542.30,3019.29452176,N,12004.25922936,E,4,45,0.4,5.1787,M,7.8962,M,2.3,0*56
$GNRMC,074542.30,D,3019.29452176,N,12004.25922936,E,0.765,263.4,101125,6.1,W,R,S*53
$WTRTK,-0.062,0.554,0.008,0.558,-7.36,2.11,6.17,4,21,5,31,0,--,1,9.3,23.5,190,2,3019.28911065,N,12004.25485001,E,2.78,353.83,3.58*62
$GNGGA,074542.30,3019.29452176,N,12004.25922936,E,4,45,0.4,5.1787,M,7.8962,M,2.3,0*56
$GNRMC,074542.30,D,3019.29452176,N,12004.25922936,E,0.765,263.4,101125,6.1,W,R,S*53
$WTRTK,-0.058,0.556,0.007,0.559,-7.36,2.10,5.81,4,21,5,31,0,--,1,9.3,23.4,190,2,3019.28910513,N,12004.25484607,E,2.72,354.19,3.58*61
$GNGGA,074542.40,3019.29452031,N,12004.25920762,E,4,45,0.4,5.1797,M,7.8962,M,2.4,0*58
$GNRMC,074542.40,D,3019.29452031,N,12004.25920762,E,0.653,263.0,101125,6.1,W,R,S*5B
$WTRTK,-0.058,0.556,0.007,0.559,-7.37,2.14,5.44,4,21,5,31,0,--,1,9.3,23.3,190,2,3019.28910943,N,12004.25482315,E,2.70,354.56,3.58*6A
$GNGGA,074542.40,3019.29452031,N,12004.25920762,E,4,45,0.4,5.1797,M,7.8962,M,2.4,0*58
$GNRMC,074542.40,D,3019.29452031,N,12004.25920762,E,0.653,263.0,101125,6.1,W,R,S*5B
$WTRTK,-0.054,0.560,0.003,0.563,-7.38,2.11,5.14,4,21,5,31,87,--,1,9.3,23.3,190,2,3019.28910360,N,12004.25482167,E,2.65,354.86,3.58*5B
$GNGGA,074542.50,3019.29451990,N,12004.25918674,E,4,45,0.4,5.1836,M,7.8962,M,2.5,0*50
$GNRMC,074542.50,D,3019.29451990,N,12004.25918674,E,0.576,269.2,101125,6.1,W,R,S*5A
$WTRTK,-0.054,0.560,0.003,0.563,-7.39,2.10,4.88,4,21,5,31,87,--,1,9.3,23.4,190,2,3019.28910817,N,12004.25479952,E,2.61,355.12,3.58*51
$GNGGA,074542.50,3019.29451990,N,12004.25918674,E,4,45,0.4,5.1836,M,7.8962,M,2.5,0*50
$GNRMC,074542.50,D,3019.29451990,N,12004.25918674,E,0.576,269.2,101125,6.1,W,R,S*5A
$WTRTK,-0.050,0.556,-0.003,0.558,-7.38,2.14,4.64,4,21,5,31,87,--,1,9.3,23.4,190,2,3019.28910163,N,12004.25480132,E,2.54,355.36,3.58*70
$GNGGA,074542.60,3019.29451889,N,12004.25916656,E,4,45,0.4,5.1766,M,7.8962,M,2.6,0*5D
$GNRMC,074542.60,D,3019.29451889,N,12004.25916656,E,0.524,268.2,101125,6.1,W,R,S*58
$WTRTK,-0.050,0.556,-0.003,0.558,-7.40,2.13,4.45,4,21,5,31,87,--,1,9.3,23.4,189,2,3019.28910641,N,12004.25478001,E,2.54,355.55,3.58*77
$GNGGA,074542.60,3019.29451889,N,12004.25916656,E,4,45,0.4,5.1766,M,7.8962,M,2.6,0*5D
$GNRMC,074542.60,D,3019.29451889,N,12004.25916656,E,0.524,268.2,101125,6.1,W,R,S*58
$WTRTK,-0.039,0.553,0.010,0.555,-7.39,2.18,4.25,4,21,5,31,87,--,1,9.3,23.5,189,2,3019.28910172,N,12004.25478347,E,2.45,355.75,3.58*59
$GNGGA,074542.70,3019.29451785,N,12004.25915012,E,4,45,0.4,5.1803,M,7.8962,M,2.7,0*57
$GNRMC,074542.70,D,3019.29451785,N,12004.25915012,E,0.498,263.9,101125,6.1,W,R,S*59
$WTRTK,-0.039,0.553,0.010,0.555,-7.40,2.20,4.07,4,21,5,31,87,--,1,9.3,23.3,189,2,3019.28910683,N,12004.25476311,E,2.45,355.93,3.58*56
$GNGGA,074542.70,3019.29451785,N,12004.25915012,E,4,45,0.4,5.1803,M,7.8962,M,2.7,0*57
$GNRMC,074542.70,D,3019.29451785,N,12004.25915012,E,0.498,263.9,101125,6.1,W,R,S*59
$WTRTK,-0.034,0.554,0.008,0.555,-7.40,2.21,3.92,4,21,5,31,87,--,1,9.3,23.3,189,2,3019.28910199,N,12004.25476744,E,2.36,356.08,3.58*52
$GNGGA,074542.80,3019.29451848,N,12004.25913434,E,4,45,0.4,5.1784,M,7.8962,M,2.8,0*5F
$GNRMC,074542.80,D,3019.29451848,N,12004.25913434,E,0.468,265.8,101125,6.1,W,R,S*56
$WTRTK,-0.034,0.554,0.008,0.555,-7.40,2.24,3.77,4,21,5,31,87,--,1,9.3,23.3,189,2,3019.28910741,N,12004.25474812,E,2.34,356.23,3.58*5A
$GNGGA,074542.80,3019.29451848,N,12004.25913434,E,4,45,0.4,5.1784,M,7.8962,M,2.8,0*5F
$GNRMC,074542.80,D,3019.29451848,N,12004.25913434,E,0.468,265.8,101125,6.1,W,R,S*56
$WTRTK,-0.037,0.558,0.003,0.559,-7.41,2.25,3.65,4,21,5,31,87,--,1,9.3,23.3,189,2,3019.28910131,N,12004.25475201,E,2.27,356.35,3.58*5C
$GNGGA,074542.90,3019.29451944,N,12004.25912064,E,4,44,0.4,5.1761,M,7.8962,M,2.9,0*58
$GNRMC,074542.90,D,3019.29451944,N,12004.25912064,E,0.413,268.8,101125,6.1,W,R,S*5B
$WTRTK,-0.037,0.558,0.003,0.559,-7.42,2.26,3.54,4,21,5,31,862,--,1,9.3,23.3,189,2,3019.28910703,N,12004.25473356,E,2.25,356.46,3.58*69
$GNGGA,074542.90,3019.29451944,N,12004.25912064,E,4,44,0.4,5.1761,M,7.8962,M,2.9,0*58
$GNRMC,074542.90,D,3019.29451944,N,12004.25912064,E,0.413,268.8,101125,6.1,W,R,S*5B
$WTRTK,-0.032,0.555,0.010,0.556,-7.42,2.27,3.46,4,21,5,31,862,--,1,9.3,23.4,189,2,3019.28910108,N,12004.25473782,E,2.19,356.54,3.58*65
$GNGGA,074542.90,3019.29451944,N,12004.25912064,E,4,44,0.4,5.1761,M,7.8962,M,2.9,0*58
$GNRMC,074542.90,D,3019.29451944,N,12004.25912064,E,0.413,268.8,101125,6.1,W,R,S*5B
$WTRTK,-0.032,0.555,0.010,0.556,-7.45,2.23,3.43,4,21,5,31,0,--,1,9.3,23.4,189,2,3019.28910698,N,12004.25472021,E,2.17,356.57,3.58*63
$GNGGA,074543.00,3019.29451915,N,12004.25910861,E,4,44,0.4,5.1757,M,7.8962,M,1.0,0*54
$GNRMC,074543.00,D,3019.29451915,N,12004.25910861,E,0.361,277.1,101125,6.1,W,R,S*5D
$WTRTK,-0.031,0.556,0.009,0.557,-7.46,2.22,3.43,4,21,5,31,0,--,1,9.3,23.4,189,2,3019.28910110,N,12004.25472506,E,2.08,356.57,3.58*61
$GNGGA,074543.10,3019.29451909,N,12004.25909901,E,4,44,0.4,5.1733,M,7.8962,M,1.1,0*54
$GNRMC,074543.10,D,3019.29451909,N,12004.25909901,E,0.299,282.9,101125,6.1,W,R,S*5A
$WTRTK,-0.031,0.556,0.009,0.557,-7.47,2.21,3.45,4,21,5,31,0,--,1,9.3,23.4,189,2,3019.28910708,N,12004.25470848,E,2.07,356.55,3.58*62
$GNGGA,074543.10,3019.29451909,N,12004.25909901,E,4,44,0.4,5.1733,M,7.8962,M,1.1,0*54
$GNRMC,074543.10,D,3019.29451909,N,12004.25909901,E,0.299,282.9,101125,6.1,W,R,S*5A
