$GNRMC,072120.20,D,3019.25987181,N,12004.23034826,E,0.380,162.8,071125,6.1,W,R,S*5A
$WTRTK,-0.512,-0.229,0.019,0.562,1.77,5.15,111.23,4,21,5,31,891,--,1,9.3,22.5,114,2,3019.26388495,N,12004.23372510,E,0.46,248.77,18.48*5E
$GNGGA,072120.30,3019.25986570,N,12004.23034842,E,4,19,1.5,5.0934,M,7.8953,M,1.3,0*5F
$GNRMC,072120.30,D,3019.25986570,N,12004.23034842,E,0.342,164.3,071125,6.1,W,R,S*51
$WTRTK,-0.507,-0.251,0.011,0.566,1.77,5.16,111.34,4,21,5,31,891,--,1,9.3,22.4,114,2,3019.26388205,N,12004.23372659,E,0.41,248.66,18.48*5B
$GNGGA,072120.30,3019.25986570,N,12004.23034842,E,4,19,1.5,5.0934,M,7.8953,M,1.3,0*5F
$GNRMC,072120.30,D,3019.25986570,N,12004.23034842,E,0.342,164.3,071125,6.1,W,R,S*51
$WTRTK,-0.507,-0.251,0.011,0.566,1.77,5.17,111.43,4,21,5,31,891,--,1,9.3,22.3,114,2,3019.26387699,N,12004.23372699,E,0.39,248.57,18.47*5D
$GNGGA,072120.40,3019.25986159,N,12004.23035327,E,4,19,1.5,5.0891,M,7.8953,M,1.4,0*57
$GNRMC,072120.40,D,3019.25986159,N,12004.23035327,E,0.329,168.3,071125,6.1,W,R,S*51
$WTRTK,-0.510,-0.262,-0.001,0.573,1.77,5.18,111.53,4,21,5,31,891,--,1,9.3,22.2,114,2,3019.26387443,N,12004.23372841,E,0.38,248.47,18.47*72
$GNGGA,072120.40,3019.25986159,N,12004.23035327,E,4,19,1.5,5.0891,M,7.8953,M,1.4,0*57
$GNRMC,072120.40,D,3019.25986159,N,12004.23035327,E,0.329,168.3,071125,6.1,W,R,S*51
$WTRTK,-0.510,-0.262,-0.001,0.573,1.78,5.19,111.62,4,21,5,31,1703,--,1,9.3,22.4,114,2,3019.26386824,N,12004.23372943,E,0.37,248.38,18.46*44
$GNGGA,072120.50,3019.25985766,N,12004.23035507,E,4,19,1.5,5.0893,M,7.8953,M,1.5,0*58
$GNRMC,072120.50,D,3019.25985766,N,12004.23035507,E,0.281,170.4,071125,6.1,W,R,S*50
$WTRTK,-0.514,-0.257,-0.013,0.576,1.79,5.20,111.75,4,21,5,31,1703,--,1,9.3,22.3,114,2,3019.26386586,N,12004.23373097,E,0.34,248.25,18.46*41
$GNGGA,072120.50,3019.25985766,N,12004.23035507,E,4,19,1.5,5.0893,M,7.8953,M,1.5,0*58
$GNRMC,072120.50,D,3019.25985766,N,12004.23035507,E,0.281,170.4,071125,6.1,W,R,S*50
$WTRTK,-0.514,-0.257,-0.013,0.576,1.80,5.21,111.87,4,21,5,31,1703,--,1,9.3,22.3,114,2,3019.26385864,N,12004.23373056,E,0.30,248.13,18.46*45
$GNGGA,072120.60,3019.25984482,N,12004.23035485,E,4,19,1.5,5.0818,M,7.8953,M,0.6,0*59
$GNRMC,072120.60,D,3019.25984482,N,12004.23035485,E,0.266,171.5,071125,6.1,W,R,S*59
$WTRTK,-0.515,-0.217,0.011,0.559,1.80,5.22,111.99,4,21,5,31,1703,--,1,9.3,22.4,114,2,3019.26385681,N,12004.23373168,E,0.25,248.01,18.46*67
$GNGGA,072120.60,3019.25984482,N,12004.23035485,E,4,19,1.5,5.0818,M,7.8953,M,0.6,0*59
$GNRMC,072120.60,D,3019.25984482,N,12004.23035485,E,0.266,171.5,071125,6.1,W,R,S*59
$WTRTK,-0.515,-0.217,0.011,0.559,1.81,5.22,112.11,4,21,5,31,1703,--,1,9.3,22.2,114,2,3019.26385127,N,12004.23372994,E,0.22,247.89,18.47*6B
$GNGGA,072120.70,3019.25983713,N,12004.23035692,E,4,19,1.5,5.0775,M,7.8953,M,0.7,0*55
$GNRMC,072120.70,D,3019.25983713,N,12004.23035692,E,0.248,168.0,071125,6.1,W,R,S*51
$WTRTK,-0.515,-0.179,0.033,0.547,1.82,5.22,112.23,4,21,5,31,1703,--,1,9.3,22.3,114,2,3019.26385001,N,12004.23373081,E,0.19,247.77,18.46*6D
$GNGGA,072120.70,3019.25983713,N,12004.23035692,E,4,19,1.5,5.0775,M,7.8953,M,0.7,0*55
$GNRMC,072120.70,D,3019.25983713,N,12004.23035692,E,0.248,168.0,071125,6.1,W,R,S*51
$WTRTK,-0.515,-0.179,0.033,0.547,1.82,5.21,112.31,4,21,5,31,1703,--,1,9.3,22.4,114,2,3019.26384302,N,12004.23372982,E,0.17,247.69,18.47*60
$GNGGA,072120.80,3019.25983085,N,12004.23035835,E,4,19,1.5,5.0739,M,7.8953,M,0.8,0*56
$GNRMC,072120.80,D,3019.25983085,N,12004.23035835,E,0.159,167.0,071125,6.1,W,R,S*59
$WTRTK,-0.514,-0.160,0.048,0.540,1.83,5.21,112.37,4,21,5,31,1703,--,1,9.3,22.3,114,2,3019.26384211,N,12004.23373026,E,0.15,247.63,18.47*6F
$GNGGA,072120.80,3019.25983085,N,12004.23035835,E,4,19,1.5,5.0739,M,7.8953,M,0.8,0*56
$GNRMC,072120.80,D,3019.25983085,N,12004.23035835,E,0.159,167.0,071125,6.1,W,R,S*59
$WTRTK,-0.514,-0.160,0.048,0.540,1.85,5.21,112.42,4,21,5,31,1703,--,1,9.3,22.2,114,2,3019.26383453,N,12004.23373031,E,0.13,247.58,18.48*6A
$GNGGA,072120.90,3019.25982836,N,12004.23035783,E,4,19,1.5,5.0663,M,7.8953,M,0.9,0*5B
$GNRMC,072120.90,D,3019.25982836,N,12004.23035783,E,0.103,170.5,071125,6.1,W,R,S*57
$WTRTK,-0.513,-0.115,0.088,0.533,1.86,5.21,112.42,4,21,5,31,1703,--,1,9.3,22.3,114,2,3019.26383394,N,12004.23373042,E,0.10,247.58,18.48*6E
$GNGGA,072120.90,3019.25982836,N,12004.23035783,E,4,19,1.5,5.0663,M,7.8953,M,0.9,0*5B
$GNRMC,072120.90,D,3019.25982836,N,12004.23035783,E,0.103,170.5,071125,6.1,W,R,S*57
$WTRTK,-0.513,-0.115,0.088,0.533,1.87,5.21,112.41,4,21,5,31,0,--,1,9.3,22.4,114,2,3019.26383138,N,12004.23372911,E,0.08,247.59,18.48*5C
$GNGGA,072121.00,3019.25982769,N,12004.23035743,E,4,19,1.5,5.0641,M,7.8953,M,1.0,0*52
$GNRMC,072121.00,D,3019.25982769,N,12004.23035743,E,0.066,171.5,071125,6.1,W,R,S*55
$WTRTK,-0.510,-0.149,0.058,0.535,1.87,5.22,112.37,4,21,5,31,0,--,1,9.3,22.4,114,2,3019.26383124,N,12004.23372889,E,0.07,247.63,18.48*54
$GNGGA,072121.00,3019.25982769,N,12004.23035743,E,4,19,1.5,5.0641,M,7.8953,M,1.0,0*52
$GNRMC,072121.00,D,3019.25982769,N,12004.23035743,E,0.066,171.5,071125,6.1,W,R,S*55
$WTRTK,-0.510,-0.149,0.058,0.535,1.88,5.22,112.34,4,21,5,31,0,--,1,9.3,22.3,114,2,3019.26382933,N,12004.23372746,E,0.07,247.66,18.48*59
$GNGGA,072121.10,3019.25982752,N,12004.23035610,E,4,19,1.5,5.0726,M,7.8953,M,1.1,0*5D
$GNRMC,072121.10,D,3019.25982752,N,12004.23035610,E,0.040,87.9,071125,6.1,W,R,S*6B
$WTRTK,-0.510,-0.165,0.021,0.537,1.88,5.23,112.28,4,21,5,31,0,--,1,9.3,22.4,114,2,3019.26382971,N,12004.23372685,E,0.09,247.72,18.48*53
$GNGGA,072121.10,3019.25982752,N,12004.23035610,E,4,19,1.5,5.0726,M,7.8953,M,1.1,0*5D
$GNRMC,072121.10,D,3019.25982752,N,12004.23035610,E,0.040,87.9,071125,6.1,W,R,S*6B
$WTRTK,-0.510,-0.165,0.021,0.537,1.88,5.23,112.26,4,21,5,31,0,--,1,9.3,22.2,114,2,3019.26382910,N,12004.23372607,E,0.11,247.74,18.48*59
$GNGGA,072131.80,3019.25984201,N,12004.23035150,E,4,22,1.2,5.1316,M,7.8953,M,0.8,0*52
$GNRMC,072131.80,D,3019.25984201,N,12004.23035150,E,0.021,346.3,071125,6.1,W,R,S*56
$WTRTK,-0.520,-0.194,-0.016,0.555,1.69,5.18,104.44,4,21,5,31,902,--,1,9.3,22.4,114,2,3019.26389124,N,12004.23364904,E,0.28,255.56,18.12*79
$GNGGA,072131.90,3019.25985259,N,12004.23035162,E,4,22,1.2,5.1112,M,7.8953,M,0.9,0*59
$GNRMC,072131.90,D,3019.25985259,N,12004.23035162,E,0.089,12.5,071125,6.1,W,R,S*6C
$WTRTK,-0.519,-0.220,0.028,0.565,1.69,5.18,104.47,4,21,5,31,902,--,1,9.3,22.3,114,2,3019.26389285,N,12004.23364641,E,0.30,255.53,18.12*52
$GNGGA,072131.90,3019.25985259,N,12004.23035162,E,4,22,1.2,5.1112,M,7.8953,M,0.9,0*59
$GNRMC,072131.90,D,3019.25985259,N,12004.23035162,E,0.089,12.5,071125,6.1,W,R,S*6C
$WTRTK,-0.519,-0.220,0.028,0.565,1.69,5.18,104.47,4,21,5,31,0,--,1,9.3,22.3,114,2,3019.26389450,N,12004.23364458,E,0.33,255.53,18.13*5F
$GNGGA,072132.00,3019.25985585,N,12004.23034537,E,4,22,1.2,5.1060,M,7.8953,M,1.0,0*5C
$GNRMC,072132.00,D,3019.25985585,N,12004.23034537,E,0.099,2.2,071125,6.1,W,R,S*52
$WTRTK,-0.513,-0.227,0.031,0.562,1.69,5.17,104.47,4,21,5,31,0,--,1,9.3,22.4,114,2,3019.26389624,N,12004.23364214,E,0.33,255.53,18.13*5A
$GNGGA,072132.00,3019.25985585,N,12004.23034537,E,4,22,1.2,5.1060,M,7.8953,M,1.0,0*5C
$GNRMC,072132.00,D,3019.25985585,N,12004.23034537,E,0.099,2.2,071125,6.1,W,R,S*52
$WTRTK,-0.513,-0.227,0.031,0.562,1.69,5.17,104.46,4,21,5,31,0,--,1,9.3,22.4,114,2,3019.26389786,N,12004.23364028,E,0.32,255.54,18.13*59
$GNGGA,072132.10,3019.25985181,N,12004.23034035,E,4,22,1.2,5.1225,M,7.8953,M,1.1,0*58
$GNRMC,072132.10,D,3019.25985181,N,12004.23034035,E,0.085,335.5,071125,6.1,W,R,S*59
$WTRTK,-0.479,-0.228,0.050,0.533,1.69,5.17,104.49,4,21,5,31,0,--,1,9.3,22.4,114,2,3019.26389943,N,12004.23363794,E,0.30,255.51,18.13*50
$GNGGA,072132.10,3019.25985181,N,12004.23034035,E,4,22,1.2,5.1225,M,7.8953,M,1.1,0*58
$GNRMC,072132.10,D,3019.25985181,N,12004.23034035,E,0.085,335.5,071125,6.1,W,R,S*59
$WTRTK,-0.479,-0.228,0.050,0.533,1.69,5.17,104.49,4,21,5,31,0,--,1,9.3,22.4,114,2,3019.26390078,N,12004.23363626,E,0.28,255.51,18.14*5F
$GNGGA,072132.20,3019.25984601,N,12004.23033767,E,4,22,1.2,5.1254,M,7.8953,M,1.2,0*57
$GNRMC,072132.20,D,3019.25984601,N,12004.23033767,E,0.070,305.0,071125,6.1,W,R,S*5F
$WTRTK,-0.526,-0.221,0.032,0.572,1.69,5.17,104.52,4,21,5,31,87,--,1,9.3,22.5,114,2,3019.26390215,N,12004.23363427,E,0.27,255.48,18.14*65
$GNGGA,072132.20,3019.25984601,N,12004.23033767,E,4,22,1.2,5.1254,M,7.8953,M,1.2,0*57
$GNRMC,072132.20,D,3019.25984601,N,12004.23033767,E,0.070,305.0,071125,6.1,W,R,S*5F
$WTRTK,-0.526,-0.221,0.032,0.572,1.69,5.18,104.55,4,21,5,31,87,--,1,9.3,22.3,114,2,3019.26390334,N,12004.23363269,E,0.27,255.45,18.14*68
$GNGGA,072132.30,3019.25985471,N,12004.23033792,E,4,22,1.2,5.1387,M,7.8953,M,1.3,0*56
$GNRMC,072132.30,D,3019.25985471,N,12004.23033792,E,0.024,286.3,071125,6.1,W,R,S*58
$WTRTK,-0.508,-0.194,-0.004,0.545,1.69,5.18,104.61,4,21,5,31,87,--,1,9.3,22.4,114,2,3019.26390466,N,12004.23363103,E,0.28,255.39,18.15*4F
$GNGGA,072132.30,3019.25985471,N,12004.23033792,E,4,22,1.2,5.1387,M,7.8953,M,1.3,0*56
$GNRMC,072132.30,D,3019.25985471,N,12004.23033792,E,0.024,286.3,071125,6.1,W,R,S*58
$WTRTK,-0.508,-0.194,-0.004,0.545,1.69,5.18,104.62,4,21,5,31,87,--,1,9.3,22.4,114,2,3019.26390591,N,12004.23362934,E,0.28,255.38,18.15*49
$GNGGA,072132.40,3019.25985639,N,12004.23034466,E,4,22,1.2,5.1548,M,7.8953,M,1.4,0*52
$GNRMC,072132.40,D,3019.25985639,N,12004.23034466,E,0.154,118.9,071125,6.1,W,R,S*56
$WTRTK,-0.514,-0.190,-0.001,0.549,1.69,5.18,104.62,4,21,5,31,87,--,1,9.3,22.3,114,2,3019.26390741,N,12004.23362705,E,0.29,255.38,18.15*4C
$GNGGA,072132.40,3019.25985639,N,12004.23034466,E,4,22,1.2,5.1548,M,7.8953,M,1.4,0*52
$GNRMC,072132.40,D,3019.25985639,N,12004.23034466,E,0.154,118.9,071125,6.1,W,R,S*56
$WTRTK,-0.514,-0.190,-0.001,0.549,1.69,5.18,104.63,4,21,5,31,87,--,1,9.3,22.4,114,2,3019.26390882,N,12004.23362521,E,0.31,255.37,18.15*48
$GNGGA,072132.50,3019.25986315,N,12004.23034764,E,4,22,1.2,5.1535,M,7.8953,M,1.5,0*51
$GNRMC,072132.50,D,3019.25986315,N,12004.23034764,E,0.152,109.2,071125,6.1,W,R,S*53
$WTRTK,-0.522,-0.197,-0.001,0.558,1.69,5.18,104.65,4,21,5,31,87,--,1,9.3,22.4,114,2,3019.26391053,N,12004.23362251,E,0.31,255.35,18.15*4B
$GNGGA,072132.50,3019.25986315,N,12004.23034764,E,4,22,1.2,5.1535,M,7.8953,M,1.5,0*51
$GNRMC,072132.50,D,3019.25986315,N,12004.23034764,E,0.152,109.2,071125,6.1,W,R,S*53
$WTRTK,-0.522,-0.197,-0.001,0.558,1.69,5.18,104.65,4,21,5,31,87,--,1,9.3,22.3,114,2,3019.26391205,N,12004.23362059,E,0.32,255.35,18.16*47
$GNGGA,072132.60,3019.25986175,N,12004.23034944,E,4,22,1.2,5.1446,M,7.8953,M,1.6,0*5C
$GNRMC,07,W,R,S*6F
$WTRTK,-0.526,-0.175,0.028,0.556,1.69,5.18,104.65,4,21,5,31,87,--,1,9.3,22.4,114,2,3019.26391381,N,12004.23361750,E,0.32,255.35,18.16*60
$GNGGA,072132.60,3019.25986175,N,12004.23034944,E,4,22,1.2,5.1446,M,7.8953,M,1.6,0*5C
$GNRMC,072132.60,D,3019.25986175,N,12004.23034944,E,0.054,30.9,071125,6.1,W,R,S*6F
$WTRTK,-0.526,-0.175,0.028,0.556,1.69,5.18,104.64,4,21,5,31,87,--,1,9.3,22.4,114,2,3019.26391538,N,12004.23361557,E,0.33,255.36,18.16*62
$GNGGA,072132.70,3019.25986599,N,12004.23034837,E,4,22,1.2,5.1337,M,7.8953,M,1.7,0*5E
$GNRMC,072132.70,D,3019.25986599,N,12004.23034837,E,0.246,318.8,071125,6.1,W,R,S*54
$WTRTK,-0.524,-0.196,0.020,0.560,1.69,5.18,104.66,4,21,5,31,87,--,1,9.3,22.4,114,2,3019.26391704,N,12004.23361320,E,0.33,255.34,18.16*6B
$GNGGA,072132.70,3019.25986599,N,12004.23034837,E,4,22,1.2,5.1337,M,7.8953,M,1.7,0*5E
$GNRMC,072132.70,D,3019.25986599,N,12004.23034837,E,0.246,318.8,071125,6.1,W,R,S*54
$WTRTK,-0.524,-0.196,0.020,0.560,1.69,5.18,104.65,4,21,5,31,87,--,1,9.3,22.3,114,2,3019.26391864,N,12004.23361118,E,0.33,255.35,18.16*6E
$GNGGA,072132.80,3019.25986449,N,12004.23034825,E,4,22,1.2,5.1477,M,7.8953,M,1.8,0*52
$GNRMC,072132.80,D,3019.25986449,N,12004.23034825,E,0.227,312.8,071125,6.1,W,R,S*59
$WTRTK,-0.520,-0.218,0.006,0.564,1.69,5.18,104.66,4,21,5,31,87,--,1,9.3,22.1,114,2,3019.26392018,N,12004.23360932,E,0.35,255.34,18.16*68
$GNGGA,072132.80,3019.25986449,N,12004.23034825,E,4,22,1.2,5.1477,M,7.8953,M,1.8,0*52
$GNRMC,072132.80,D,3019.25986449,N,12004.23034825,E,0.227,312.8,071125,6.1,W,R,S*59
$WTRTK,-0.520,-0.218,0.006,0.564,1.69,5.18,104.65,4,21,5,31,87,--,1,9.3,22.2,114,2,3019.26392193,N,12004.23360726,E,0.36,255.35,18.17*62
$GNGGA,072132.90,3019.25987581,N,12004.23034678,E,4,22,1.2,5.1428,M,7.8953,M,1.9,0*5A
$GNRMC,072132.90,D,3019.25987581,N,12004.23034678,E,0.088,353.2,071125,6.1,W,R,S*52
$WTRTK,-0.524,-0.226,-0.002,0.571,1.69,5.18,104.67,4,21,5,31,87,--,1,9.3,22.4,114,2,3019.26392370,N,12004.23360553,E,0.36,255.33,18.17*4B
$GNGGA,072132.90,3019.25987581,N,12004.23034678,E,4,22,1.2,5.1428,M,7.8953,M,1.9,0*5A
$GNRMC,072132.90,D,3019.25987581,N,12004.23034678,E,0.088,353.2,071125,6.1,W,R,S*52
$WTRTK,-0.524,-0.226,-0.002,0.571,1.69,5.18,104.67,4,21,5,31,842,--,1,9.3,22.4,114,2,3019.26392548,N,12004.23360349,E,0.36,255.33,18.17*7A
$GNGGA,072133.00,3019.25987386,N,12004.23034818,E,4,22,1.2,5.1449,M,7.8953,M,2.0,0*56
$GNRMC,072133.00,D,3019.25987386,N,12004.23034818,E,0.073,89.7,071125,6.1,W,R,S*66
$WTRTK,-0.520,-0.208,0.000,0.560,1.69,5.17,104.68,4,21,5,31,842,--,1,9.3,22.4,114,2,3019.26392721,N,12004.23360112,E,0.35,255.32,18.17*5E
$GNGGA,072133.00,3019.25987386,N,12004.23034818,E,4,22,1.2,5.1449,M,7.8953,M,2.0,0*56
$GNRMC,072133.00,D,3019.25987386,N,12004.23034818,E,0.073,89.7,071125,6.1,W,R,S*66
$WTRTK,-0.520,-0.208,0.000,0.560,1.69,5.18,104.69,4,21,5,31,842,--,1,9.3,22.4,114,2,3019.26392897,N,12004.23359914,E,0.36,255.31,18.18*59
$GNGGA,072133.10,3019.25987098,N,12004.23034996,E,4,22,1.2,5.1516,M,7.8953,M,1.1,0*55
$GNRMC,072133.10,D,3019.25987098,N,12004.23034996,E,0.088,103.6,071125,6.1,W,R,S*5A
$WTRTK,-0.522,-0.195,0.024,0.557,1.69,5.17,104.73,4,21,5,31,842,--,1,9.3,22.4,114,2,3019.26393077,N,12004.23359653,E,0.35,255.27,18.18*55
$GNGGA,072133.10,3019.25987098,N,12004.23034996,E,4,22,1.2,5.1516,M,7.8953,M,1.1,0*55
$GNRMC,072133.10,D,3019.25987098,N,12004.23034996,E,0.088,103.6,071125,6.1,W,R,S*5A
$WTRTK,-0.522,-0.195,0.024,0.557,1.69,5.17,104.74,4,21,5,31,842,--,1,9.3,22.4,114,2,3019.26393254,N,12004.23359452,E,0.36,255.26,18.18*50
$GNGGA,072133.20,3019.25987406,N,12004.23035001,E,4,22,1.2,5.1491,M,7.8953,M,1.2,0*5E
$GNRMC,072133.20,D,3019.25987406,N,12004.23035001,E,0.034,138.7,071125,6.1,W,R,S*52
$WTRTK,-0.520,-0.195,0.011,0.556,1.70,5.17,104.74,4,21,5,31,929,--,1,9.3,22.4,114,2,3019.26393424,N,12004.23359137,E,0.35,255.26,18.18*55
$GNGGA,072133.20,3019.25987406,N,12004.23035001,E,4,22,1.2,5.1491,M,7.8953,M,1.2,0*5E
$GNRMC,072133.20,D,3019.25987406,N,12004.23035001,E,0.034,138.7,071125,6.1,W,R,S*52
$WTRTK,-0.520,-0.195,0.011,0.556,1.70,5.17,104.74,4,21,5,31,929,--,1,9.3,22.3,114,2,3019.26393597,N,12004.23358937,E,0.35,255.26,18.18*52
$GNGGA,072133.30,3019.25987567,N,12004.23034933,E,4,22,1.2,5.1470,M,7.8953,M,1.3,0*5E
$GNRMC,072133.30,D,3019.25987567,N,12004.23034933,E,0.041,228.5,071125,6.1,W,R,S*5E
$WTRTK,-0.522,-0.198,0.007,0.559,1.70,5.17,104.77,4,21,5,31,929,--,1,9.3,22.4,114,2,3019.26393767,N,12004.23358692,E,0.34,255.23,18.18*58
$GNGGA,072133.30,3019.25987567,N,12004.23034933,E,4,22,1.2,5.1470,M,7.8953,M,1.3,0*5E
$GNRMC,072133.30,D,3019.25987567,N,12004.23034933,E,0.041,228.5,071125,6.1,W,R,S*5E
$WTRTK,-0.522,-0.198,0.007,0.559,1.70,5.17,104.77,4,21,5,31,929,--,1,9.3,22.3,114,2,3019.26393935,N,12004.23358496,E,0.34,255.23,18.18*50
$GNGGA,072133.40,3019.25987662,N,12004.23034704,E,4,22,1.2,5.1422,M,7.8953,M,1.4,0*55
$GNRMC,072133.40,D,3019.25987662,N,12004.23034704,E,0.050,293.9,071125,6.1,W,R,S*59
$WTRTK,-0.520,-0.204,0.013,0.559,1.70,5.16,104.77,4,21,5,31,929,--,1,9.3,22.4,114,2,3019.26394093,N,12004.23358252,E,0.34,255.23,18.18*5B
$GNGGA,072133.40,3019.25987662,N,12004.23034704,E,4,22,1.2,5.1422,M,7.8953,M,1.4,0*55
$GNRMC,072133.40,D,3019.25987662,N,12004.23034704,E,0.050,293.9,071125,6.1,W,R,S*59
$WTRTK,-0.520,-0.204,0.013,0.559,1.70,5.17,104.77,4,21,5,31,929,--,1,9.3,22.4,114,2,3019.26394260,N,12004.23358058,E,0.34,255.23,18.19*5D
$GNGGA,072133.50,3019.25987722,N,12004.23034832,E,4,22,1.2,5.1400,M,7.8953,M,1.5,0*5A
$GNRMC,072133.50,D,3019.25987722,N,12004.23034832,E,0.021,347.8,071125,6.1,W,R,S*58
$WTRTK,-0.522,-0.203,0.022,0.560,1.70,5.16,104.80,4,21,5,31,929,--,1,9.3,22.4,114,2,3019.26394411,N,12004.23357865,E,0.34,255.20,18.19*53
$GNGGA,072133.50,3019.25987722,N,12004.23034832,E,4,22,1.2,5.1400,M,7.8953,M,1.5,0*5A
$GNRMC,072133.50,D,3019.25987722,N,12004.23034832,E,0.021,347.8,071125,6.1,W,R,S*58
$WTRTK,-0.522,-0.203,0.022,0.560,1.70,5.16,104.80,4,21,5,31,929,--,1,9.3,22.3,114,2,3019.26394582,N,12004.23357672,E,0.35,255.20,18.19*56
$GNGGA,072133.60,3019.25987793,N,12004.23034664,E,4,22,1.2,5.1452,M,7.8953,M,1.6,0*5A
$GNRMC,072133.60,D,3019.25987793,N,12004.23034664,E,0.014,103.5,071125,6.1,W,R,S*55
$WTRTK,-0.517,-0.210,0.007,0.558,1.71,5.16,104.81,4,21,5,31,929,--,1,9.3,22.4,114,2,3019.26394718,N,12004.23357460,E,0.35,255.19,18.19*53
$GNGGA,072133.60,3019.25987793,N,12004.23034664,E,4,22,1.2,5.1452,M,7.8953,M,1.6,0*5A
$GNRMC,072133.60,D,3019.25987793,N,12004.23034664,E,0.014,103.5,071125,6.1,W,R,S*55
$WTRTK,-0.517,-0.210,0.007,0.558,1.71,5.16,104.81,4,21,5,31,929,--,1,9.3,22.4,114,2,3019.26394892,N,12004.23357267,E,0.35,255.19,18.19*5F
$GNGGA,072133.70,3019.25987517,N,12004.23034919,E,4,22,1.2,5.1472,M,7.8953,M,1.7,0*53
$GNRMC,072133.70,D,3019.25987517,N,12004.23034919,E,0.028,120.2,071125,6.1,W,R,S*56
$WTRTK,-0.521,-0.209,0.003,0.562,1.71,5.16,104.84,4,21,5,31,929,--,1,9.3,22.4,114,2,3019.26395023,N,12004.23357102,E,0.35,255.16,18.20*5C
$GNGGA,072133.70,3019.25987517,N,12004.23034919,E,4,22,1.2,5.1472,M,7.8953,M,1.7,0*53
$GNRMC,072133.70,D,3019.25987517,N,12004.23034919,E,0.028,120.2,071125,6.1,W,R,S*56
$WTRTK,-0.521,-0.209,0.003,0.562,1.71,5.16,104.85,4,21,5,31,929,--,1,9.3,22.4,114,2,3019.26395199,N,12004.23356914,E,0.35,255.15,18.20*50
$GNGGA,072133.80,3019.25987155,N,12004.23034857,E,4,22,1.2,5.1427,M,7.8953,M,1.8,0*5A
$GNRMC,072133.80,D,3019.25987155,N,12004.23034857,E,0.014,103.1,071125,6.1,W,R,S*5D
$WTRTK,-0.522,-0.196,0.020,0.558,1.71,5.16,104.85,4,21,5,31,929,--,1,9.3,22.3,114,2,3019.26395312,N,12004.23356742,E,0.34,255.15,18.20*54
$GNGGA,072133.80,3019.25987155,N,12004.23034857,E,4,22,1.2,5.1427,M,7.8953,M,1.8,0*5A
$GNRMC,072133.80,D,3019.25987155,N,12004.23034857,E,0.014,103.1,071125,6.1,W,R,S*5D
$WTRTK,-0.522,-0.196,0.020,0.558,1.71,5.16,104.86,4,21,5,31,929,--,1,9.3,22.4,114,2,3019.26395482,N,12004.23356558,E,0.34,255.14,18.20*56
$GNGGA,072133.90,3019.25986735,N,12004.23034886,E,4,22,1.2,5.1440,M,7.8953,M,1.9,0*56
$GNRMC,072133.90,D,3019.25986735,N,12004.23034886,E,0.021,97.2,071125,6.1,W,R,S*68
$WTRTK,-0.520,-0.204,0.017,0.559,1.71,5.15,104.89,4,21,5,31,929,--,1,9.3,22.3,114,2,3019.26395585,N,12004.23356435,E,0.32,255.11,18.20*5D
$GNGGA,072133.90,3019.25986735,N,12004.23034886,E,4,22,1.2,5.1440,M,7.8953,M,1.9,0*56
$GNRMC,072133.90,D,3019.25986735,N,12004.23034886,E,0.021,97.2,071125,6.1,W,R,S*68
$WTRTK,-0.520,-0.204,0.017,0.559,1.71,5.15,104.89,4,21,5,31,0,--,1,9.3,22.4,114,2,3019.26395746,N,12004.23356254,E,0.33,255.11,18.20*55
$GNGGA,072134.00,3019.25987382,N,12004.23034598,E,4,22,1.2,5.1409,M,7.8953,M,2.0,0*54
$GNRMC,072134.00,D,3019.25987382,N,12004.23034598,E,0.014,100.3,071125,6.1,W,R,S*55
$WTRTK,-0.515,-0.202,0.015,0.554,1.72,5.15,104.90,4,21,5,31,0,--,1,9.3,22.5,114,2,3019.26395832,N,12004.23356119,E,0.33,255.10,18.21*56
$GNGGA,072134.00,3019.25987382,N,12004.23034598,E,4,22,1.2,5.1409,M,7.8953,M,2.0,0*54
$GNRMC,072134.00,D,3019.25987382,N,12004.23034598,E,0.014,100.3,071125,6.1,W,R,S*55
$WTRTK,-0.515,-0.202,0.015,0.554,1.72,5.15,104.90,4,21,5,31,0,--,1,9.3,22.4,114,2,3019.26395999,N,12004.23355943,E,0.33,255.10,18.21*53
$GNGGA,072134.10,3019.25987202,N,12004.23034371,E,4,22,1.2,5.1499,M,7.8953,M,2.1,0*55
$GNRMC,072134.10,D,3019.25987202,N,12004.23034371,E,0.003,222.2,071125,6.1,W,R,S*58
$WTRTK,-0.515,-0.194,0.002,0.551,1.72,5.15,104.92,4,21,5,31,0,--,1,9.3,22.5,114,2,3019.26396084,N,12004.23355847,E,0.33,255.08,18.21*55
$GNGGA,072134.10,3019.25987202,N,12004.23034371,E,4,22,1.2,5.1499,M,7.8953,M,2.1,0*55
$GNRMC,072134.10,D,3019.25987202,N,12004.23034371,E,0.003,222.2,071125,6.1,W,R,S*58
$WTRTK,-0.515,-0.194,0.002,0.551,1.72,5.15,104.93,4,21,5,31,0,--,1,9.3,22.4,114,2,3019.26396252,N,12004.23355673,E,0.33,255.07,18.21*5A
$GNGGA,072134.20,3019.25987033,N,12004.23034114,E,4,22,1.2,5.1541,M,7.8953,M,2.2,0*50
$GNRMC,072134.20,D,3019.25987033,N,12004.23034114,E,0.020,276.9,071125,6.1,W,R,S*51
$WTRTK,-0.509,-0.197,-0.005,0.547,1.72,5.15,104.94,4,21,5,31,0,--,1,9.3,22.4,114,2,3019.26396321,N,12004.23355559,E,0.32,255.06,18.21*70
$GNGGA,072134.20,3019.25987033,N,12004.23034114,E,4,22,1.2,5.1541,M,7.8953,M,2.2,0*50
$GNRMC,072134.20,D,3019.25987033,N,12004.23034114,E,0.020,276.9,071125,6.1,W,R,S*51
$WTRTK,-0.509,-0.197,-0.005,0.547,1.72,5.15,104.94,4,21,5,31,902,--,1,9.3,22.4,114,2,3019.26396484,N,12004.23355385,E,0.32,255.06,18.21*74
$GNGGA,072134.30,3019.25986308,N,12004.23033863,E,4,22,1.2,5.1503,M,7.8953,M,2.3,0*52
$GNRMC,072134.30,D,3019.25986308,N,12004.23033863,E,0.054,247.5,071125,6.1,W,R,S*59
$WTRTK,-0.511,-0.191,-0.008,0.546,1.72,5.15,104.96,4,21,5,31,902,--,1,9.3,22.4,114,2,3019.26396597,N,12004.23355277,E,0.32,255.04,18.21*78
$GNGGA,072134.30,3019.25986308,N,12004.23033863,E,4,22,1.2,5.1503,M,7.8953,M,2.3,0*52
$GNRMC,072134.30,D,3019.25986308,N,12004.23033863,E,0.054,247.5,071125,6.1,W,R,S*59
$WTRTK,-0.511,-0.191,-0.008,0.546,1.72,5.15,104.97,4,21,5,31,902,--,1,9.3,22.4,114,2,3019.26396759,N,12004.23355107,E,0.32,255.03,18.22*79
$GNGGA,072134.40,3019.25985854,N,12004.23033765,E,4,22,1.2,5.1382,M,7.8953,M,1.4,0*56
$GNRMC,072134.40,D,3019.25985854,N,12004.23033765,E,0.064,222.9,071125,6.1,W,R,S*5A
$WTRTK,-0.507,-0.179,0.002,0.538,1.72,5.15,104.97,4,21,5,31,902,--,1,9.3,22.4,114,2,3019.26396858,N,12004.23354956,E,0.32,255.03,18.22*55
$GNGGA,072134.40,3019.25985854,N,12004.23033765,E,4,22,1.2,5.1382,M,7.8953,M,1.4,0*56
$GNRMC,072134.40,D,3019.25985854,N,12004.23033765,E,0.064,222.9,071125,6.1,W,R,S*5A
$WTRTK,-0.507,-0.179,0.002,0.538,1.74,5.14,104.97,4,21,5,31,902,--,1,9.3,22.4,114,2,3019.26396595,N,12004.23355162,E,0.28,255.03,18.22*5B
$GNGGA,072134.50,3019.25986075,N,12004.23033696,E,4,22,1.2,5.1315,M,7.8953,M,1.5,0*5D
$GNRMC,072134.50,D,3019.25986075,N,12004.23033696,E,0.059,212.6,071125,6.1,W,R,S*5C
$WTRTK,-0.506,-0.168,0.016,0.533,1.74,5.13,105.00,4,21,5,31,902,--,1,9.3,22.4,114,2,3019.26396616,N,12004.23355076,E,0.28,255.00,18.22*53
$GNGGA,072134.50,3019.25986075,N,12004.23033696,E,4,22,1.2,5.1315,M,7.8953,M,1.5,0*5D
$GNRMC,072134.50,D,3019.25986075,N,12004.23033696,E,0.059,212.6,071125,6.1,W,R,S*5C
$WTRTK,-0.506,-0.168,0.016,0.533,1.74,5.14,105.01,4,21,5,31,1723,--,1,9.3,22.4,114,2,3019.26396756,N,12004.23354919,E,0.29,254.99,18.22*6D
$GNGGA,072134.60,3019.25985307,N,12004.23032963,E,4,22,1.2,5.1118,M,7.8953,M,1.6,0*53
$GNRMC,072134.60,D,3019.25985307,N,12004.23032963,E,0.062,222.8,071125,6.1,W,R,S*5B
$WTRTK,-0.495,-0.183,0.041,0.529,1.74,5.13,105.00,4,21,5,31,1723,--,1,9.3,22.3,114,2,3019.26396770,N,12004.23354805,E,0.29,255.00,18.22*62
$GNGGA,072134.60,3019.25985307,N,12004.23032963,E,4,22,1.2,5.1118,M,7.8953,M,1.6,0*53
$GNRMC,072134.60,D,3019.25985307,N,12004.23032963,E,0.062,222.8,071125,6.1,W,R,S*5B
$WTRTK,-0.495,-0.183,0.041,0.529,1.74,5.13,104.99,4,21,5,31,1723,--,1,9.3,22.3,114,2,3019.26396914,N,12004.23354639,E,0.29,255.01,18.23*6E
$GNGGA,072134.70,3019.25984304,N,12004.23032885,E,4,20,1.5,5.0707,M,7.8953,M,0.7,0*55
$GNRMC,072134.70,D,3019.25984304,N,12004.23032885,E,0.137,264.9,071125,6.1,W,R,S*53
$WTRTK,-0.479,-0.142,0.085,0.507,1.74,5.13,105.00,5,21,5,31,1723,--,1,9.3,22.4,114,2,3019.26396999,N,12004.23354527,E,0.29,255.00,18.23*6A
$GNGGA,072134.70,3019.25984304,N,12004.23032885,E,4,20,1.5,5.0707,M,7.8953,M,0.7,0*55
$GNRMC,072134.70,D,3019.25984304,N,12004.23032885,E,0.137,264.9,071125,6.1,W,R,S*53
$WTRTK,-0.479,-0.142,0.085,0.507,1.74,5.13,105.00,5,21,5,31,1723,--,1,9.3,22.3,114,2,3019.26397138,N,12004.23354373,E,0.29,255.00,18.23*68
$GNGGA,072134.80,3019.25984266,N,12004.23032214,E,4,20,1.5,5.0935,M,7.8953,M,0.8,0*5D
$GNRMC,072134.80,D,3019.25984266,N,12004.23032214,E,0.143,268.4,071125,6.1,W,R,S*59
$WTRTK,-0.469,-0.178,-0.007,0.502,1.74,5.13,104.99,5,21,5,31,1723,--,1,9.3,22.4,114,2,3019.26397241,N,12004.23354166,E,0.30,255.01,18.23*46
$GNGGA,072134.80,3019.25984266,N,12004.23032214,E,4,20,1.5,5.0935,M,7.8953,M,0.8,0*5D
$GNRMC,072134.80,D,3019.25984266,N,12004.23032214,E,0.143,268.4,071125,6.1,W,R,S*59
$WTRTK,-0.469,-0.178,-0.007,0.502,1.74,5.13,104.97,5,21,5,31,1723,--,1,9.3,22.4,114,2,3019.26397385,N,12004.23353970,E,0.31,255.03,18.23*4A
$GNGGA,072134.90,3019.25984664,N,12004.23032385,E,4,20,1.5,5.0894,M,7.8953,M,0.9,0*58
$GNRMC,072134.90,D,3019.25984664,N,12004.23032385,E,0.121,262.2,071125,6.1,W,R,S*5F
$WTRTK,-0.471,-0.160,-0.005,0.498,1.73,5.13,104.95,5,21,5,31,1723,--,1,9.3,22.3,114,2,3019.26397466,N,12004.23353743,E,0.31,255.05,18.23*4A
$GNGGA,072134.90,3019.25984664,N,12004.23032385,E,4,20,1.5,5.0894,M,7.8953,M,0.9,0*58
$GNRMC,072134.90,D,3019.25984664,N,12004.23032385,E,0.121,262.2,071125,6.1,W,R,S*5F
$WTRTK,-0.471,-0.160,-0.005,0.498,1.73,5.13,104.92,5,21,5,31,0,--,1,9.3,22.3,114,2,3019.26397605,N,12004.23353543,E,0.31,255.08,18.23*72
$GNGGA,072135.00,3019.25984865,N,12004.23032595,E,4,20,1.5,5.0910,M,7.8953,M,1.0,0*5D
$GNRMC,072135.00,D,3019.25984865,N,12004.23032595,E,0.081,54.3,071125,6.1,W,R,S*62
$WTRTK,-0.481,-0.154,0.002,0.505,1.73,5.13,104.91,5,21,5,31,0,--,1,9.3,22.4,114,2,3019.26397677,N,12004.23353338,E,0.30,255.09,18.23*5E
$GNGGA,072135.00,3019.25984865,N,12004.23032595,E,4,20,1.5,5.0910,M,7.8953,M,1.0,0*5D
$GNRMC,072135.00,D,3019.25984865,N,12004.23032595,E,0.081,54.3,071125,6.1,W,R,S*62
$WTRTK,-0.481,-0.154,0.002,0.505,1.73,5.13,104.90,5,21,5,31,0,--,1,9.3,22.4,114,2,3019.26397811,N,12004.23353138,E,0.30,255.10,18.24*5C
$GNGGA,072135.10,3019.25984181,N,12004.23032922,E,4,20,1.5,5.0749,M,7.8953,M,1.1,0*5C
$GNRMC,072135.10,D,3019.25984181,N,12004.23032922,E,0.369,51.3,071125,6.1,W,R,S*60
$WTRTK,-0.482,-0.155,-0.026,0.507,1.73,5.13,104.88,5,21,5,31,0,--,1,9.3,22.5,114,2,3019.26397892,N,12004.23353061,E,0.30,255.12,18.24*7B
$GNGGA,072135.10,3019.25984181,N,12004.23032922,E,4,20,1.5,5.0749,M,7.8953,M,1.1,0*5C
$GNRMC,072135.10,D,3019.25984181,N,12004.23032922,E,0.369,51.3,071125,6.1,W,R,S*60
$WTRTK,-0.482,-0.155,-0.026,0.507,1.73,5.13,104.86,5,21,5,31,0,--,1,9.3,22.4,114,2,3019.26398021,N,12004.23352862,E,0.30,255.14,18.24*77
$GNGGA,072135.20,3019.25984709,N,12004.23033736,E,4,20,1.5,5.0852,M,7.8953,M,1.2,0*55
$GNRMC,072135.20,D,3019.25984709,N,12004.23033736,E,0.270,77.4,071125,6.1,W,R,S*65
$WTRTK,-0.487,-0.236,-0.047,0.543,1.74,5.13,104.84,4,21,5,31,0,--,1,9.3,22.3,114,2,3019.26398221,N,12004.23353075,E,0.29,255.16,18.24*77
$GNGGA,072135.20,3019.25984709,N,12004.23033736,E,4,20,1.5,5.0852,M,7.8953,M,1.2,0*55
$GNRMC,072135.20,D,3019.25984709,N,12004.23033736,E,0.270,77.4,071125,6.1,W,R,S*65
$WTRTK,-0.487,-0.236,-0.047,0.543,1.74,5.13,104.80,4,21,5,31,0,--,1,9.3,22.4,114,2,3019.26398358,N,12004.23352883,E,0.31,255.20,18.24*77
$GNGGA,072135.30,3019.25985925,N,12004.23034485,E,4,20,1.5,5.1007,M,7.8953,M,1.3,0*51
$GNRMC,072135.30,D,3019.25985925,N,12004.23034485,E,0.402,134.8,071125,6.1,W,R,S*50
$WTRTK,-0.500,-0.232,-0.051,0.554,1.74,5.13,104.82,5,21,5,31,0,--,1,9.3,22.4,114,2,3019.26398433,N,12004.23353221,E,0.30,255.18,18.24*7C
$GNGGA,072135.30,3019.25985925,N,12004.23034485,E,4,20,1.5,5.1007,M,7.8953,M,1.3,0*51
$GNRMC,072135.30,D,3019.25985925,N,12004.23034485,E,0.402,134.8,071125,6.1,W,R,S*50
$WTRTK,-0.500,-0.232,-0.051,0.554,1.74,5.13,104.83,5,21,5,31,0,--,1,9.3,22.4,114,2,3019.26398593,N,12004.23353104,E,0.31,255.17,18.25*7D
$GNGGA,072135.40,3019.25985823,N,12004.23034707,E,4,20,1.5,5.0984,M,7.8953,M,1.4,0*5C
$GNRMC,072135.40,D,3019.25985823,N,12004.23034707,E,0.483,163.4,071125,6.1,W,R,S*5E
$WTRTK,-0.509,-0.216,-0.016,0.554,1.74,5.13,104.82,5,21,5,31,0,--,1,9.3,22.3,114,2,3019.26398545,N,12004.23353113,E,0.30,255.18,18.25*74
$GNGGA,072135.40,3019.25985823,N,12004.23034707,E,4,20,1.5,5.0984,M,7.8953,M,1.4,0*5C
$GNRMC,072135.40,D,3019.25985823,N,12004.23034707,E,0.483,163.4,071125,6.1,W,R,S*5E
$WTRTK,-0.509,-0.216,-0.016,0.554,1.74,5.13,104.81,5,21,5,31,0,--,1,9.3,22.4,114,2,3019.26398698,N,12004.23352935,E,0.30,255.19,18.25*7F
$GNGGA,072135.50,3019.25984703,N,12004.23034742,E,4,20,1.5,5.0777,M,7.8953,M,1.5,0*53
$GNRMC,072135.50,D,3019.25984703,N,12004.23034742,E,0.269,184.7,071125,6.1,W,R,S*5A
$WTRTK,-0.509,-0.209,-0.004,0.550,1.74,5.11,104.79,5,21,5,31,0,--,1,9.3,22.4,114,2,3019.26398094,N,12004.23353045,E,0.27,255.21,18.25*7B
$GNGGA,072135.50,3019.25984703,N,12004.23034742,E,4,20,1.5,5.0777,M,7.8953,M,1.5,0*53
$GNRMC,072135.50,D,3019.25984703,N,12004.23034742,E,0.269,184.7,071125,6.1,W,R,S*5A
$WTRTK,-0.509,-0.209,-0.004,0.550,1.74,5.12,104.78,5,21,5,31,0,--,1,9.3,22.4,114,2,3019.26398222,N,12004.23352873,E,0.28,255.22,18.25*76
$GNGGA,072135.60,3019.25984669,N,12004.23034984,E,4,21,1.3,5.0634,M,7.8953,M,1.6,0*5B
$GNRMC,072135.60,D,3019.25984669,N,12004.23034984,E,0.111,241.7,071125,6.1,W,R,S*56
$WTRTK,-0.508,-0.189,0.025,0.543,1.74,5.11,104.77,4,21,5,31,0,--,1,9.3,22.2,114,2,3019.26398071,N,12004.23352742,E,0.28,255.23,18.25*53
$GNGGA,072135.60,3019.25984669,N,12004.23034984,E,4,21,1.3,5.0634,M,7.8953,M,1.6,0*5B
$GNRMC,072135.60,D,3019.25984669,N,12004.23034984,E,0.111,241.7,071125,6.1,W,R,S*56
$WTRTK,-0.508,-0.189,0.025,0.543,1.74,5.11,104.76,4,21,5,31,0,--,1,9.3,22.3,114,2,3019.26398205,N,12004.23352564,E,0.29,255.24,18.26*51
$GNGGA,072135.70,3019.25984276,N,12004.23035011,E,4,21,1.3,5.0669,M,7.8953,M,1.7,0*5D
$GNRMC,072135.70,D,3019.25984276,N,12004.23035011,E,0.102,324.3,071125,6.1,W,R,S*5D
$WTRTK,-0.514,-0.172,0.026,0.543,1.74,5.11,104.75,4,21,5,31,821,--,1,9.3,22.4,114,2,3019.26398282,N,12004.23352408,E,0.31,255.25,18.26*58
$GNGGA,072135.70,3019.25984276,N,12004.23035011,E,4,21,1.3,5.0669,M,7.8953,M,1.7,0*5D
$GNRMC,072135.70,D,3019.25984276,N,12004.23035011,E,0.102,324.3,071125,6.1,W,R,S*5D
$WTRTK,-0.514,-0.172,0.026,0.543,1.74,5.11,104.75,4,21,5,31,821,--,1,9.3,22.5,114,2,3019.26398438,N,12004.23352254,E,0.31,255.25,18.26*51
$GNGGA,072135.80,3019.25984227,N,12004.23035185,E,4,21,1.3,5.0677,M,7.8953,M,1.8,0*5A
$GNRMC,072135.80,D,3019.25984227,N,12004.23035185,E,0.083,352.8,071125,6.1,W,R,S*58
$WTRTK,-0.521,-0.177,0.027,0.551,1.74,5.11,104.74,5,21,5,31,821,--,1,9.3,22.3,114,2,3019.26398532,N,12004.23352186,E,0.30,255.26,18.26*53
$GNGGA,072135.80,3019.25984227,N,12004.23035185,E,4,21,1.3,5.0677,M,7.8953,M,1.8,0*5A
$GNRMC,072135.80,D,3019.25984227,N,12004.23035185,E,0.083,352.8,071125,6.1,W,R,S*58
$WTRTK,-0.521,-0.177,0.027,0.551,1.74,5.11,104.74,5,21,5,31,821,--,1,9.3,22.4,114,2,3019.26398668,N,12004.23352027,E,0.28,255.26,18.26*5B
$GNGGA,072135.90,3019.25983878,N,12004.23035046,E,4,21,1.3,5.0663,M,7.8953,M,0.9,0*57
$GNRMC,072135.90,D,3019.25983878,N,12004.23035046,E,0.033,104.3,071125,6.1,W,R,S*51
$WTRTK,-0.516,-0.166,0.037,0.544,1.74,5.11,104.74,4,21,5,31,821,--,1,9.3,22.3,114,2,3019.26398706,N,12004.23352179,E,0.27,255.26,18.26*50
$GNGGA,072135.90,3019.25983878,N,12004.23035046,E,4,21,1.3,5.0663,M,7.8953,M,0.9,0*57
$GNRMC,072135.90,D,3019.25983878,N,12004.23035046,E,0.033,104.3,071125,6.1,W,R,S*51
$WTRTK,-0.516,-0.166,0.037,0.544,1.74,5.11,104.73,4,21,5,31,0,--,1,9.3,22.5,114,2,3019.26398824,N,12004.23352009,E,0.27,255.27,18.26*52
$GNGGA,072136.00,3019.25984528,N,12004.23035200,E,4,21,1.3,5.0774,M,7.8953,M,1.0,0*5D
$GNRMC,072136.00,D,3019.25984528,N,12004.23035200,E,0.062,123.6,071125,6.1,W,R,S*50
$WTRTK,-0.518,-0.162,0.019,0.543,1.74,5.10,104.73,4,21,5,31,0,--,1,9.3,22.4,114,2,3019.26398790,N,12004.23352095,E,0.27,255.27,18.27*57
$GNGGA,072136.00,3019.25984528,N,12004.23035200,E,4,21,1.3,5.0774,M,7.8953,M,1.0,0*5D
$GNRMC,072136.00,D,3019.25984528,N,12004.23035200,E,0.062,123.6,071125,6.1,W,R,S*50
$WTRTK,-0.518,-0.162,0.019,0.543,1.74,5.10,104.73,4,21,5,31,0,--,1,9.3,22.4,114,2,3019.26398921,N,12004.23351943,E,0.28,255.27,18.27*5D
$GNGGA,072136.10,3019.25983841,N,12004.23035393,E,4,20,1.5,5.0609,M,7.8953,M,1.1,0*5F
$GNRMC,072136.10,D,3019.25983841,N,12004.23035393,E,0.043,116.3,071125,6.1,W,R,S*5F
$WTRTK,-0.520,-0.166,0.026,0.547,1.75,5.10,104.74,4,21,5,31,0,--,1,9.3,22.4,114,2,3019.26398781,N,12004.23352173,E,0.27,255.26,18.27*5E
$GNGGA,072136.10,3019.25983841,N,12004.23035393,E,4,20,1.5,5.0609,M,7.8953,M,1.1,0*5F
$GNRMC,072136.10,D,3019.25983841,N,12004.23035393,E,0.043,116.3,071125,6.1,W,R,S*5F
$WTRTK,-0.520,-0.166,0.026,0.547,1.75,5.10,104.74,4,21,5,31,0,--,1,9.3,22.4,114,2,3019.26398905,N,12004.23352028,E,0.27,255.26,18.27*53
$GNGGA,072136.20,3019.25983687,N,12004.23035212,E,4,20,1.5,5.0650,M,7.8953,M,1.2,0*5F
$GNRMC,072136.20,D,3019.25983687,N,12004.23035212,E,0.031,325.3,071125,6.1,W,R,S*57
$WTRTK,-0.524,-0.154,0.040,0.548,1.75,5.10,104.74,4,21,5,31,87,--,1,9.3,22.4,114,2,3019.26398793,N,12004.23352211,E,0.25,255.26,18.27*6D
$GNGGA,072136.20,3019.25983687,N,12004.23035212,E,4,20,1.5,5.0650,M,7.8953,M,1.2,0*5F
$GNRMC,072136.20,D,3019.25983687,N,12004.23035212,E,0.031,325.3,071125,6.1,W,R,S*57
$WTRTK,-0.524,-0.154,0.040,0.548,1.75,5.10,104.75,4,21,5,31,87,--,1,9.3,22.3,114,2,3019.26398907,N,12004.23352075,E,0.25,255.25,18.27*6B
$GNGGA,072136.30,3019.25984384,N,12004.23035365,E,4,20,1.5,5.0562,M,7.8953,M,1.3,0*5D
$GNRMC,072136.30,D,3019.25984384,N,12004.23035365,E,0.021,293.7,071125,6.1,W,R,S*5F
$WTRTK,-0.524,-0.147,0.058,0.547,1.75,5.10,104.76,4,21,5,31,87,--,1,9.3,22.3,114,2,3019.26398851,N,12004.23352207,E,0.25,255.24,18.28*67
$GNGGA,072136.30,3019.25984384,N,12004.23035365,E,4,20,1.5,5.0562,M,7.8953,M,1.3,0*5D
$GNRMC,072136.30,D,3019.25984384,N,12004.23035365,E,0.021,293.7,071125,6.1,W,R,S*5F
$WTRTK,-0.524,-0.147,0.058,0.547,1.75,5.10,104.75,4,21,5,31,87,--,1,9.3,22.4,114,2,3019.26398963,N,12004.23352065,E,0.26,255.25,18.28*67
$GNGGA,072136.40,3019.25984286,N,12004.23035305,E,4,20,1.5,5.0487,M,7.8953,M,1.4,0*52
$GNRMC,072136.40,D,3019.25984286,N,12004.23035305,E,0.037,346.5,071125,6.1,W,R,S*51
$WTRTK,-0.524,-0.153,0.060,0.549,1.75,5.10,104.74,4,21,5,31,87,--,1,9.3,22.3,114,2,3019.26398886,N,12004.23352097,E,0.26,255.26,18.28*65
$GNGGA,072136.40,3019.25984286,N,12004.23035305,E,4,20,1.5,5.0487,M,7.8953,M,1.4,0*52
$GNRMC,072136.40,D,3019.25984286,N,12004.23035305,E,0.037,346.5,071125,6.1,W,R,S*51
$WTRTK,-0.524,-0.153,0.060,0.549,1.75,5.09,104.72,4,21,5,31,87,--,1,9.3,22.4,114,2,3019.26399009,N,12004.23351944,E,0.27,255.28,18.28*69
$GNGGA,072136.50,3019.25983999,N,12004.23035379,E,4,20,1.5,5.0632,M,7.8953,M,1.5,0*57
$GNRMC,072136.50,D,3019.25983999,N,12004.23035379,E,0.032,11.1,071125,6.1,W,R,S*69
$WTRTK,-0.521,-0.151,0.046,0.544,1.75,5.09,104.71,4,21,5,31,87,--,1,9.3,22.4,114,2,3019.26398972,N,12004.23352058,E,0.27,255.29,18.28*66
$GNGGA,072136.50,3019.25983999,N,12004.23035379,E,4,20,1.5,5.0632,M,7.8953,M,1.5,0*57
$GNRMC,072136.50,D,3019.25983999,N,12004.23035379,E,0.032,11.1,071125,6.1,W,R,S*69
$WTRTK,-0.521,-0.151,0.046,0.544,1.75,5.09,104.69,4,21,5,31,87,--,1,9.3,22.4,114,2,3019.26399096,N,12004.23351912,E,0.26,255.31,18.28*61
$GNGGA,072136.60,3019.25984098,N,12004.23035060,E,4,20,1.5,5.0626,M,7.8953,M,1.6,0*56
$GNRMC,072136.60,D,3019.25984098,N,12004.23035060,E,0.039,19.4,071125,6.1,W,R,S*68
$WTRTK,-0.519,-0.154,0.038,0.543,1.75,5.09,104.67,4,21,5,31,87,--,1,9.3,22.4,114,2,3019.26399012,N,12004.23352058,E,0.25,255.33,18.29*67
$GNGGA,072136.60,3019.25984098,N,12004.23035060,E,4,20,1.5,5.0626,M,7.8953,M,1.6,0*56
$GNRMC,072136.60,D,3019.25984098,N,12004.23035060,E,0.039,19.4,071125,6.1,W,R,S*68
$WTRTK,-0.519,-0.154,0.038,0.543,1.75,5.09,104.67,4,21,5,31,87,--,1,9.3,22.3,114,2,3019.26399123,N,12004.23351920,E,0.25,255.33,18.29*66
$GNGGA,072136.70,3019.25983432,N,12004.23035300,E,4,20,1.5,5.0577,M,7.8953,M,1.7,0*57
$GNRMC,072136.70,D,3019.25983432,N,12004.23035300,E,0.019,182.0,071125,6.1,W,R,S*5A
$WTRTK,-0.525,-0.147,0.053,0.548,1.75,5.09,104.66,4,21,5,31,87,--,1,9.3,22.4,114,2,3019.26399061,N,12004.23352069,E,0.25,255.34,18.29*6C
$GNGGA,072136.70,3019.25983432,N,12004.23035300,E,4,20,1.5,5.0577,M,7.8953,M,1.7,0*57
$GNRMC,072136.70,D,3019.25983432,N,12004.23035300,E,0.019,182.0,071125,6.1,W,R,S*5A
$WTRTK,-0.525,-0.147,0.053,0.548,1.75,5.09,104.65,4,21,5,31,87,--,1,9.3,22.4,114,2,3019.26399172,N,12004.23351934,E,0.25,255.35,18.29*6F
$GNGGA,072136.80,3019.25984218,N,12004.23035331,E,4,20,1.5,5.0728,M,7.8953,M,1.8,0*54
$GNRMC,072136.80,D,3019.25984218,N,12004.23035331,E,0.010,161.7,071125,6.1,W,R,S*5D
$WTRTK,-0.529,-0.147,0.060,0.552,1.76,5.09,104.64,4,21,5,31,917,--,1,9.3,22.4,114,2,3019.26399061,N,12004.23352057,E,0.24,255.36,18.29*54
$GNGGA,072136.80,3019.25984218,N,12004.23035331,E,4,20,1.5,5.0728,M,7.8953,M,1.8,0*54
$GNRMC,072136.80,D,3019.25984218,N,12004.23035331,E,0.010,161.7,071125,6.1,W,R,S*5D
$WTRTK,-0.529,-0.147,0.060,0.552,1.76,5.09,104.63,4,21,5,31,917,--,1,9.3,22.4,114,2,3019.26399168,N,12004.23351920,E,0.25,255.37,18.29*51
$GNGGA,072136.90,3019.25984079,N,12004.23035348,E,4,20,1.5,5.0657,M,7.8953,M,1.9,0*56
$GNRMC,072136.90,D,3019.25984079,N,12004.23035348,E,0.032,9.5,071125,6.1,W,R,S*5A
$WTRTK,-0.524,-0.148,0.056,0.548,1.76,5.09,104.62,4,21,5,31,917,--,1,9.3,22.3,114,2,3019.26399059,N,12004.23352047,E,0.24,255.38,18.30*55
$GNGGA,072136.90,3019.25984079,N,12004.23035348,E,4,20,1.5,5.0657,M,7.8953,M,1.9,0*56
$GNRMC,072136.90,D,3019.25984079,N,12004.23035348,E,0.032,9.5,071125,6.1,W,R,S*5A
$WTRTK,-0.524,-0.148,0.056,0.548,1.76,5.09,104.61,4,21,5,31,0,--,1,9.3,22.3,114,2,3019.26399164,N,12004.23351910,E,0.24,255.39,18.30*5F
$GNGGA,072137.00,3019.25984417,N,12004.23035319,E,4,21,1.3,5.0603,M,7.8953,M,1.0,0*59
$GNRMC,072137.00,D,3019.25984417,N,12004.23035319,E,0.020,8.7,071125,6.1,W,R,S*5A
$WTRTK,-0.520,-0.155,0.051,0.545,1.76,5.09,104.60,4,21,5,31,0,--,1,9.3,22.4,114,2,3019.26399102,N,12004.23352050,E,0.24,255.40,18.30*5B
$GNGGA,072137.00,3019.25984417,N,12004.23035319,E,4,21,1.3,5.0603,M,7.8953,M,1.0,0*59
$GNRMC,072137.00,D,3019.25984417,N,12004.23035319,E,0.020,8.7,071125,6.1,W,R,S*5A
$WTRTK,-0.520,-0.155,0.051,0.545,1.76,5.09,104.58,4,21,5,31,0,--,1,9.3,22.4,114,2,3019.26399203,N,12004.23351920,E,0.24,255.42,18.30*5D
$GNGGA,072137.10,3019.25984557,N,12004.23035269,E,4,21,1.3,5.0601,M,7.8953,M,1.1,0*58
$GNRMC,072137.10,D,3019.25984557,N,12004.23035269,E,0.012,32.8,071125,6.1,W,R,S*6F
$WTRTK,-0.523,-0.154,0.062,0.549,1.76,5.08,104.58,4,21,5,31,0,--,1,9.3,22.3,114,2,3019.26399150,N,12004.23352068,E,0.23,255.42,18.30*51
$GNGGA,072137.10,3019.25984557,N,12004.23035269,E,4,21,1.3,5.0601,M,7.8953,M,1.1,0*58
$GNRMC,072137.10,D,3019.25984557,N,12004.23035269,E,0.012,32.8,071125,6.1,W,R,S*6F
$WTRTK,-0.523,-0.154,0.062,0.549,1.76,5.08,104.57,4,21,5,31,0,--,1,9.3,22.4,114,2,3019.26399252,N,12004.23351943,E,0.24,255.43,18.30*5D
$GNGGA,072137.20,3019.25983970,N,12004.23035465,E,4,21,1.3,5.0613,M,7.8953,M,1.2,0*5F
$GNRMC,072137.20,D,3019.25983970,N,12004.23035465,E,0.013,76.8,071125,6.1,W,R,S*69
$WTRTK,-0.524,-0.149,0.049,0.547,1.76,5.08,104.56,4,21,5,31,87,--,1,9.3,22.5,114,2,3019.26399137,N,12004.23352084,E,0.23,255.44,18.30*6F
$GNGGA,072137.20,3019.25983970,N,12004.23035465,E,4,21,1.3,5.0613,M,7.8953,M,1.2,0*5F
$GNRMC,072137.20,D,3019.25983970,N,12004.23035465,E,0.013,76.8,071125,6.1,W,R,S*69
$WTRTK,-0.524,-0.149,0.049,0.547,1.76,5.08,104.55,4,21,5,31,87,--,1,9.3,22.4,114,2,3019.26399236,N,12004.23351962,E,0.23,255.45,18.31*6D
$GNGGA,072137.30,3019.25984000,N,12004.23035294,E,4,21,1.3,5.0603,M,7.8953,M,1.3,0*5F
$GNRMC,072137.30,D,3019.25984000,N,12004.23035294,E,0.012,50.3,071125,6.1,W,R,S*67
$WTRTK,-0.524,-0.162,0.033,0.550,1.76,5.08,104.55,4,21,5,31,87,--,1,9.3,22.5,114,2,3019.26399126,N,12004.23352110,E,0.23,255.45,18.31*62
$GNGGA,072137.30,3019.25984000,N,12004.23035294,E,4,21,1.3,5.0603,M,7.8953,M,1.3,0*5F
$GNRMC,072137.30,D,3019.25984000,N,12004.23035294,E,0.012,50.3,071125,6.1,W,R,S*67
$WTRTK,-0.524,-0.162,0.033,0.550,1.76,5.08,104.54,4,21,5,31,87,--,1,9.3,22.4,114,2,3019.26399224,N,12004.23351986,E,0.23,255.46,18.31*64
$GNGGA,072137.40,3019.25983501,N,12004.23035421,E,4,21,1.3,5.0543,M,7.8953,M,1.4,0*53
$GNRMC,072137.40,D,3019.25983501,N,12004.23035421,E,0.013,56.0,071125,6.1,W,R,S*6F
$WTRTK,-0.521,-0.154,0.039,0.545,1.76,5.08,104.53,4,21,5,31,87,--,1,9.3,22.4,114,2,3019.26399118,N,12004.23352129,E,0.23,255.47,18.31*6E
$GNGGA,072137.40,3019.25983501,N,12004.23035421,E,4,21,1.3,5.0543,M,7.8953,M,1.4,0*53
$GNRMC,072137.40,D,3019.25983501,N,12004.23035421,E,0.013,56.0,071125,6.1,W,R,S*6F
$WTRTK,-0.521,-0.154,0.039,0.545,1.76,5.08,104.52,4,21,5,31,87,--,1,9.3,22.4,114,2,3019.26399217,N,12004.23352012,E,0.23,255.48,18.31*65
$GNGGA,072137.50,3019.25984093,N,12004.23035405,E,4,21,1.3,5.0592,M,7.8953,M,1.5,0*50
$GNRMC,072137.50,D,3019.25984093,N,12004.23035405,E,0.018,37.1,071125,6.1,W,R,S*6C
$WTRTK,-0.524,-0.151,0.054,0.549,1.77,5.08,104.52,4,21,5,31,87,--,1,9.3,22.4,114,2,3019.26399105,N,12004.23352172,E,0.22,255.48,18.32*66
$GNGGA,072137.50,3019.25984093,N,12004.23035405,E,4,21,1.3,5.0592,M,7.8953,M,1.5,0*50
$GNRMC,072137.50,D,3019.25984093,N,12004.23035405,E,0.018,37.1,071125,6.1,W,R,S*6C
$WTRTK,-0.524,-0.151,0.054,0.549,1.77,5.08,104.51,4,21,5,31,87,--,1,9.3,22.4,114,2,3019.26399200,N,12004.23352056,E,0.22,255.49,18.32*65
$GNGGA,072137.60,3019.25984160,N,12004.23035456,E,4,21,1.3,5.0583,M,7.8953,M,1.6,0*5B
$GNRMC,072137.60,D,3019.25984160,N,12004.23035456,E,0.013,55.1,071125,6.1,W,R,S*6B
$WTRTK,-0.522,-0.137,0.051,0.543,1.77,5.08,104.50,4,21,5,31,87,--,1,9.3,22.4,114,2,3019.26399080,N,12004.23352205,E,0.22,255.50,18.32*6B
$GNGGA,072137.60,3019.25984160,N,12004.23035456,E,4,21,1.3,5.0583,M,7.8953,M,1.6,0*5B
$GNRMC,072137.60,D,3019.25984160,N,12004.23035456,E,0.013,55.1,071125,6.1,W,R,S*6B
$WTRTK,-0.522,-0.137,0.051,0.543,1.77,5.08,104.50,4,21,5,31,87,--,1,9.3,22.4,114,2,3019.26399170,N,12004.23352091,E,0.22,255.50,18.32*6A
$GNGGA,072137.70,3019.25984320,N,12004.23035404,E,4,21,1.3,5.0579,M,7.8953,M,1.7,0*5F
$GNRMC,072137.70,D,3019.25984320,N,12004.23035404,E,0.014,80.4,071125,6.1,W,R,S*61
$WTRTK,-0.527,-0.142,0.055,0.548,1.77,5.08,104.49,4,21,5,31,87,--,1,9.3,22.3,114,2,3019.26399058,N,12004.23352235,E,0.22,255.51,18.32*6B
$GNGGA,072137.70,3019.25984320,N,12004.23035404,E,4,21,1.3,5.0579,M,7.8953,M,1.7,0*5F
$GNRMC,072137.70,D,3019.25984320,N,12004.23035404,E,0.014,80.4,071125,6.1,W,R,S*61
$WTRTK,-0.527,-0.142,0.055,0.548,1.77,5.08,104.47,4,21,5,31,87,--,1,9.3,22.2,114,2,3019.26399145,N,12004.23352114,E,0.23,255.53,18.32*6A
$GNGGA,072137.80,3019.25984616,N,12004.23035289,E,4,21,1.3,5.0704,M,7.8953,M,1.8,0*54
$GNRMC,072137.80,D,3019.25984616,N,12004.23035289,E,0.016,43.8,071125,6.1,W,R,S*6C
$WTRTK,-0.520,-0.158,0.030,0.544,1.77,5.08,104.46,4,21,5,31,87,--,1,9.3,22.4,114,2,3019.26399033,N,12004.23352249,E,0.23,255.54,18.33*63
$GNGGA,072137.80,3019.25984616,N,12004.23035289,E,4,21,1.3,5.0704,M,7.8953,M,1.8,0*54
$GNRMC,072137.80,D,3019.25984616,N,12004.23035289,E,0.016,43.8,071125,6.1,W,R,S*6C
$WTRTK,-0.520,-0.158,0.030,0.544,1.77,5.08,104.45,4,21,5,31,87,--,1,9.3,22.4,114,2,3019.26399119,N,12004.23352134,E,0.23,255.55,18.33*61
$GNGGA,072137.90,3019.25984989,N,12004.23035354,E,4,21,1.3,5.0655,M,7.8953,M,1.9,0*59
$GNRMC,072137.90,D,3019.25984989,N,12004.23035354,E,0.023,17.1,071125,6.1,W,R,S*6B
$WTRTK,-0.523,-0.166,0.032,0.550,1.77,5.08,104.44,4,21,5,31,87,--,1,9.3,22.3,114,2,3019.26399008,N,12004.23352289,E,0.22,255.56,18.33*68
$GNGGA,072137.90,3019.25984989,N,12004.23035354,E,4,21,1.3,5.0655,M,7.8953,M,1.9,0*59
$GNRMC,072137.90,D,3019.25984989,N,12004.23035354,E,0.023,17.1,071125,6.1,W,R,S*6B
$WTRTK,-0.523,-0.166,0.032,0.550,1.77,5.08,104.44,4,21,5,31,0,--,1,9.3,22.4,114,2,3019.26399092,N,12004.23352186,E,0.22,255.56,18.33*5F
$GNGGA,072138.00,3019.25984922,N,12004.23035348,E,4,22,0.8,5.0626,M,7.8953,M,2.0,0*54
$GNRMC,072138.00,D,3019.25984922,N,12004.23035348,E,0.027,10.4,071125,6.1,W,R,S*67
$WTRTK,-0.525,-0.156,0.041,0.550,1.77,5.07,104.43,4,21,5,31,0,--,1,9.3,22.3,114,2,3019.26399048,N,12004.23352343,E,0.22,255.57,18.33*5C
$GNGGA,072138.00,3019.25984922,N,12004.23035348,E,4,22,0.8,5.0626,M,7.8953,M,2.0,0*54
$GNRMC,072138.00,D,3019.25984922,N,12004.23035348,E,0.027,10.4,071125,6.1,W,R,S*67
$WTRTK,-0.525,-0.156,0.041,0.550,1.77,5.07,104.43,4,21,5,31,0,--,1,9.3,22.4,114,2,3019.26399132,N,12004.23352248,E,0.22,255.57,18.34*5A
$GNGGA,072138.10,3019.25984723,N,12004.23035335,E,4,22,0.8,5.0613,M,7.8953,M,2.1,0*57
$GNRMC,072138.10,D,3019.25984723,N,12004.23035335,E,0.016,7.2,071125,6.1,W,R,S*51
$WTRTK,-0.524,-0.164,0.040,0.551,1.77,5.07,104.43,4,21,5,31,830,--,1,9.3,22.4,114,2,3019.26399091,N,12004.23352419,E,0.22,255.57,18.34*5B
$GNGGA,072138.10,3019.25984723,N,12004.23035335,E,4,22,0.8,5.0613,M,7.8953,M,2.1,0*57
$GNRMC,072138.10,D,3019.25984723,N,12004.23035335,E,0.016,7.2,071125,6.1,W,R,S*51
$WTRTK,-0.524,-0.164,0.040,0.551,1.78,5.07,104.42,4,21,5,31,830,--,1,9.3,22.4,114,2,3019.26399174,N,12004.23352323,E,0.22,255.58,18.34*5E
$GNGGA,072138.20,3019.25984258,N,12004.23035545,E,4,22,0.8,5.0637,M,7.8953,M,2.2,0*59
$GNRMC,072138.20,D,3019.25984258,N,12004.23035545,E,0.014,0.9,071125,6.1,W,R,S*54
$WTRTK,-0.522,-0.162,0.027,0.548,1.78,5.07,104.41,4,21,5,31,917,--,1,9.3,22.4,114,2,3019.26399067,N,12004.23352473,E,0.22,255.59,18.34*50
$GNGGA,072138.20,3019.25984258,N,12004.23035545,E,4,22,0.8,5.0637,M,7.8953,M,2.2,0*59
$GNRMC,072138.20,D,3019.25984258,N,12004.23035545,E,0.014,0.9,071125,6.1,W,R,S*54
$WTRTK,-0.522,-0.162,0.027,0.548,1.78,5.07,104.41,4,21,5,31,917,--,1,9.3,22.3,114,2,3019.26399148,N,12004.23352381,E,0.22,255.59,18.34*51
$GNGGA,072138.30,3019.25984835,N,12004.23035313,E,4,22,0.8,5.0675,M,7.8953,M,1.3,0*58
$GNRMC,072138.30,D,3019.25984835,N,12004.23035313,E,0.017,0.5,071125,6.1,W,R,S*5E
$WTRTK,-0.523,-0.160,0.023,0.548,1.78,5.07,104.41,4,21,5,31,917,--,1,9.3,22.3,114,2,3019.26399048,N,12004.23352547,E,0.21,255.59,18.35*59
$GNGGA,072138.30,3019.25984835,N,12004.23035313,E,4,22,0.8,5.0675,M,7.8953,M,1.3,0*58
$GNRMC,072138.30,D,3019.25984835,N,12004.23035313,E,0.017,0.5,071125,6.1,W,R,S*5E
$WTRTK,-0.523,-0.160,0.023,0.548,1.78,5.07,104.41,4,21,5,31,917,--,1,9.3,22.4,114,2,3019.26399129,N,12004.23352459,E,0.22,255.59,18.35*55
$GNGGA,072138.40,3019.25984712,N,12004.23035017,E,4,22,0.8,5.0699,M,7.8953,M,1.4,0*57
$GNRMC,072138.40,D,3019.25984712,N,12004.23035017,E,0.019,3.4,071125,6.1,W,R,S*58
$WTRTK,-0.520,-0.174,0.016,0.549,1.78,5.07,104.40,4,21,5,31,917,--,1,9.3,22.4,114,2,3019.26399036,N,12004.23352596,E,0.22,255.60,18.35*52
$GNGGA,072138.40,3019.25984712,N,12004.23035017,E,4,22,0.8,5.0699,M,7.8953,M,1.4,0*57
$GNRMC,072138.40,D,3019.25984712,N,12004.23035017,E,0.019,3.4,071125,6.1,W,R,S*58
$WTRTK,-0.520,-0.174,0.016,0.549,1.79,5.06,104.39,4,21,5,31,917,--,1,9.3,22.4,114,2,3019.26398410,N,12004.23353372,E,0.20,255.61,18.35*53
$GNGGA,072138.50,3019.25985219,N,12004.23035075,E,4,22,0.8,5.0842,M,7.8953,M,1.5,0*54
$GNRMC,072138.50,D,3019.25985219,N,12004.23035075,E,0.024,1.8,071125,6.1,W,R,S*52
$WTRTK,-0.515,-0.182,0.016,0.547,1.79,5.06,104.40,4,21,5,31,917,--,1,9.3,22.5,114,2,3019.26398342,N,12004.23353490,E,0.19,255.60,18.35*5D
$GNGGA,072138.50,3019.25985219,N,12004.23035075,E,4,22,0.8,5.0842,M,7.8953,M,1.5,0*54
$GNRMC,072138.50,D,3019.25985219,N,12004.23035075,E,0.024,1.8,071125,6.1,W,R,S*52
$WTRTK,-0.515,-0.182,0.016,0.547,1.79,5.06,104.40,4,21,5,31,917,--,1,9.3,22.4,114,2,3019.26397902,N,12004.23354063,E,0.17,255.60,18.35*5C
$GNGGA,072138.60,3019.25985363,N,12004.23035037,E,4,21,1.3,5.0848,M,7.8953,M,1.6,0*5D
$GNRMC,072138.60,D,3019.25985363,N,12004.23035037,E,0.028,1.8,071125,6.1,W,R,S*57
$WTRTK,-0.516,-0.191,0.001,0.550,1.79,5.06,104.40,4,21,5,31,917,--,1,9.3,22.4,114,2,3019.26397797,N,12004.23354279,E,0.17,255.60,18.35*56
$GNGGA,072138.60,3019.25985363,N,12004.23035037,E,4,21,1.3,5.0848,M,7.8953,M,1.6,0*5D
$GNRMC,072138.60,D,3019.25985363,N,12004.23035037,E,0.028,1.8,071125,6.1,W,R,S*57
$WTRTK,-0.516,-0.191,0.001,0.550,1.79,5.05,104.41,4,21,5,31,917,--,1,9.3,22.4,114,2,3019.26397475,N,12004.23354705,E,0.16,255.59,18.35*5E
$GNGGA,072138.70,3019.25985719,N,12004.23035012,E,4,21,1.3,5.0881,M,7.8953,M,1.7,0*56
$GNRMC,072138.70,D,3019.25985719,N,12004.23035012,E,0.028,1.3,071125,6.1,W,R,S*53
$WTRTK,-0.514,-0.186,-0.003,0.547,1.80,5.05,104.43,4,21,5,31,917,--,1,9.3,22.4,114,2,3019.26397498,N,12004.23354790,E,0.16,255.57,18.35*76
$GNGGA,072138.70,3019.25985719,N,12004.23035012,E,4,21,1.3,5.0881,M,7.8953,M,1.7,0*56
$GNRMC,072138.70,D,3019.25985719,N,12004.23035012,E,0.028,1.3,071125,6.1,W,R,S*53
$WTRTK,-0.514,-0.186,-0.003,0.547,1.80,5.05,104.43,4,21,5,31,917,--,1,9.3,22.4,114,2,3019.26397242,N,12004.23355138,E,0.15,255.57,18.35*71
$GNGGA,072138.80,3019.25985159,N,12004.23035019,E,4,21,1.3,5.0821,M,7.8953,M,1.8,0*55
$GNRMC,072138.80,D,3019.25985159,N,12004.23035019,E,0.029,353.9,071125,6.1,W,R,S*5A
$WTRTK,-0.515,-0.186,-0.005,0.548,1.80,5.05,104.44,4,21,5,31,917,--,1,9.3,22.4,114,2,3019.26397190,N,12004.23355275,E,0.14,255.56,18.36*7B
$GNGGA,072138.80,3019.25985159,N,12004.23035019,E,4,21,1.3,5.0821,M,7.8953,M,1.8,0*55
$GNRMC,072138.80,D,3019.25985159,N,12004.23035019,E,0.029,353.9,071125,6.1,W,R,S*5A
$WTRTK,-0.515,-0.186,-0.005,0.548,1.80,5.05,104.44,4,21,5,31,917,--,1,9.3,22.4,114,2,3019.26397008,N,12004.23355537,E,0.13,255.56,18.36*7D
$GNGGA,072138.90,3019.25985020,N,12004.23035143,E,4,21,1.3,5.0805,M,7.8953,M,1.9,0*52
$GNRMC,072138.90,D,3019.25985020,N,12004.23035143,E,0.027,347.7,071125,6.1,W,R,S*5F
$WTRTK,-0.518,-0.176,0.006,0.547,1.80,5.05,104.46,4,21,5,31,917,--,1,9.3,22.3,114,2,3019.26397040,N,12004.23355596,E,0.14,255.54,18.36*59
$GNGGA,072138.90,3019.25985020,N,12004.23035143,E,4,21,1.3,5.0805,M,7.8953,M,1.9,0*52
$GNRMC,072138.90,D,3019.25985020,N,12004.23035143,E,0.027,347.7,071125,6.1,W,R,S*5F
$WTRTK,-0.518,-0.176,0.006,0.547,1.80,5.05,104.46,4,21,5,31,0,--,1,9.3,22.4,114,2,3019.26396879,N,12004.23355822,E,0.13,255.54,18.36*57
$GNGGA,072139.00,3019.25985213,N,12004.23035180,E,4,21,1.3,5.0680,M,7.8953,M,2.0,0*5E
$GNRMC,072139.00,D,3019.25985213,N,12004.23035180,E,0.032,350.0,071125,6.1,W,R,S*5F
$WTRTK,-0.519,-0.190,0.013,0.553,1.80,5.05,104.46,4,21,5,31,0,--,1,9.3,22.3,114,2,3019.26396818,N,12004.23355958,E,0.13,255.54,18.36*53
$GNGGA,072139.00,3019.25985213,N,12004.23035180,E,4,21,1.3,5.0680,M,7.8953,M,2.0,0*5E
$GNRMC,072139.00,D,3019.25985213,N,12004.23035180,E,0.032,350.0,071125,6.1,W,R,S*5F
$WTRTK,-0.519,-0.190,0.013,0.553,1.80,5.05,104.46,4,21,5,31,0,--,1,9.3,22.4,114,2,3019.26396718,N,12004.23356089,E,0.13,255.54,18.36*5D
$GNGGA,072139.10,3019.25985244,N,12004.23035087,E,4,21,1.3,5.0706,M,7.8953,M,2.1,0*55
$GNRMC,072139.10,D,3019.25985244,N,12004.23035087,E,0.030,354.3,071125,6.1,W,R,S*5F
$WTRTK,-0.520,-0.178,0.016,0.550,1.81,5.05,104.48,4,21,5,31,0,--,1,9.3,22.4,114,2,3019.26396761,N,12004.23356128,E,0.13,255.52,18.36*5A
$GNGGA,072139.10,3019.25985244,N,12004.23035087,E,4,21,1.3,5.0706,M,7.8953,M,2.1,0*55
$GNRMC,072139.10,D,3019.25985244,N,12004.23035087,E,0.030,354.3,071125,6.1,W,R,S*5F
$WTRTK,-0.520,-0.178,0.016,0.550,1.81,5.05,104.48,4,21,5,31,0,--,1,9.3,22.4,114,2,3019.26396609,N,12004.23356306,E,0.13,255.52,18.36*5B
$GNGGA,072139.20,3019.25985340,N,12004.23035253,E,4,21,1.3,5.0688,M,7.8953,M,2.2,0*5C
$GNRMC,072139.20,D,3019.25985340,N,12004.23035253,E,0.029,354.0,071125,6.1,W,R,S*59
$WTRTK,-0.524,-0.174,0.029,0.553,1.81,5.05,104.48,4,21,5,31,87,--,1,9.3,22.4,114,2,3019.26396554,N,12004.23356414,E,0.13,255.52,18.36*6C
$GNGGA,072139.20,3019.25985340,N,12004.23035253,E,4,21,1.3,5.0688,M,7.8953,M,2.2,0*5C
$GNRMC,072139.20,D,3019.25985340,N,12004.23035253,E,0.029,354.0,071125,6.1,W,R,S*59
$WTRTK,-0.524,-0.174,0.029,0.553,1.81,5.04,104.47,4,21,5,31,87,--,1,9.3,22.4,114,2,3019.26396452,N,12004.23356524,E,0.12,255.53,18.36*67
$GNGGA,072139.30,3019.25985453,N,12004.23035053,E,4,21,1.3,5.0583,M,7.8953,M,2.3,0*53
$GNRMC,072139.30,D,3019.25985453,N,12004.23035053,E,0.026,356.3,071125,6.1,W,R,S*51
$WTRTK,-0.516,-0.178,0.030,0.547,1.81,5.04,104.47,4,21,5,31,87,--,1,9.3,22.4,114,2,3019.26396484,N,12004.23356554,E,0.12,255.53,18.36*6B
$GNGGA,072139.30,3019.25985453,N,12004.23035053,E,4,21,1.3,5.0583,M,7.8953,M,2.3,0*53
$GNRMC,072139.30,D,3019.25985453,N,12004.23035053,E,0.026,356.3,071125,6.1,W,R,S*51
$WTRTK,-0.516,-0.178,0.030,0.547,1.81,5.04,104.47,4,21,5,31,908,--,1,9.3,22.4,114,2,3019.26396359,N,12004.23356686,E,0.11,255.53,18.36*5D
$GNGGA,072139.40,3019.25985483,N,12004.23035213,E,4,21,1.3,5.0731,M,7.8953,M,2.4,0*53
$GNRMC,072139.40,D,3019.25985483,N,12004.23035213,E,0.027,353.0,071125,6.1,W,R,S*5A
$WTRTK,-0.519,-0.184,0.018,0.552,1.81,5.04,104.46,4,21,5,31,908,--,1,9.3,22.4,114,2,3019.26396337,N,12004.23356745,E,0.11,255.54,18.36*5F
$GNGGA,072139.40,3019.25985483,N,12004.23035213,E,4,21,1.3,5.0731,M,7.8953,M,2.4,0*53
$GNRMC,072139.40,D,3019.25985483,N,12004.23035213,E,0.027,353.0,071125,6.1,W,R,S*5A
$WTRTK,-0.519,-0.184,0.018,0.552,1.81,5.04,104.46,4,21,5,31,908,--,1,9.3,22.5,114,2,3019.26396272,N,12004.23356842,E,0.10,255.54,18.37*56
$GNGGA,072139.50,3019.25984770,N,12004.23035185,E,4,21,1.3,5.0663,M,7.8953,M,1.5,0*54
$GNRMC,072139.50,D,3019.25984770,N,12004.23035185,E,0.025,353.8,071125,6.1,W,R,S*53
$WTRTK,-0.521,-0.184,0.028,0.553,1.81,5.04,104.49,4,21,5,31,908,--,1,9.3,22.4,114,2,3019.26396285,N,12004.23356885,E,0.10,255.51,18.37*57
$GNGGA,072139.50,3019.25984770,N,12004.23035185,E,4,21,1.3,5.0663,M,7.8953,M,1.5,0*54
$GNRMC,072139.50,D,3019.25984770,N,12004.23035185,E,0.025,353.8,071125,6.1,W,R,S*53
$WTRTK,-0.521,-0.184,0.028,0.553,1.81,5.04,104.49,4,21,5,31,908,--,1,9.3,22.4,114,2,3019.26396276,N,12004.23356921,E,0.10,255.51,18.37*54
$GNGGA,072139.60,3019.25985031,N,12004.23035087,E,4,21,1.3,5.0648,M,7.8953,M,1.6,0*5D
$GNRMC,072139.60,D,3019.25985031,N,12004.23035087,E,0.025,355.0,071125,6.1,W,R,S*5E
$WTRTK,-0.519,-0.166,0.038,0.546,1.81,5.04,104.50,4,21,5,31,908,--,1,9.3,22.4,114,2,3019.26396311,N,12004.23356934,E,0.10,255.50,18.37*5B
$GNGGA,072139.60,3019.25985031,N,12004.23035087,E,4,21,1.3,5.0648,M,7.8953,M,1.6,0*5D
$GNRMC,072139.60,D,3019.25985031,N,12004.23035087,E,0.025,355.0,071125,6.1,W,R,S*5E
$WTRTK,-0.519,-0.166,0.038,0.546,1.81,5.04,104.50,4,21,5,31,908,--,1,9.3,22.3,114,2,3019.26396337,N,12004.23356927,E,0.10,255.50,18.37*5A
$GNGGA,072139.70,3019.25984975,N,12004.23035171,E,4,21,1.3,5.0648,M,7.8953,M,1.7,0*5D
$GNRMC,072139.70,D,3019.25984975,N,12004.23035171,E,0.026,354.2,071125,6.1,W,R,S*5F
$WTRTK,-0.519,-0.189,0.022,0.553,1.81,5.04,104.52,4,21,5,31,1721,--,1,9.3,22.4,114,2,3019.26396379,N,12004.23356952,E,0.10,255.48,18.37*64
$GNGGA,072139.70,3019.25984975,N,12004.23035171,E,4,21,1.3,5.0648,M,7.8953,M,1.7,0*5D
$GNRMC,072139.70,D,3019.25984975,N,12004.23035171,E,0.026,354.2,071125,6.1,W,R,S*5F
$WTRTK,-0.519,-0.189,0.022,0.553,1.81,5.04,104.51,4,21,5,31,1721,--,1,9.3,22.3,114,2,3019.26396405,N,12004.23356939,E,0.10,255.49,18.37*60
$GNGGA,072139.80,3019.25985157,N,12004.23035363,E,4,21,1.3,5.0711,M,7.8953,M,1.8,0*58
$GNRMC,072139.80,D,3019.25985157,N,12004.23035363,E,0.025,354.0,071125,6.1,W,R,S*59
$WTRTK,-0.522,-0.178,0.023,0.552,1.81,5.04,104.52,4,21,5,31,1721,--,1,9.3,22.4,114,2,3019.26396434,N,12004.23356959,E,0.10,255.48,18.37*67
$GNGGA,072139.80,3019.25985157,N,12004.23035363,E,4,21,1.3,5.0711,M,7.8953,M,1.8,0*58
$GNRMC,072139.80,D,3019.25985157,N,12004.23035363,E,0.025,354.0,071125,6.1,W,R,S*59
$WTRTK,-0.522,-0.178,0.023,0.552,1.81,5.04,104.52,4,21,5,31,1721,--,1,9.3,22.4,114,2,3019.26396461,N,12004.23356954,E,0.10,255.48,18.38*65
$GNGGA,072139.90,3019.25985128,N,12004.23035213,E,4,21,1.3,5.0634,M,7.8953,M,0.9,0*51
$GNRMC,072139.90,D,3019.25985128,N,12004.23035213,E,0.024,357.5,071125,6.1,W,R,S*51
$WTRTK,-0.520,-0.182,0.033,0.552,1.81,5.04,104.55,4,21,5,31,1721,--,1,9.3,22.4,114,2,3019.26396489,N,12004.23356990,E,0.10,255.45,18.38*67
$GNGGA,072139.90,3019.25985128,N,12004.23035213,E,4,21,1.3,5.0634,M,7.8953,M,0.9,0*51
$GNRMC,072139.90,D,3019.25985128,N,12004.23035213,E,0.024,357.5,071125,6.1,W,R,S*51
$WTRTK,-0.520,-0.182,0.033,0.552,1.81,5.04,104.55,4,21,5,31,0,--,1,9.3,22.4,114,2,3019.26396512,N,12004.23356985,E,0.10,255.45,18.38*55
$GNGGA,072140.00,3019.25984895,N,12004.23035179,E,4,21,1.3,5.0637,M,7.8953,M,1.0,0*5C
$GNRMC,072140.00,D,3019.25984895,N,12004.23035179,E,0.023,357.6,071125,6.1,W,R,S*53
$WTRTK,-0.515,-0.183,0.032,0.548,1.82,5.04,104.55,4,21,5,31,0,--,1,9.3,22.3,114,2,3019.26396551,N,12004.23357002,E,0.11,255.45,18.38*5D
$GNGGA,072140.00,3019.25984895,N,12004.23035179,E,4,21,1.3,5.0637,M,7.8953,M,1.0,0*5C
$GNRMC,072140.00,D,3019.25984895,N,12004.23035179,E,0.023,357.6,071125,6.1,W,R,S*53
$WTRTK,-0.515,-0.183,0.032,0.548,1.82,5.04,104.56,4,21,5,31,0,--,1,9.3,22.4,114,2,3019.26396581,N,12004.23356996,E,0.11,255.44,18.38*50
$GNGGA,072140.10,3019.25984657,N,12004.23035223,E,4,21,1.3,5.0577,M,7.8953,M,1.1,0*57
$GNRMC,072140.10,D,3019.25984657,N,12004.23035223,E,0.020,355.2,071125,6.1,W,R,S*5B
$WTRTK,-0.518,-0.175,0.041,0.549,1.82,5.04,104.57,4,21,5,31,0,--,1,9.3,22.4,114,2,3019.26396618,N,12004.23357028,E,0.11,255.43,18.38*59
$GNGGA,072140.10,3019.25984657,N,12004.23035223,E,4,21,1.3,5.0577,M,7.8953,M,1.1,0*57
$GNRMC,072140.10,D,3019.25984657,N,12004.23035223,E,0.020,355.2,071125,6.1,W,R,S*5B
$WTRTK,-0.518,-0.175,0.041,0.549,1.82,5.04,104.58,4,21,5,31,0,--,1,9.3,22.4,114,2,3019.26396649,N,12004.23357027,E,0.11,255.42,18.39*5D
$GNGGA,072140.20,3019.25984727,N,12004.23035389,E,4,21,1.3,5.0596,M,7.8953,M,1.2,0*5F
$GNRMC,072140.20,D,3019.25984727,N,12004.23035389,E,0.016,344.6,071125,6.1,W,R,S*5E
$WTRTK,-0.522,-0.176,0.020,0.551,1.82,5.04,104.58,4,21,5,31,87,--,1,9.3,22.4,114,2,3019.26396676,N,12004.23357045,E,0.11,255.42,18.39*6E
$GNGGA,072140.20,3019.25984727,N,12004.23035389,E,4,21,1.3,5.0596,M,7.8953,M,1.2,0*5F
$GNRMC,072140.20,D,3019.25984727,N,12004.23035389,E,0.016,344.6,071125,6.1,W,R,S*5E
$WTRTK,-0.522,-0.176,0.020,0.551,1.82,5.04,104.58,4,21,5,31,87,--,1,9.3,22.4,114,2,3019.26396704,N,12004.23357040,E,0.11,255.42,18.39*6F
$GNGGA,072140.30,3019.25984489,N,12004.23035468,E,4,21,1.3,5.0575,M,7.8953,M,1.3,0*5D
$GNRMC,072140.30,D,3019.25984489,N,12004.23035468,E,0.016,344.5,071125,6.1,W,R,S*53
$WTRTK,-0.521,-0.172,0.035,0.550,1.82,5.04,104.60,4,21,5,31,87,--,1,9.3,22.3,114,2,3019.26396705,N,12004.23357071,E,0.11,255.40,18.39*60
$GNGGA,072140.30,3019.25984489,N,12004.23035468,E,4,21,1.3,5.0575,M,7.8953,M,1.3,0*5D
$GNRMC,072140.30,D,3019.25984489,N,12004.23035468,E,0.016,344.5,071125,6.1,W,R,S*53
$WTRTK,-0.521,-0.172,0.035,0.550,1.82,5.04,104.60,4,21,5,31,908,--,1,9.3,22.4,114,2,3019.26396733,N,12004.23357066,E,0.11,255.40,18.39*5A
$GNGGA,072140.40,3019.25984852,N,12004.23035312,E,4,21,1.3,5.0579,M,7.8953,M,1.4,0*51
$GNRMC,072140.40,D,3019.25984852,N,12004.23035312,E,0.016,348.4,071125,6.1,W,R,S*59
$WTRTK,-0.526,-0.172,0.031,0.554,1.82,5.04,104.60,4,21,5,31,908,--,1,9.3,22.5,114,2,3019.26396731,N,12004.23357081,E,0.11,255.40,18.39*57
$GNGGA,072140.40,3019.25984852,N,12004.23035312,E,4,21,1.3,5.0579,M,7.8953,M,1.4,0*51
$GNRMC,072140.40,D,3019.25984852,N,12004.23035312,E,0.016,348.4,071125,6.1,W,R,S*59
$WTRTK,-0.526,-0.172,0.031,0.554,1.82,5.03,104.60,4,21,5,31,908,--,1,9.3,22.4,114,2,3019.26396758,N,12004.23357080,E,0.11,255.40,18.40*51
$GNGGA,072140.50,3019.25984547,N,12004.23035346,E,4,21,1.3,5.0584,M,7.8953,M,0.5,0*5A
$GNRMC,072140.50,D,3019.25984547,N,12004.23035346,E,0.015,350.2,071125,6.1,W,R,S*5C
$WTRTK,-0.522,-0.173,0.021,0.551,1.82,5.03,104.61,4,21,5,31,908,--,1,9.3,22.4,114,2,3019.26396758,N,12004.23357110,E,0.11,255.39,18.40*57
$GNGGA,072140.50,3019.25984547,N,12004.23035346,E,4,21,1.3,5.0584,M,7.8953,M,0.5,0*5A
$GNRMC,072140.50,D,3019.25984547,N,12004.23035346,E,0.015,350.2,071125,6.1,W,R,S*5C
