$WTRTK,0.010,0.550,-0.010,0.551,0.96,1.54,-0.20,4,21,5,27,838,--,1,9.3,16.6,177,2,3019.25020457,N,12004.26496069,E,0.01,0.20,10.86*5B
$GNGGA,085713.90,3019.25782314,N,12004.27487242,E,4,33,0.6,5.2087,M,7.8976,M,0.9,0*52
$GNRMC,085713.90,D,3019.25782314,N,12004.27487242,E,0.002,126.2,251225,6.1,W,R,S*5A
$WTRTK,0.011,0.555,-0.007,0.555,0.96,1.54,-0.21,4,21,5,27,838,--,1,9.3,16.5,177,2,3019.25020457,N,12004.26496071,E,0.00,0.21,10.86*56
$GNGGA,085713.90,3019.25782314,N,12004.27487242,E,4,33,0.6,5.2087,M,7.8976,M,0.9,0*52
$GNRMC,085713.90,D,3019.25782314,N,12004.27487242,E,0.002,126.2,251225,6.1,W,R,S*5A
$WTRTK,0.011,0.555,-0.007,0.555,0.96,1.54,-0.21,4,21,5,27,838,--,1,9.3,16.7,177,2,3019.25020456,N,12004.26496075,E,0.00,0.21,10.86*51
$GNGGA,085714.00,3019.25782356,N,12004.27487237,E,4,33,0.6,5.2086,M,7.8976,M,1.0,0*51
$GNRMC,085714.00,D,3019.25782356,N,12004.27487237,E,0.002,137.3,251225,6.1,W,R,S*51
$WTRTK,0.008,0.553,-0.007,0.553,0.96,1.54,-0.21,4,21,5,27,838,--,1,9.3,16.6,177,2,3019.25020457,N,12004.26496075,E,0.01,0.21,10.86*58
$GNGGA,085714.10,3019.25782321,N,12004.27487217,E,4,33,0.6,5.2133,M,7.8976,M,1.1,0*5C
$GNRMC,085714.10,D,3019.25782321,N,12004.27487217,E,0.002,126.5,251225,6.1,W,R,S*54
$WTRTK,0.008,0.553,-0.007,0.553,0.96,1.54,-0.22,4,21,5,27,838,--,1,9.3,16.6,177,2,3019.25020457,N,12004.26496077,E,0.01,0.22,10.86*5A
$GNGGA,085714.10,3019.25782321,N,12004.27487217,E,4,33,0.6,5.2133,M,7.8976,M,1.1,0*5C
$GNRMC,085714.10,D,3019.25782321,N,12004.27487217,E,0.002,126.5,251225,6.1,W,R,S*54
$WTRTK,0.008,0.550,-0.016,0.551,0.96,1.54,-0.22,4,21,5,27,838,--,1,9.3,16.5,177,2,3019.25020457,N,12004.26496079,E,0.01,0.22,10.86*56
$GNGGA,085714.20,3019.25782496,N,12004.27487071,E,4,33,0.6,5.1973,M,7.8976,M,1.2,0*5A
$GNRMC,085714.20,D,3019.25782496,N,12004.27487071,E,0.002,80.7,251225,6.1,W,R,S*61
$WTRTK,0.008,0.550,-0.016,0.551,0.96,1.54,-0.23,4,21,5,27,838,--,1,9.3,16.6,177,2,3019.25020457,N,12004.26496082,E,0.01,0.23,10.86*51
$GNGGA,085714.20,3019.25782496,N,12004.27487071,E,4,33,0.6,5.1973,M,7.8976,M,1.2,0*5A
$GNRMC,085714.20,D,3019.25782496,N,12004.27487071,E,0.002,80.7,251225,6.1,W,R,S*61
$WTRTK,0.011,0.551,-0.013,0.551,0.96,1.54,-0.23,4,21,5,27,838,--,1,9.3,16.4,177,2,3019.25020457,N,12004.26496082,E,0.01,0.23,10.86*5F
$GNGGA,085714.30,3019.25782481,N,12004.27487127,E,4,33,0.6,5.1974,M,7.8976,M,1.3,0*59
$GNRMC,085714.30,D,3019.25782481,N,12004.27487127,E,0.002,65.7,251225,6.1,W,R,S*6F
$WTRTK,0.011,0.551,-0.013,0.551,0.96,1.54,-0.23,4,21,5,27,0,--,1,9.3,16.6,177,2,3019.25020457,N,12004.26496085,E,0.01,0.23,10.86*59
$GNGGA,085714.30,3019.25782481,N,12004.27487127,E,4,33,0.6,5.1974,M,7.8976,M,1.3,0*59
$GNRMC,085714.30,D,3019.25782481,N,12004.27487127,E,0.002,65.7,251225,6.1,W,R,S*6F
$WTRTK,0.010,0.549,-0.019,0.550,0.96,1.54,-0.24,4,21,5,27,0,--,1,9.3,16.5,177,2,3019.25020457,N,12004.26496087,E,0.01,0.24,10.86*5B
$GNGGA,085714.40,3019.25782481,N,12004.27487151,E,4,33,0.6,5.1967,M,7.8976,M,1.4,0*5A
$GNRMC,085714.40,D,3019.25782481,N,12004.27487151,E,0.002,62.8,251225,6.1,W,R,S*61
$WTRTK,0.010,0.549,-0.019,0.550,0.96,1.54,-0.24,4,21,5,27,0,--,1,9.3,16.6,177,2,3019.25020457,N,12004.26496088,E,0.01,0.24,10.86*57
$GNGGA,085714.40,3019.25782481,N,12004.27487151,E,4,33,0.6,5.1967,M,7.8976,M,1.4,0*5A
$GNRMC,085714.40,D,3019.25782481,N,12004.27487151,E,0.002,62.8,251225,6.1,W,R,S*61
$WTRTK,0.010,0.554,-0.013,0.554,0.96,1.54,-0.24,4,21,5,27,0,--,1,9.3,16.5,177,2,3019.25020458,N,12004.26496088,E,0.01,0.24,10.86*59
$GNGGA,085714.50,3019.25782522,N,12004.27487306,E,4,33,0.6,5.1972,M,7.8976,M,1.5,0*56
$GNRMC,085714.50,D,3019.25782522,N,12004.27487306,E,0.002,91.4,251225,6.1,W,R,S*68
$WTRTK,0.010,0.554,-0.013,0.554,0.96,1.54,-0.25,4,21,5,27,0,--,1,9.3,16.6,177,2,3019.25020458,N,12004.26496088,E,0.01,0.25,10.86*5A
$GNGGA,085714.50,3019.25782522,N,12004.27487306,E,4,33,0.6,5.1972,M,7.8976,M,1.5,0*56
$GNRMC,085714.50,D,3019.25782522,N,12004.27487306,E,0.002,91.4,251225,6.1,W,R,S*68
$WTRTK,0.006,0.549,-0.010,0.549,0.96,1.54,-0.25,4,21,5,27,0,--,1,9.3,16.5,177,2,3019.25020458,N,12004.26496088,E,0.01,0.25,10.86*5D
$GNGGA,085714.60,3019.25782492,N,12004.27487161,E,4,33,0.6,5.1974,M,7.8976,M,1.6,0*59
$GNRMC,085714.60,D,3019.25782492,N,12004.27487161,E,0.002,86.9,251225,6.1,W,R,S*69
$WTRTK,0.006,0.549,-0.010,0.549,0.96,1.54,-0.25,4,21,5,27,0,--,1,9.3,16.6,177,2,3019.25020458,N,12004.26496088,E,0.00,0.25,10.86*5F
$GNGGA,085714.60,3019.25782492,N,12004.27487161,E,4,33,0.6,5.1974,M,7.8976,M,1.6,0*59
$GNRMC,085714.60,D,3019.25782492,N,12004.27487161,E,0.002,86.9,251225,6.1,W,R,S*69
$WTRTK,0.009,0.550,-0.017,0.550,0.96,1.54,-0.25,4,21,5,27,0,--,1,9.3,16.4,177,2,3019.25020458,N,12004.26496088,E,0.00,0.25,10.86*55
$GNGGA,085714.70,3019.25782529,N,12004.27487165,E,4,33,0.6,5.1991,M,7.8976,M,1.7,0*57
$GNRMC,085714.70,D,3019.25782529,N,12004.27487165,E,0.002,83.7,251225,6.1,W,R,S*66
$WTRTK,0.009,0.550,-0.017,0.550,0.96,1.54,-0.26,4,21,5,27,0,--,1,9.3,16.6,177,2,3019.25020457,N,12004.26496088,E,0.00,0.26,10.86*58
$GNGGA,085714.70,3019.25782529,N,12004.27487165,E,4,33,0.6,5.1991,M,7.8976,M,1.7,0*57
$GNRMC,085714.70,D,3019.25782529,N,12004.27487165,E,0.002,83.7,251225,6.1,W,R,S*66
$WTRTK,0.010,0.549,-0.018,0.549,0.96,1.54,-0.26,4,21,5,27,0,--,1,9.3,16.4,177,2,3019.25020458,N,12004.26496088,E,0.00,0.26,10.86*52
$GNGGA,085714.80,3019.25782525,N,12004.27487203,E,4,33,0.6,5.1922,M,7.8976,M,1.8,0*50
$GNRMC,085714.80,D,3019.25782525,N,12004.27487203,E,0.002,75.5,251225,6.1,W,R,S*6D
$WTRTK,0.010,0.549,-0.018,0.549,0.96,1.54,-0.26,4,21,5,27,0,--,1,9.3,16.6,177,2,3019.25020458,N,12004.26496088,E,0.00,0.26,10.86*50
$GNGGA,085714.80,3019.25782525,N,12004.27487203,E,4,33,0.6,5.1922,M,7.8976,M,1.8,0*50
$GNRMC,085714.80,D,3019.25782525,N,12004.27487203,E,0.002,75.5,251225,6.1,W,R,S*6D
$WTRTK,0.009,0.551,-0.017,0.551,0.96,1.54,-0.27,4,21,5,27,0,--,1,9.3,16.5,177,2,3019.25020459,N,12004.26496088,E,0.00,0.27,10.86*55
$GNGGA,085714.90,3019.25782505,N,12004.27487245,E,4,33,0.6,5.1936,M,7.8976,M,1.9,0*55
$GNRMC,085714.90,D,3019.25782505,N,12004.27487245,E,0.002,78.7,251225,6.1,W,R,S*63
$WTRTK,0.009,0.551,-0.017,0.551,0.96,1.54,-0.27,4,21,5,27,0,--,1,9.3,16.5,177,2,3019.25020458,N,12004.26496088,E,0.00,0.27,10.86*54
$GNGGA,085714.90,3019.25782505,N,12004.27487245,E,4,33,0.6,5.1936,M,7.8976,M,1.9,0*55
$GNRMC,085714.90,D,3019.25782505,N,12004.27487245,E,0.002,78.7,251225,6.1,W,R,S*63
$WTRTK,0.008,0.554,-0.014,0.554,0.96,1.54,-0.27,4,21,5,27,0,--,1,9.3,16.5,177,2,3019.25020458,N,12004.26496088,E,0.00,0.27,10.86*56
$GNGGA,085714.90,3019.25782505,N,12004.27487245,E,4,33,0.6,5.1936,M,7.8976,M,1.9,0*55
$GNRMC,085714.90,D,3019.25782505,N,12004.27487245,E,0.002,78.7,251225,6.1,W,R,S*63
$WTRTK,0.008,0.554,-0.014,0.554,0.96,1.54,-0.27,4,21,5,27,0,--,1,9.3,16.6,177,2,3019.25020457,N,12004.26496088,E,0.00,0.27,10.86*5A
$GNGGA,085715.00,3019.25782515,N,12004.27487141,E,4,33,0.6,5.1932,M,7.8976,M,2.0,0*55
$GNRMC,085715.00,D,3019.25782515,N,12004.27487141,E,0.003,76.5,251225,6.1,W,R,S*60
$WTRTK,0.011,0.549,-0.013,0.549,0.96,1.54,-0.28,4,21,5,27,0,--,1,9.3,16.4,177,2,3019.25020458,N,12004.26496088,E,0.00,0.28,10.86*58
$GNGGA,085715.10,3019.25782476,N,12004.27487267,E,4,33,0.6,5.1938,M,7.8976,M,2.1,0*5C
$GNRMC,085715.10,D,3019.25782476,N,12004.27487267,E,0.003,79.2,251225,6.1,W,R,S*6A
$WTRTK,0.009,0.552,-0.014,0.552,0.96,1.54,-0.29,4,21,5,27,0,--,1,9.3,16.7,177,2,3019.25020458,N,12004.26496088,E,0.00,0.29,10.86*55
$GNGGA,085715.10,3019.25782476,N,12004.27487267,E,4,33,0.6,5.1938,M,7.8976,M,2.1,0*5C
$GNRMC,085715.10,D,3019.25782476,N,12004.27487267,E,0.003,79.2,251225,6.1,W,R,S*6A
$WTRTK,0.009,0.552,-0.014,0.552,0.96,1.54,-0.29,4,21,5,27,0,--,1,9.3,16.5,177,2,3019.25020457,N,12004.26496088,E,0.00,0.29,10.86*58
$GNGGA,085715.20,3019.25782743,N,12004.27486923,E,4,33,0.6,5.1986,M,7.8976,M,2.2,0*56
$GNRMC,085715.20,D,3019.25782743,N,12004.27486923,E,0.003,89.6,251225,6.1,W,R,S*6D
$WTRTK,0.009,0.552,-0.014,0.552,0.96,1.54,-0.29,4,21,5,27,0,--,1,9.3,16.7,177,2,3019.25020456,N,12004.26496088,E,0.00,0.29,10.86*5B
$GNGGA,085715.20,3019.25782743,N,12004.27486923,E,4,33,0.6,5.1986,M,7.8976,M,2.2,0*56
$GNRMC,085715.20,D,3019.25782743,N,12004.27486923,E,0.003,89.6,251225,6.1,W,R,S*6D
$WTRTK,0.009,0.549,-0.020,0.549,0.96,1.54,-0.30,4,21,5,27,0,--,1,9.3,16.3,177,2,3019.25020456,N,12004.26496088,E,0.01,0.30,10.86*59
$GNGGA,085715.30,3019.25782846,N,12004.27486971,E,4,33,0.6,5.2001,M,7.8976,M,2.3,0*5E
$GNRMC,085715.30,D,3019.25782846,N,12004.27486971,E,0.002,96.8,251225,6.1,W,R,S*60
$WTRTK,0.010,0.551,-0.013,0.551,0.96,1.55,-0.30,4,21,5,27,0,--,1,9.3,16.5,177,2,3019.25020454,N,12004.26496085,E,0.01,0.30,10.86*59
$GNGGA,085715.30,3019.25782846,N,12004.27486971,E,4,33,0.6,5.2001,M,7.8976,M,2.3,0*5E
$GNRMC,085715.30,D,3019.25782846,N,12004.27486971,E,0.002,96.8,251225,6.1,W,R,S*60
$WTRTK,0.010,0.551,-0.013,0.551,0.96,1.55,-0.30,4,21,5,27,0,--,1,9.3,16.5,177,2,3019.25020453,N,12004.26496083,E,0.01,0.30,10.86*58
$GNGGA,085715.40,3019.25782882,N,12004.27486959,E,4,33,0.6,5.1949,M,7.8976,M,2.4,0*5A
$GNRMC,085715.40,D,3019.25782882,N,12004.27486959,E,0.002,87.8,251225,6.1,W,R,S*65
$WTRTK,0.011,0.549,-0.010,0.550,0.96,1.55,-0.30,4,21,5,27,0,--,1,9.3,16.6,177,2,3019.25020452,N,12004.26496082,E,0.00,0.30,10.86*50
$GNGGA,085715.40,3019.25782882,N,12004.27486959,E,4,33,0.6,5.1949,M,7.8976,M,2.4,0*5A
$GNRMC,085715.40,D,3019.25782882,N,12004.27486959,E,0.002,87.8,251225,6.1,W,R,S*65
$WTRTK,0.011,0.549,-0.010,0.550,0.96,1.55,-0.31,4,21,5,27,0,--,1,9.3,16.5,177,2,3019.25020451,N,12004.26496082,E,0.00,0.31,10.86*50
$GNGGA,085715.50,3019.25782845,N,12004.27486934,E,4,33,0.6,5.2002,M,7.8976,M,2.5,0*5F
$GNRMC,085715.50,D,3019.25782845,N,12004.27486934,E,0.002,81.7,251225,6.1,W,R,S*6D
$WTRTK,0.010,0.549,-0.016,0.549,0.96,1.55,-0.31,4,21,5,27,0,--,1,9.3,16.6,177,2,3019.25020451,N,12004.26496082,E,0.00,0.31,10.86*5C
$GNGGA,085715.50,3019.25782845,N,12004.27486934,E,4,33,0.6,5.2002,M,7.8976,M,2.5,0*5F
$GNRMC,085715.50,D,3019.25782845,N,12004.27486934,E,0.002,81.7,251225,6.1,W,R,S*6D
$WTRTK,0.010,0.549,-0.016,0.549,0.96,1.55,-0.32,4,21,5,27,87,--,1,9.3,16.6,177,2,3019.25020450,N,12004.26496082,E,0.00,0.32,10.86*62
$GNGGA,085715.60,3019.25782880,N,12004.27486948,E,4,33,0.6,5.1957,M,7.8976,M,2.6,0*57
$GNRMC,085715.60,D,3019.25782880,N,12004.27486948,E,0.002,86.9,251225,6.1,W,R,S*65
$WTRTK,0.011,0.547,-0.012,0.547,0.96,1.55,-0.32,4,21,5,27,87,--,1,9.3,16.5,177,2,3019.25020449,N,12004.26496082,E,0.00,0.32,10.86*6C
$GNGGA,085715.60,3019.25782880,N,12004.27486948,E,4,33,0.6,5.1957,M,7.8976,M,2.6,0*57
$GNRMC,085715.60,D,3019.25782880,N,12004.27486948,E,0.002,86.9,251225,6.1,W,R,S*65
$WTRTK,0.011,0.547,-0.012,0.547,0.96,1.55,-0.32,4,21,5,27,87,--,1,9.3,16.5,177,2,3019.25020449,N,12004.26496082,E,0.00,0.32,10.86*6C
$GNGGA,085715.70,3019.25782760,N,12004.27486907,E,4,33,0.6,5.1948,M,7.8976,M,2.7,0*53
$GNRMC,085715.70,D,3019.25782760,N,12004.27486907,E,0.002,100.8,251225,6.1,W,R,S*50
$WTRTK,0.012,0.550,-0.010,0.550,0.96,1.55,-0.33,4,21,5,27,87,--,1,9.3,16.5,177,2,3019.25020447,N,12004.26496082,E,0.00,0.33,10.86*63
$GNGGA,085715.70,3019.25782760,N,12004.27486907,E,4,33,0.6,5.1948,M,7.8976,M,2.7,0*53
$GNRMC,085715.70,D,3019.25782760,N,12004.27486907,E,0.002,100.8,251225,6.1,W,R,S*50
$WTRTK,0.012,0.550,-0.010,0.550,0.96,1.55,-0.33,4,21,5,27,87,--,1,9.3,16.5,177,2,3019.25020447,N,12004.26496082,E,0.00,0.33,10.86*63
$GNGGA,085715.80,3019.25782758,N,12004.27486945,E,4,33,0.6,5.1948,M,7.8976,M,2.8,0*5E
$GNRMC,085715.80,D,3019.25782758,N,12004.27486945,E,0.003,112.4,251225,6.1,W,R,S*5C
$WTRTK,0.008,0.548,-0.013,0.548,0.96,1.55,-0.34,4,21,5,27,87,--,1,9.3,16.5,177,2,3019.25020447,N,12004.26496082,E,0.00,0.34,10.86*6B
$GNGGA,085715.80,3019.25782758,N,12004.27486945,E,4,33,0.6,5.1948,M,7.8976,M,2.8,0*5E
$GNRMC,085715.80,D,3019.25782758,N,12004.27486945,E,0.003,112.4,251225,6.1,W,R,S*5C
$WTRTK,0.008,0.548,-0.013,0.548,0.96,1.55,-0.34,4,21,5,27,87,--,1,9.3,16.6,177,2,3019.25020448,N,12004.26496082,E,0.00,0.34,10.86*67
$GNGGA,085715.90,3019.25782743,N,12004.27486891,E,4,33,0.6,5.1912,M,7.8976,M,2.9,0*53
$GNRMC,085715.90,D,3019.25782743,N,12004.27486891,E,0.004,107.2,251225,6.1,W,R,S*5A
$WTRTK,0.012,0.549,-0.007,0.549,0.96,1.55,-0.34,4,21,5,27,829,--,1,9.3,16.5,177,2,3019.25020447,N,12004.26496082,E,0.00,0.34,10.86*59
$GNGGA,085715.90,3019.25782743,N,12004.27486891,E,4,33,0.6,5.1912,M,7.8976,M,2.9,0*53
$GNRMC,085715.90,D,3019.25782743,N,12004.27486891,E,0.004,107.2,251225,6.1,W,R,S*5A
$WTRTK,0.012,0.549,-0.007,0.549,0.96,1.55,-0.35,4,21,5,27,829,--,1,9.3,16.6,177,2,3019.25020447,N,12004.26496080,E,0.00,0.35,10.86*58
$GNGGA,085716.00,3019.25782783,N,12004.27486903,E,4,33,0.6,5.1990,M,7.8976,M,1.0,0*5F
$GNRMC,085716.00,D,3019.25782783,N,12004.27486903,E,0.004,101.4,251225,6.1,W,R,S*56
$WTRTK,0.011,0.549,-0.016,0.549,0.96,1.55,-0.35,4,21,5,27,829,--,1,9.3,16.6,177,2,3019.25020447,N,12004.26496077,E,0.00,0.35,10.86*53
$GNGGA,085716.00,3019.25782783,N,12004.27486903,E,4,33,0.6,5.1990,M,7.8976,M,1.0,0*5F
$GNRMC,085716.00,D,3019.25782783,N,12004.27486903,E,0.004,101.4,251225,6.1,W,R,S*56
$WTRTK,0.011,0.549,-0.016,0.549,0.96,1.55,-0.35,4,21,5,27,829,--,1,9.3,16.5,177,2,3019.25020447,N,12004.26496076,E,0.01,0.35,10.86*50
$GNGGA,085716.10,3019.25782781,N,12004.27486915,E,4,33,0.6,5.1987,M,7.8976,M,1.1,0*5C
$GNRMC,085716.10,D,3019.25782781,N,12004.27486915,E,0.003,90.2,251225,6.1,W,R,S*6A
$WTRTK,0.010,0.547,-0.015,0.548,0.96,1.54,-0.36,4,21,5,27,829,--,1,9.3,16.5,177,2,3019.25020446,N,12004.26496073,E,0.00,0.36,10.86*59
$GNGGA,085716.10,3019.25782781,N,12004.27486915,E,4,33,0.6,5.1987,M,7.8976,M,1.1,0*5C
$GNRMC,085716.10,D,3019.25782781,N,12004.27486915,E,0.003,90.2,251225,6.1,W,R,S*6A
$WTRTK,0.010,0.547,-0.015,0.548,0.96,1.54,-0.36,4,21,5,27,829,--,1,9.3,16.7,177,2,3019.25020446,N,12004.26496071,E,0.00,0.36,10.86*59
$GNGGA,085716.20,3019.25782394,N,12004.27487445,E,4,33,0.6,5.2280,M,7.8976,M,1.2,0*5A
$GNRMC,085716.20,D,3019.25782394,N,12004.27487445,E,0.003,106.0,251225,6.1,W,R,S*5C
$WTRTK,0.010,0.547,-0.015,0.548,0.96,1.54,-0.36,4,21,5,27,829,--,1,9.3,16.6,177,2,3019.25020445,N,12004.26496069,E,0.00,0.36,10.86*52
$GNGGA,085716.20,3019.25782394,N,12004.27487445,E,4,33,0.6,5.2280,M,7.8976,M,1.2,0*5A
$GNRMC,085716.20,D,3019.25782394,N,12004.27487445,E,0.003,106.0,251225,6.1,W,R,S*5C
$WTRTK,0.009,0.548,-0.017,0.549,0.96,1.54,-0.37,4,21,5,27,829,--,1,9.3,16.6,177,2,3019.25020445,N,12004.26496069,E,0.00,0.37,10.86*56
$GNGGA,085716.30,3019.25782454,N,12004.27487549,E,4,33,0.6,5.2328,M,7.8976,M,1.3,0*5F
$GNRMC,085716.30,D,3019.25782454,N,12004.27487549,E,0.002,98.0,251225,6.1,W,R,S*6C
$WTRTK,0.007,0.537,-0.026,0.538,0.96,1.54,-0.37,4,21,5,27,0,--,1,9.3,16.5,177,2,3019.25020444,N,12004.26496067,E,0.00,0.37,10.86*5B
$GNGGA,085716.30,3019.25782454,N,12004.27487549,E,4,33,0.6,5.2328,M,7.8976,M,1.3,0*5F
$GNRMC,085716.30,D,3019.25782454,N,12004.27487549,E,0.002,98.0,251225,6.1,W,R,S*6C
$WTRTK,0.007,0.537,-0.026,0.538,0.96,1.54,-0.37,4,21,5,27,0,--,1,9.3,16.4,177,2,3019.25020443,N,12004.26496065,E,0.00,0.37,10.86*5F
$GNGGA,085716.40,3019.25782352,N,12004.27487474,E,4,33,0.6,5.2289,M,7.8976,M,1.4,0*5B
$GNRMC,085716.40,D,3019.25782352,N,12004.27487474,E,0.002,101.6,251225,6.1,W,R,S*52
$WTRTK,0.008,0.543,-0.017,0.543,0.96,1.54,-0.37,4,21,5,27,0,--,1,9.3,16.7,177,2,3019.25020444,N,12004.26496064,E,0.00,0.37,10.86*58
$GNGGA,085716.40,3019.25782352,N,12004.27487474,E,4,33,0.6,5.2289,M,7.8976,M,1.4,0*5B
$GNRMC,085716.40,D,3019.25782352,N,12004.27487474,E,0.002,101.6,251225,6.1,W,R,S*52
$WTRTK,0.008,0.543,-0.017,0.543,0.96,1.54,-0.37,4,21,5,27,0,--,1,9.3,16.5,177,2,3019.25020441,N,12004.26496062,E,0.00,0.37,10.86*59
$GNGGA,085716.50,3019.25782404,N,12004.27487493,E,4,33,0.6,5.2299,M,7.8976,M,1.5,0*57
$GNRMC,085716.50,D,3019.25782404,N,12004.27487493,E,0.002,86.7,251225,6.1,W,R,S*61
$WTRTK,0.007,0.540,-0.017,0.540,0.96,1.54,-0.38,4,21,5,27,0,--,1,9.3,16.5,177,2,3019.25020441,N,12004.26496060,E,0.00,0.38,10.86*54
$GNGGA,085716.50,3019.25782404,N,12004.27487493,E,4,33,0.6,5.2299,M,7.8976,M,1.5,0*57
$GNRMC,085716.50,D,3019.25782404,N,12004.27487493,E,0.002,86.7,251225,6.1,W,R,S*61
$WTRTK,0.007,0.540,-0.017,0.540,0.96,1.54,-0.38,4,21,5,27,87,--,1,9.3,16.6,177,2,3019.25020439,N,12004.26496058,E,0.00,0.38,10.86*6C
$GNGGA,085716.60,3019.25782395,N,12004.27487480,E,4,33,0.6,5.2293,M,7.8976,M,1.6,0*50
$GNRMC,085716.60,D,3019.25782395,N,12004.27487480,E,0.002,115.9,251225,6.1,W,R,S*5A
$WTRTK,0.007,0.541,-0.021,0.541,0.96,1.54,-0.38,4,21,5,27,87,--,1,9.3,16.6,177,2,3019.25020440,N,12004.26496058,E,0.00,0.38,10.86*67
$GNGGA,085716.60,3019.25782395,N,12004.27487480,E,4,33,0.6,5.2293,M,7.8976,M,1.6,0*50
$GNRMC,085716.60,D,3019.25782395,N,12004.27487480,E,0.002,115.9,251225,6.1,W,R,S*5A
$WTRTK,0.007,0.541,-0.021,0.541,0.96,1.54,-0.38,4,21,5,27,87,--,1,9.3,16.6,177,2,3019.25020438,N,12004.26496058,E,0.00,0.38,10.86*68
$GNGGA,085716.70,3019.25782366,N,12004.27487491,E,4,33,0.6,5.2235,M,7.8976,M,1.7,0*50
$GNRMC,085716.70,D,3019.25782366,N,12004.27487491,E,0.001,146.0,251225,6.1,W,R,S*5B
$WTRTK,0.006,0.541,-0.021,0.541,0.96,1.54,-0.38,4,21,5,27,817,--,1,9.3,16.6,177,2,3019.25020438,N,12004.26496058,E,0.00,0.38,10.86*58
$GNGGA,085716.70,3019.25782366,N,12004.27487491,E,4,33,0.6,5.2235,M,7.8976,M,1.7,0*50
$GNRMC,085716.70,D,3019.25782366,N,12004.27487491,E,0.001,146.0,251225,6.1,W,R,S*5B
$WTRTK,0.006,0.541,-0.021,0.541,0.96,1.54,-0.38,4,21,5,27,817,--,1,9.3,16.5,177,2,3019.25020436,N,12004.26496055,E,0.00,0.38,10.86*58
$GNGGA,085716.80,3019.25782442,N,12004.27487486,E,4,33,0.6,5.2262,M,7.8976,M,0.8,0*54
$GNRMC,085716.80,D,3019.25782442,N,12004.27487486,E,0.001,158.0,251225,6.1,W,R,S*5C
$WTRTK,0.008,0.541,-0.016,0.541,0.96,1.54,-0.39,4,21,5,27,817,--,1,9.3,16.6,177,2,3019.25020436,N,12004.26496054,E,0.00,0.39,10.86*50
$GNGGA,085716.80,3019.25782442,N,12004.27487486,E,4,33,0.6,5.2262,M,7.8976,M,0.8,0*54
$GNRMC,085716.80,D,3019.25782442,N,12004.27487486,E,0.001,158.0,251225,6.1,W,R,S*5C
$WTRTK,0.008,0.541,-0.016,0.541,0.96,1.54,-0.39,4,21,5,27,817,--,1,9.3,16.6,177,2,3019.25020435,N,12004.26496051,E,0.00,0.39,10.86*56
$GNGGA,085716.90,3019.25782338,N,12004.27487483,E,4,33,0.6,5.2259,M,7.8976,M,0.9,0*53
$GNRMC,085716.90,D,3019.25782338,N,12004.27487483,E,0.001,109.6,251225,6.1,W,R,S*50
$WTRTK,0.009,0.543,-0.019,0.544,0.96,1.54,-0.39,4,21,5,27,817,--,1,9.3,16.5,177,2,3019.25020435,N,12004.26496049,E,0.00,0.39,10.86*55
$GNGGA,085716.90,3019.25782338,N,12004.27487483,E,4,33,0.6,5.2259,M,7.8976,M,0.9,0*53
$GNRMC,085716.90,D,3019.25782338,N,12004.27487483,E,0.001,109.6,251225,6.1,W,R,S*50
$WTRTK,0.009,0.543,-0.019,0.544,0.96,1.54,-0.40,4,21,5,27,817,--,1,9.3,16.5,177,2,3019.25020434,N,12004.26496049,E,0.00,0.40,10.86*54
$GNGGA,085717.00,3019.25782357,N,12004.27487488,E,4,33,0.6,5.2265,M,7.8976,M,1.0,0*5E
$GNRMC,085717.00,D,3019.25782357,N,12004.27487488,E,0.002,108.4,251225,6.1,W,R,S*5A
$WTRTK,0.009,0.543,-0.019,0.544,0.96,1.54,-0.40,4,21$GNGGA,090217.50,3019.25828554,N,12004.27544813,E,4,34,0.6,5.0125,M,7.8976,M,1.5,0*57
$GNRMC,090217.50,D,3019.25828554,N,12004.27544813,E,0.005,182.8,251225,6.1,W,R,S*5D
$WTRTK,0.549,-0.015,-0.045,0.551,1.47,8.38,-90.77,4,21,5,31,0,--,1,9.3,16.0,178,2,3019.25134503,N,12004.26414443,E,0.24,90.77,11.34*75
$GNGGA,090217.60,3019.25828597,N,12004.27544866,E,4,34,0.6,5.0158,M,7.8976,M,1.6,0*50
$GNRMC,090217.60,D,3019.25828597,N,12004.27544866,E,0.004,183.7,251225,6.1,W,R,S*5C
$WTRTK,0.549,-0.015,-0.045,0.551,1.47,8.39,-90.77,4,21,5,31,87,--,1,9.3,16.0,178,2,3019.25134554,N,12004.26414240,E,0.25,90.77,11.34*4D
$GNGGA,090217.60,3019.25828597,N,12004.27544866,E,4,34,0.6,5.0158,M,7.8976,M,1.6,0*50
$GNRMC,090217.60,D,3019.25828597,N,12004.27544866,E,0.004,183.7,251225,6.1,W,R,S*5C
$WTRTK,0.550,-0.015,-0.038,0.552,1.47,8.39,-90.77,4,21,5,31,834,--,1,9.4,15.9,178,2,3019.25134606,N,12004.26414029,E,0.25,90.77,11.34*78
$GNGGA,090217.70,3019.25828528,N,12004.27544819,E,4,34,0.6,5.0171,M,7.8976,M,1.7,0*57
$GNRMC,090217.70,D,3019.25828528,N,12004.27544819,E,0.003,178.1,251225,6.1,W,R,S*54
$WTRTK,0.550,-0.015,-0.038,0.552,1.47,8.39,-90.77,4,21,5,31,834,--,1,9.4,16.0,178,2,3019.25134660,N,12004.26413822,E,0.26,90.77,11.34*75
$GNGGA,090217.70,3019.25828528,N,12004.27544819,E,4,34,0.6,5.0171,M,7.8976,M,1.7,0*57
$GNRMC,090217.70,D,3019.25828528,N,12004.27544819,E,0.003,178.1,251225,6.1,W,R,S*54
$WTRTK,0.549,-0.016,-0.050,0.552,1.47,8.39,-90.77,4,21,5,31,834,--,1,9.4,16.2,178,2,3019.25134711,N,12004.26413604,E,0.26,90.77,11.34*7F
$GNGGA,090217.80,3019.25828570,N,12004.27544805,E,4,34,0.6,5.0144,M,7.8976,M,0.8,0*50
$GNRMC,090217.80,D,3019.25828570,N,12004.27544805,E,0.002,163.6,251225,6.1,W,R,S*57
$WTRTK,0.549,-0.016,-0.050,0.552,1.47,8.39,-90.77,4,21,5,31,834,--,1,9.3,16.0,178,2,3019.25134761,N,12004.26413387,E,0.27,90.77,11.34*72
$GNGGA,090217.80,3019.25828570,N,12004.27544805,E,4,34,0.6,5.0144,M,7.8976,M,0.8,0*50
$GNRMC,090217.80,D,3019.25828570,N,12004.27544805,E,0.002,163.6,251225,6.1,W,R,S*57
$WTRTK,0.549,-0.017,-0.046,0.552,1.47,8.39,-90.77,4,21,5,31,834,--,1,9.3,16.0,178,2,3019.25134813,N,12004.26413164,E,0.27,90.77,11.34*71
$GNGGA,090217.90,3019.25828668,N,12004.27544885,E,4,34,0.6,5.0162,M,7.8976,M,0.9,0*56
$GNRMC,090217.90,D,3019.25828668,N,12004.27544885,E,0.003,233.6,251225,6.1,W,R,S*53
$WTRTK,0.549,-0.017,-0.046,0.552,1.47,8.39,-90.78,4,21,5,31,834,--,1,9.3,16.0,178,2,3019.25134867,N,12004.26412941,E,0.28,90.78,11.34*73
$GNGGA,090217.90,3019.25828668,N,12004.27544885,E,4,34,0.6,5.0162,M,7.8976,M,0.9,0*56
$GNRMC,090217.90,D,3019.25828668,N,12004.27544885,E,0.003,233.6,251225,6.1,W,R,S*53
$WTRTK,0.549,-0.017,-0.047,0.552,1.46,8.40,-90.78,4,21,5,31,834,--,1,9.3,16.0,178,2,3019.25134917,N,12004.26412719,E,0.28,90.78,11.34*78
$GNGGA,090217.90,3019.25828668,N,12004.27544885,E,4,34,0.6,5.0162,M,7.8976,M,0.9,0*56
$GNRMC,090217.90,D,3019.25828668,N,12004.27544885,E,0.003,233.6,251225,6.1,W,R,S*53
$WTRTK,0.549,-0.017,-0.047,0.552,1.46,8.40,-90.78,4,21,5,31,834,--,1,9.3,15.8,178,2,3019.25134967,N,12004.26412483,E,0.29,90.78,11.34*75
$GNGGA,090218.00,3019.25828713,N,12004.27544920,E,4,34,0.6,5.0166,M,7.8976,M,1.0,0*5F
$GNRMC,090218.00,D,3019.25828713,N,12004.27544920,E,0.003,294.3,251225,6.1,W,R,S*5E
$WTRTK,0.547,-0.017,-0.047,0.550,1.46,8.40,-90.78,4,21,5,31,834,--,1,9.3,16.0,178,2,3019.25135016,N,12004.26412257,E,0.29,90.78,11.34*73
$GNGGA,090218.10,3019.25828652,N,12004.27544839,E,4,34,0.6,5.0216,M,7.8976,M,1.1,0*56
$GNRMC,090218.10,D,3019.25828652,N,12004.27544839,E,0.006,297.7,251225,6.1,W,R,S*50
$WTRTK,0.547,-0.017,-0.047,0.550,1.36,8.42,-90.79,4,21,5,31,834,--,1,9.3,16.1,178,2,3019.25134879,N,12004.26412943,E,0.08,90.79,11.35*7B
$GNGGA,090218.10,3019.25828652,N,12004.27544839,E,4,34,0.6,5.0216,M,7.8976,M,1.1,0*56
$GNRMC,090218.10,D,3019.25828652,N,12004.27544839,E,0.006,297.7,251225,6.1,W,R,S*50
$WTRTK,0.546,-0.021,-0.054,0.549,1.35,8.42,-90.79,4,21,5,31,834,--,1,9.3,16.0,178,2,3019.25134881,N,12004.26412958,E,0.07,90.79,11.35*75
$GNGGA,090218.20,3019.25828544,N,12004.27544496,E,4,34,0.6,5.0093,M,7.8976,M,1.2,0*54
$GNRMC,090218.20,D,3019.25828544,N,12004.27544496,E,0.002,282.4,251225,6.1,W,R,S*5D
$WTRTK,0.546,-0.021,-0.054,0.549,1.33,8.42,-90.79,4,21,5,31,834,--,1,9.3,16.1,178,2,3019.25134869,N,12004.26413063,E,0.04,90.79,11.36*74
$GNGGA,090218.20,3019.25828544,N,12004.27544496,E,4,34,0.6,5.0093,M,7.8976,M,1.2,0*54
$GNRMC,090218.20,D,3019.25828544,N,12004.27544496,E,0.002,282.4,251225,6.1,W,R,S*5D
$WTRTK,0.552,-0.013,-0.048,0.554,1.32,8.43,-90.80,4,21,5,31,834,--,1,9.3,15.9,178,2,3019.25134875,N,12004.26413058,E,0.03,90.80,11.36*78
$GNGGA,090218.30,3019.25828613,N,12004.27544716,E,4,33,0.6,5.0181,M,7.8976,M,1.3,0*5B
$GNRMC,090218.30,D,3019.25828613,N,12004.27544716,E,0.003,217.7,251225,6.1,W,R,S*58
$WTRTK,0.552,-0.013,-0.048,0.554,1.32,8.43,-90.80,4,21,5,31,834,--,1,9.3,16.0,178,2,3019.25134882,N,12004.26413081,E,0.03,90.80,11.36*7E
$GNGGA,090218.30,3019.25828613,N,12004.27544716,E,4,33,0.6,5.0181,M,7.8976,M,1.3,0*5B
$GNRMC,090218.30,D,3019.25828613,N,12004.27544716,E,0.003,217.7,251225,6.1,W,R,S*58
$WTRTK,0.545,-0.014,-0.053,0.548,1.31,8.43,-90.80,4,21,5,31,0,--,1,9.3,16.0,178,2,3019.25134884,N,12004.26413075,E,0.02,90.80,11.36*78
$GNGGA,090218.40,3019.25828536,N,12004.27544586,E,4,33,0.6,5.0137,M,7.8976,M,1.4,0*59
$GNRMC,090218.40,D,3019.25828536,N,12004.27544586,E,0.005,160.5,251225,6.1,W,R,S*57
$WTRTK,0.545,-0.014,-0.053,0.548,1.31,8.43,-90.80,4,21,5,31,756,--,1,9.3,16.0,178,2,3019.25134887,N,12004.26413086,E,0.02,90.80,11.36*73
$GNGGA,090218.40,3019.25828536,N,12004.27544586,E,4,33,0.6,5.0137,M,7.8976,M,1.4,0*59
$GNRMC,090218.40,D,3019.25828536,N,12004.27544586,E,0.005,160.5,251225,6.1,W,R,S*57
$WTRTK,0.540,-0.013,-0.060,0.544,1.31,8.43,-90.80,4,21,5,31,756,--,1,9.3,16.0,178,2,3019.25134888,N,12004.26413074,E,0.02,90.80,11.36*7F
$GNGGA,090218.50,3019.25828528,N,12004.27544944,E,4,33,0.6,5.0224,M,7.8976,M,0.5,0*54
$GNRMC,090218.50,D,3019.25828528,N,12004.27544944,E,0.014,127.8,251225,6.1,W,R,S*55
$WTRTK,0.540,-0.013,-0.060,0.544,1.30,8.43,-90.80,4,21,5,31,756,--,1,9.3,16.0,178,2,3019.25134893,N,12004.26413076,E,0.02,90.80,11.36*76
$GNGGA,090218.50,3019.25828528,N,12004.27544944,E,4,33,0.6,5.0224,M,7.8976,M,0.5,0*54
$GNRMC,090218.50,D,3019.25828528,N,12004.27544944,E,0.014,127.8,251225,6.1,W,R,S*55
$WTRTK,0.541,-0.018,-0.057,0.544,1.30,8.43,-90.80,4,21,5,31,756,--,1,9.3,16.0,178,2,3019.25134893,N,12004.26413071,E,0.02,90.80,11.36*7F
$GNGGA,090218.60,3019.25828551,N,12004.27544610,E,4,33,0.6,5.0033,M,7.8976,M,0.6,0*50
$GNRMC,090218.60,D,3019.25828551,N,12004.27544610,E,0.001,117.8,251225,6.1,W,R,S*51
$WTRTK,0.541,-0.018,-0.057,0.544,1.30,8.44,-90.80,4,21,5,31,843,--,1,9.3,16.0,178,2,3019.25134895,N,12004.26413073,E,0.01,90.80,11.36*74
$GNGGA,090218.60,3019.25828551,N,12004.27544610,E,4,33,0.6,5.0033,M,7.8976,M,0.6,0*50
$GNRMC,090218.60,D,3019.25828551,N,12004.27544610,E,0.001,117.8,251225,6.1,W,R,S*51
$WTRTK,0.547,-0.016,-0.040,0.549,1.29,8.44,-90.80,4,21,5,31,843,--,1,9.3,15.9,178,2,3019.25134894,N,12004.26413068,E,0.01,90.80,11.36*7E
$GNGGA,090218.70,3019.25828495,N,12004.27544590,E,4,33,0.6,5.0047,M,7.8976,M,0.7,0*51
$GNRMC,090218.70,D,3019.25828495,N,12004.27544590,E,0.012,307.1,251225,6.1,W,R,S*5A
$WTRTK,0.547,-0.016,-0.040,0.549,1.29,8.44,-90.80,4,21,5,31,843,--,1,9.3,16.0,178,2,3019.25134898,N,12004.26413068,E,0.01,90.80,11.36*78
$GNGGA,090218.70,3019.25828495,N,12004.27544590,E,4,33,0.6,5.0047,M,7.8976,M,0.7,0*51
$GNRMC,090218.70,D,3019.25828495,N,12004.27544590,E,0.012,307.1,251225,6.1,W,R,S*5A
$WTRTK,0.548,-0.016,-0.047,0.550,1.29,8.44,-90.80,4,21,5,31,843,--,1,9.3,15.9,178,2,3019.25134895,N,12004.26413062,E,0.01,90.80,11.36*75
$GNGGA,090218.80,3019.25828455,N,12004.27544638,E,4,33,0.6,5.0055,M,7.8976,M,0.8,0*5F
$GNRMC,090218.80,D,3019.25828455,N,12004.27544638,E,0.010,318.4,251225,6.1,W,R,S*51
$WTRTK,0.548,-0.016,-0.047,0.550,1.29,8.44,-90.80,4,21,5,31,843,--,1,9.3,15.9,178,2,3019.25134894,N,12004.26413058,E,0.01,90.80,11.36*7D
$GNGGA,090218.80,3019.25828455,N,12004.27544638,E,4,33,0.6,5.0055,M,7.8976,M,0.8,0*5F
$GNRMC,090218.80,D,3019.25828455,N,12004.27544638,E,0.010,318.4,251225,6.1,W,R,S*51
$WTRTK,0.548,-0.015,-0.045,0.550,1.29,8.44,-90.80,4,21,5,31,843,--,1,9.3,15.9,178,2,3019.25134891,N,12004.26413054,E,0.01,90.80,11.36*75
$GNGGA,090218.90,3019.25828480,N,12004.27544564,E,4,33,0.6,5.0123,M,7.8976,M,0.9,0*5D
$GNRMC,090218.90,D,3019.25828480,N,12004.27544564,E,0.007,342.2,251225,6.1,W,R,S*5D
$WTRTK,0.548,-0.015,-0.045,0.550,1.28,8.44,-90.80,4,21,5,31,843,--,1,9.3,16.0,178,2,3019.25134892,N,12004.26413051,E,0.01,90.80,11.36*78
$GNGGA,090218.90,3019.25828480,N,12004.27544564,E,4,33,0.6,5.0123,M,7.8976,M,0.9,0*5D
$GNRMC,090218.90,D,3019.25828480,N,12004.27544564,E,0.007,342.2,251225,6.1,W,R,S*5D
$WTRTK,0.547,-0.016,-0.054,0.550,1.28,8.44,-90.80,4,21,5,31,843,--,1,9.3,16.0,178,2,3019.25134887,N,12004.26413049,E,0.01,90.80,11.36*79
$GNGGA,090218.90,3019.25828480,N,12004.27544564,E,4,33,0.6,5.0123,M,7.8976,M,0.9,0*5D
$GNRMC,090218.90,D,3019.25828480,N,12004.27544564,E,0.007,342.2,251225,6.1,W,R,S*5D
$WTRTK,0.547,-0.016,-0.054,0.550,1.27,8.44,-90.80,4,21,5,31,843,--,1,9.3,15.9,178,2,3019.25134884,N,12004.26413052,E,0.01,90.80,11.37*74
$GNGGA,090219.00,3019.25828436,N,12004.27544710,E,4,33,0.6,5.0062,M,7.8976,M,1.0,0*55
$GNRMC,090219.00,D,3019.25828436,N,12004.27544710,E,0.003,67.0,251225,6.1,W,R,S*6B
$WTRTK,0.542,-0.016,-0.045,0.544,1.27,8.44,-90.80,4,21,5,31,843,--,1,9.3,16.0,178,2,3019.25134879,N,12004.26413055,E,0.01,90.80,11.37*7B
$GNGGA,090219.10,3019.25828480,N,12004.27544704,E,4,34,0.6,5.0073,M,7.8976,M,1.1,0*5A
$GNRMC,090219.10,D,3019.25828480,N,12004.27544704,E,0.005,62.7,251225,6.1,W,R,S*66
$WTRTK,0.542,-0.016,-0.045,0.544,1.27,8.44,-90.81,4,21,5,31,843,--,1,9.3,16.0,178,2,3019.25134878,N,12004.26413060,E,0.01,90.81,11.37*7C
$GNGGA,090219.10,3019.25828480,N,12004.27544704,E,4,34,0.6,5.0073,M,7.8976,M,1.1,0*5A
$GNRMC,090219.10,D,3019.25828480,N,12004.27544704,E,0.005,62.7,251225,6.1,W,R,S*66
$WTRTK,0.544,-0.014,-0.046,0.547,1.27,8.44,-90.81,4,21,5,31,843,--,1,9.3,16.1,178,2,3019.25134872,N,12004.26413063,E,0.01,90.81,11.37*70
$GNGGA,090219.20,3019.25828643,N,12004.27544764,E,4,34,0.6,5.0116,M,7.8976,M,1.2,0*53
$GNRMC,090219.20,D,3019.25828643,N,12004.27544764,E,0.005,38.4,251225,6.1,W,R,S*62
$WTRTK,0.544,-0.014,-0.046,0.547,1.27,8.44,-90.81,4,21,5,31,843,--,1,9.3,15.9,178,2,3019.25134869,N,12004.26413066,E,0.01,90.81,11.37*74
$GNGGA,090219.20,3019.25828643,N,12004.27544764,E,4,34,0.6,5.0116,M,7.8976,M,1.2,0*53
$GNRMC,090219.20,D,3019.25828643,N,12004.27544764,E,0.005,38.4,251225,6.1,W,R,S*62
$WTRTK,0.545,-0.014,-0.050,0.547,1.27,8.45,-90.81,4,21,5,31,843,--,1,9.3,16.0,178,2,3019.25134862,N,12004.26413068,E,0.01,90.81,11.37*7C
$GNGGA,090219.30,3019.25828704,N,12004.27544813,E,4,34,0.6,5.0166,M,7.8976,M,1.3,0*59
$GNRMC,090219.30,D,3019.25828704,N,12004.27544813,E,0.006,23.6,251225,6.1,W,R,S*65
$WTRTK,0.545,-0.014,-0.050,0.547,1.27,8.45,-90.81,4,21,5,31,843,--,1,9.3,15.9,178,2,3019.25134860,N,12004.26413072,E,0.01,90.81,11.37*7F
$GNGGA,090219.30,3019.25828704,N,12004.27544813,E,4,34,0.6,5.0166,M,7.8976,M,1.3,0*59
$GNRMC,090219.30,D,3019.25828704,N,12004.27544813,E,0.006,23.6,251225,6.1,W,R,S*65
$WTRTK,0.546,-0.016,-0.053,0.549,1.26,8.45,-90.81,4,21,5,31,0,--,1,9.3,16.1,178,2,3019.25134853,N,12004.26413074,E,0.02,90.81,11.37*73
$GNGGA,090219.40,3019.25828611,N,12004.27544738,E,4,34,0.6,5.0136,M,7.8976,M,1.4,0*5F
$GNRMC,090219.40,D,3019.25828611,N,12004.27544738,E,0.004,358.4,251225,6.1,W,R,S*5E
$WTRTK,0.546,-0.016,-0.053,0.549,1.26,8.45,-90.81,4,21,5,31,0,--,1,9.3,16.0,178,2,3019.25134850,N,12004.26413076,E,0.01,90.81,11.37*70
$GNGGA,090219.40,3019.25828611,N,12004.27544738,E,4,34,0.6,5.0136,M,7.8976,M,1.4,0*5F
$GNRMC,090219.40,D,3019.25828611,N,12004.27544738,E,0.004,358.4,251225,6.1,W,R,S*5E
$WTRTK,0.549,-0.013,-0.050,0.552,1.26,8.45,-90.81,4,21,5,31,0,--,1,9.3,16.0,178,2,3019.25134844,N,12004.26413078,E,0.01,90.81,11.37*78
$GNGGA,090219.50,3019.25828611,N,12004.27544800,E,4,34,0.6,5.0155,M,7.8976,M,1.5,0*5E
$GNRMC,090219.50,D,3019.25828611,N,12004.27544800,E,0.002,19.9,251225,6.1,W,R,S*66
$WTRTK,0.549,-0.013,-0.050,0.552,1.26,8.45,-90.81,4,21,5,31,0,--,1,9.3,15.9,178,2,3019.25134843,N,12004.26413083,E,0.01,90.81,11.37*71
$GNGGA,090219.50,3019.25828611,N,12004.27544800,E,4,34,0.6,5.0155,M,7.8976,M,1.5,0*5E
$GNRMC,090219.50,D,3019.25828611,N,12004.27544800,E,0.002,19.9,251225,6.1,W,R,S*66
$WTRTK,0.546,-0.014,-0.053,0.549,1.26,8.45,-90.81,4,21,5,31,0,--,1,9.3,15.9,178,2,3019.25134836,N,12004.26413085,E,0.01,90.81,11.37*74
$GNGGA,090219.60,3019.25828662,N,12004.27544825,E,4,34,0.6,5.0160,M,7.8976,M,1.6,0*5B
$GNRMC,090219.60,D,3019.25828662,N,12004.27544825,E,0.001,114.8,251225,6.1,W,R,S*58
$WTRTK,0.546,-0.014,-0.053,0.549,1.26,8.45,-90.81,4,21,5,31,87,--,1,9.3,16.0,178,2,3019.25134835,N,12004.26413087,E,0.01,90.81,11.37*40
$GNGGA,090219.60,3019.25828662,N,12004.27544825,E,4,34,0.6,5.0160,M,7.8976,M,1.6,0*5B
$GNRMC,090219.60,D,3019.25828662,N,12004.27544825,E,0.001,114.8,251225,6.1,W,R,S*58
$WTRTK,0.547,-0.015,-0.051,0.549,1.25,8.45,-90.81,4,21,5,31,87,--,1,9.3,16.0,178,2,3019.25134828,N,12004.26413088,E,0.02,90.81,11.37*41
$GNGGA,090219.70,3019.25828612,N,12004.27544832,E,4,34,0.6,5.0121,M,7.8976,M,1.7,0*5F
$GNRMC,090219.70,D,3019.25828612,N,12004.27544832,E,0.002,116.1,251225,6.1,W,R,S*50
$WTRTK,0.547,-0.015,-0.051,0.549,1.25,8.45,-90.81,4,21,5,31,87,--,1,9.3,16.0,178,2,3019.25134829,N,12004.26413090,E,0.02,90.81,11.37*49
$GNGGA,090219.70,3019.25828612,N,12004.27544832,E,4,34,0.6,5.0121,M,7.8976,M,1.7,0*5F
$GNRMC,090219.70,D,3019.25828612,N,12004.27544832,E,0.002,116.1,251225,6.1,W,R,S*50
$WTRTK,0.545,-0.013,-0.045,0.547,1.25,8.45,-90.81,4,21,5,31,843,--,1,9.3,16.2,178,2,3019.25134822,N,12004.26413092,E,0.02,90.81,11.37*7D
$GNGGA,090219.80,3019.25828600,N,12004.27544764,E,4,34,0.6,5.0117,M,7.8976,M,1.8,0*55
$GNRMC,090219.80,D,3019.25828600,N,12004.27544764,E,0.002,106.2,251225,6.1,W,R,S*52
$WTRTK,0.545,-0.013,-0.045,0.547,1.25,8.45,-90.81,4,21,5,31,843,--,1,9.3,16.0,178,2,3019.25134823,N,12004.26413091,E,0.02,90.81,11.37*7D
$GNGGA,090219.80,3019.25828600,N,12004.27544764,E,4,34,0.6,5.0117,M,7.8976,M,1.8,0*55
$GNRMC,090219.80,D,3019.25828600,N,12004.27544764,E,0.002,106.2,251225,6.1,W,R,S*52
$WTRTK,0.547,-0.012,-0.046,0.550,1.25,8.45,-90.81,4,21,5,31,843,--,1,9.3,16.0,178,2,3019.25134816,N,12004.26413092,E,0.02,90.81,11.37*7E
$GNGGA,090219.90,3019.25828652,N,12004.27544728,E,4,34,0.6,5.0162,M,7.8976,M,0.9,0*59
$GNRMC,090219.90,D,3019.25828652,N,12004.27544728,E,0.002,105.4,251225,6.1,W,R,S*59
$WTRTK,0.547,-0.012,-0.046,0.550,1.25,8.45,-90.81,4,21,5,31,843,--,1,9.3,16.0,178,2,3019.25134816,N,12004.26413093,E,0.02,90.81,11.37*7F

