$GNGGA,074322.20,3019.28961360,N,12004.26491133,E,4,44,0.4,5.1403,M,7.8966,M,1.2,0*5D
$GNRMC,074322.20,D,3019.28961360,N,12004.26491133,E,0.004,132.9,101125,6.1,W,R,S*5A
$WTRTK,0.514,0.217,0.006,0.558,-7.92,2.57,-67.75,4,21,5,31,0,--,1,9.3,23.5,191,2,3019.28523522,N,12004.26137051,E,0.01,67.75,3.31*69
$GNGGA,074322.20,3019.28961360,N,12004.26491133,E,4,44,0.4,5.1403,M,7.8966,M,1.2,0*5D
$GNRMC,074322.20,D,3019.28961360,N,12004.26491133,E,0.004,132.9,101125,6.1,W,R,S*5A
$WTRTK,0.515,0.218,0.005,0.559,-7.92,2.57,-67.74,4,21,5,31,0,--,1,9.3,23.4,191,2,3019.28523523,N,12004.26137056,E,0.01,67.74,3.31*62
$GNGGA,074322.30,3019.28961358,N,12004.26491171,E,4,44,0.4,5.1402,M,7.8966,M,1.3,0*51
$GNRMC,074322.30,D,3019.28961358,N,12004.26491171,E,0.003,142.7,101125,6.1,W,R,S*58
$WTRTK,0.515,0.218,0.005,0.559,-7.92,2.57,-67.74,4,21,5,31,0,--,1,9.3,23.4,191,2,3019.28523520,N,12004.26137050,E,0.01,67.74,3.31*67
$GNGGA,074322.30,3019.28961358,N,12004.26491171,E,4,44,0.4,5.1402,M,7.8966,M,1.3,0*51
$GNRMC,074322.30,D,3019.28961358,N,12004.26491171,E,0.003,142.7,101125,6.1,W,R,S*58
$WTRTK,0.514,0.217,0.007,0.558,-7.92,2.57,-67.74,4,21,5,31,0,--,1,9.3,23.2,191,2,3019.28523520,N,12004.26137053,E,0.01,67.74,3.31*6F
$GNGGA,074322.40,3019.28961441,N,12004.26491197,E,4,44,0.4,5.1396,M,7.8966,M,1.4,0*5C
$GNRMC,074322.40,D,3019.28961441,N,12004.26491197,E,0.003,149.7,101125,6.1,W,R,S*53
$WTRTK,0.514,0.217,0.007,0.558,-7.92,2.57,-67.74,4,21,5,31,0,--,1,9.3,23.3,191,2,3019.28523517,N,12004.26137048,E,0.01,67.74,3.31*60
$GNGGA,074322.40,3019.28961441,N,12004.26491197,E,4,44,0.4,5.1396,M,7.8966,M,1.4,0*5C
$GNRMC,074322.40,D,3019.28961441,N,12004.26491197,E,0.003,149.7,101125,6.1,W,R,S*53
$WTRTK,0.516,0.216,0.006,0.560,-7.92,2.57,-67.74,4,21,5,31,87,--,1,9.3,23.4,191,2,3019.28523519,N,12004.26137054,E,0.01,67.74,3.31*52
$GNGGA,074322.50,3019.28961379,N,12004.26491203,E,4,44,0.4,5.1405,M,7.8966,M,1.5,0*53
$GNRMC,074322.50,D,3019.28961379,N,12004.26491203,E,0.002,139.5,101125,6.1,W,R,S*54
$WTRTK,0.516,0.216,0.006,0.560,-7.92,2.57,-67.74,4,21,5,31,87,--,1,9.3,23.3,191,2,3019.28523515,N,12004.26137048,E,0.01,67.74,3.31*54
$GNGGA,074322.50,3019.28961379,N,12004.26491203,E,4,44,0.4,5.1405,M,7.8966,M,1.5,0*53
$GNRMC,074322.50,D,3019.28961379,N,12004.26491203,E,0.002,139.5,101125,6.1,W,R,S*54
$WTRTK,0.513,0.219,0.008,0.558,-7.92,2.57,-67.74,4,21,5,31,87,--,1,9.3,23.4,191,2,3019.28523516,N,12004.26137051,E,0.01,67.74,3.31*57
$GNGGA,074322.60,3019.28961362,N,12004.26491194,E,4,44,0.4,5.1384,M,7.8966,M,1.6,0*5A
$GNRMC,074322.60,D,3019.28961362,N,12004.26491194,E,0.003,151.7,101125,6.1,W,R,S*5D
$WTRTK,0.513,0.219,0.008,0.558,-7.92,2.57,-67.74,4,21,5,31,87,--,1,9.3,23.4,191,2,3019.28523513,N,12004.26137045,E,0.01,67.74,3.31*57
$GNGGA,074322.60,3019.28961362,N,12004.26491194,E,4,44,0.4,5.1384,M,7.8966,M,1.6,0*5A
$GNRMC,074322.60,D,3019.28961362,N,12004.26491194,E,0.003,151.7,101125,6.1,W,R,S*5D
$WTRTK,0.513,0.217,0.010,0.558,-7.92,2.57,-67.73,4,21,5,31,87,--,1,9.3,23.3,191,2,3019.28523514,N,12004.26137051,E,0.01,67.73,3.31*55
$GNGGA,074322.70,3019.28961376,N,12004.26491247,E,4,44,0.4,5.1390,M,7.8966,M,1.7,0*57
$GNRMC,074322.70,D,3019.28961376,N,12004.26491247,E,0.003,155.9,101125,6.1,W,R,S*5E
$WTRTK,0.513,0.217,0.010,0.558,-7.92,2.57,-67.73,4,21,5,31,874,--,1,9.3,23.3,191,2,3019.28523510,N,12004.26137044,E,0.01,67.73,3.31*61
$GNGGA,074322.70,3019.28961376,N,12004.26491247,E,4,44,0.4,5.1390,M,7.8966,M,1.7,0*57
$GNRMC,074322.70,D,3019.28961376,N,12004.26491247,E,0.003,155.9,101125,6.1,W,R,S*5E
$WTRTK,0.514,0.217,0.006,0.559,-7.92,2.57,-67.73,4,21,5,31,874,--,1,9.3,23.4,191,2,3019.28523511,N,12004.26137047,E,0.01,67.73,3.31*65
$GNGGA,074322.80,3019.28961319,N,12004.26491208,E,4,44,0.4,5.1405,M,7.8966,M,0.8,0*5F
$GNRMC,074322.80,D,3019.28961319,N,12004.26491208,E,0.003,158.2,101125,6.1,W,R,S*55
$WTRTK,0.514,0.217,0.006,0.559,-7.92,2.57,-67.73,4,21,5,31,874,--,1,9.3,23.5,191,2,3019.28523508,N,12004.26137040,E,0.01,67.73,3.31*6B
$GNGGA,074322.80,3019.28961319,N,12004.26491208,E,4,44,0.4,5.1405,M,7.8966,M,0.8,0*5F
$GNRMC,074322.80,D,3019.28961319,N,12004.26491208,E,0.003,158.2,101125,6.1,W,R,S*55
$WTRTK,0.515,0.218,0.007,0.559,-7.92,2.57,-67.73,4,21,5,31,874,--,1,9.3,23.4,191,2,3019.28523510,N,12004.26137047,E,0.01,67.73,3.31*6B
$GNGGA,074322.90,3019.28961334,N,12004.26491213,E,4,44,0.4,5.1417,M,7.8966,M,0.9,0*59
$GNRMC,074322.90,D,3019.28961334,N,12004.26491213,E,0.003,157.0,101125,6.1,W,R,S*5C
$WTRTK,0.515,0.218,0.007,0.559,-7.92,2.57,-67.73,4,21,5,31,874,--,1,9.3,23.3,191,2,3019.28523506,N,12004.26137039,E,0.01,67.73,3.31*62
$GNGGA,074322.90,3019.28961334,N,12004.26491213,E,4,44,0.4,5.1417,M,7.8966,M,0.9,0*59
$GNRMC,074322.90,D,3019.28961334,N,12004.26491213,E,0.003,157.0,101125,6.1,W,R,S*5C
$WTRTK,0.514,0.217,0.008,0.559,-7.92,2.57,-67.73,4,21,5,31,874,--,1,9.3,23.3,191,2,3019.28523507,N,12004.26137042,E,0.01,67.73,3.31*6E
$GNGGA,074322.90,3019.28961334,N,12004.26491213,E,4,44,0.4,5.1417,M,7.8966,M,0.9,0*59
$GNRMC,074322.90,D,3019.28961334,N,12004.26491213,E,0.003,157.0,101125,6.1,W,R,S*5C
$WTRTK,0.514,0.217,0.008,0.559,-7.92,2.57,-67.72,4,21,5,31,0,--,1,9.3,23.4,191,2,3019.28523504,N,12004.26137035,E,0.01,67.72,3.31*61
$GNGGA,074323.00,3019.28961371,N,12004.26491211,E,4,44,0.4,5.1410,M,7.8966,M,1.0,0*5D
$GNRMC,074323.00,D,3019.28961371,N,12004.26491211,E,0.004,155.3,101125,6.1,W,R,S*51
$WTRTK,0.514,0.219,0.006,0.559,-7.92,2.57,-67.72,4,21,5,31,0,--,1,9.3,23.4,191,2,3019.28523504,N,12004.26137038,E,0.01,67.72,3.31*6C
$GNGGA,074323.10,3019.28961430,N,12004.26491220,E,4,44,0.4,5.1452,M,7.8966,M,1.1,0*5B
$GNRMC,074323.10,D,3019.28961430,N,12004.26491220,E,0.004,147.8,101125,6.1,W,R,S*58
$WTRTK,0.514,0.219,0.006,0.559,-7.92,2.57,-67.71,4,21,5,31,0,--,1,9.3,23.3,191,2,3019.28523502,N,12004.26137034,E,0.01,67.71,3.31*61
$GNGGA,074323.10,3019.28961430,N,12004.26491220,E,4,44,0.4,5.1452,M,7.8966,M,1.1,0*5B
$GNRMC,074323.10,D,3019.28961430,N,12004.26491220,E,0.004,147.8,101125,6.1,W,R,S*58
$WTRTK,0.513,0.218,0.000,0.558,-7.92,2.57,-67.71,4,21,5,31,0,--,1,9.3,23.4,191,2,3019.28523503,N,12004.26137036,E,0.01,67.71,3.31*64
$GNGGA,074323.20,3019.28961458,N,12004.26491187,E,4,44,0.4,5.1450,M,7.8966,M,1.2,0*59
$GNRMC,074323.20,D,3019.28961458,N,12004.26491187,E,0.003,129.6,101125,6.1,W,R,S*5A
$WTRTK,0.513,0.218,0.000,0.558,-7.92,2.57,-67.71,4,21,5,31,0,--,1,9.3,23.3,191,2,3019.28523499,N,12004.26137028,E,0.01,67.71,3.31*6E
$GNGGA,074323.20,3019.28961458,N,12004.26491187,E,4,44,0.4,5.1450,M,7.8966,M,1.2,0*59
$GNRMC,074323.20,D,3019.28961458,N,12004.26491187,E,0.003,129.6,101125,6.1,W,R,S*5A
$WTRTK,0.514,0.216,0.007,0.558,-7.92,2.57,-67.71,4,21,5,31,0,--,1,9.3,23.2,191,2,3019.28523500,N,12004.26137035,E,0.01,67.71,3.31*6C
$GNGGA,074323.30,3019.28961447,N,12004.26491129,E,4,44,0.4,5.1462,M,7.8966,M,1.3,0*52
$GNRMC,074323.30,D,3019.28961447,N,12004.26491129,E,0.003,130.8,101125,6.1,W,R,S*57
$WTRTK,0.514,0.216,0.007,0.558,-7.92,2.57,-67.71,4,21,5,31,0,--,1,9.3,23.2,191,2,3019.28523497,N,12004.26137026,E,0.01,67.71,3.31*61
$GNGGA,074323.30,3019.28961447,N,12004.26491129,E,4,44,0.4,5.1462,M,7.8966,M,1.3,0*52
$GNRMC,074323.30,D,3019.28961447,N,12004.26491129,E,0.003,130.8,101125,6.1,W,R,S*57
$WTRTK,0.514,0.216,0.002,0.557,-7.92,2.57,-67.70,4,21,5,31,0,--,1,9.3,23.3,191,2,3019.28523498,N,12004.26137029,E,0.01,67.70,3.31*6A
$GNGGA,074323.40,3019.28961483,N,12004.26491150,E,4,44,0.4,5.1443,M,7.8966,M,1.4,0*57
$GNRMC,074323.40,D,3019.28961483,N,12004.26491150,E,0.003,132.6,101125,6.1,W,R,S*5A
$WTRTK,0.514,0.216,0.002,0.557,-7.92,2.57,-67.70,4,21,5,31,0,--,1,9.3,23.3,191,2,3019.28523494,N,12004.26137021,E,0.01,67.70,3.31*6E
$GNGGA,074323.40,3019.28961483,N,12004.26491150,E,4,44,0.4,5.1443,M,7.8966,M,1.4,0*57
$GNRMC,074323.40,D,3019.28961483,N,12004.26491150,E,0.003,132.6,101125,6.1,W,R,S*5A
$WTRTK,0.514,0.218,0.002,0.559,-7.92,2.57,-67.70,4,21,5,31,87,--,1,9.3,23.2,191,2,3019.28523496,N,12004.26137027,E,0.01,67.70,3.31*54
$GNGGA,074323.50,3019.28961398,N,12004.26491211,E,4,44,0.4,5.1445,M,7.8966,M,1.5,0*5A
$GNRMC,074323.50,D,3019.28961398,N,12004.26491211,E,0.004,135.8,101125,6.1,W,R,S*5E
$WTRTK,0.514,0.218,0.002,0.559,-7.92,2.57,-67.70,4,21,5,31,87,--,1,9.3,23.4,191,2,3019.28523491,N,12004.26137018,E,0.01,67.70,3.31*59
$GNGGA,074323.50,3019.28961398,N,12004.26491211,E,4,44,0.4,5.1445,M,7.8966,M,1.5,0*5A
$GNRMC,074323.50,D,3019.28961398,N,12004.26491211,E,0.004,135.8,101125,6.1,W,R,S*5E
$WTRTK,0.514,0.218,0.006,0.558,-7.92,2.57,-67.70,4,21,5,31,87,--,1,9.3,23.4,191,2,3019.28523492,N,12004.26137021,E,0.01,67.70,3.31*55
$GNGGA,074323.60,3019.28961418,N,12004.26491074,E,4,44,0.4,5.1463,M,7.8966,M,1.6,0*50
$GNRMC,074323.60,D,3019.28961418,N,12004.26491074,E,0.004,125.9,101125,6.1,W,R,S*53
$WTRTK,0.514,0.218,0.006,0.558,-7.92,2.57,-67.70,4,21,5,31,87,--,1,9.3,23.3,191,2,3019.28523487,N,12004.26137012,E,0.01,67.70,3.31*56
$GNGGA,074323.60,3019.28961418,N,12004.26491074,E,4,44,0.4,5.1463,M,7.8966,M,1.6,0*50
$GNRMC,074323.60,D,3019.28961418,N,12004.26491074,E,0.004,125.9,101125,6.1,W,R,S*53
$WTRTK,0.515,0.218,0.006,0.560,-7.92,2.57,-67.70,4,21,5,31,87,--,1,9.3,23.3,191,2,3019.28523490,N,12004.26137019,E,0.01,67.70,3.31*51
$GNGGA,074323.70,3019.28961432,N,12004.26491149,E,4,44,0.4,5.1458,M,7.8966,M,1.7,0*5F
$GNRMC,074323.70,D,3019.28961432,N,12004.26491149,E,0.004,126.0,101125,6.1,W,R,S*5F
$WTRTK,0.515,0.218,0.006,0.560,-7.92,2.57,-67.69,4,21,5,31,87,--,1,9.3,23.3,191,2,3019.28523483,N,12004.26137009,E,0.01,67.69,3.31*52
$GNGGA,074323.70,3019.28961432,N,12004.26491149,E,4,44,0.4,5.1458,M,7.8966,M,1.7,0*5F
$GNRMC,074323.70,D,3019.28961432,N,12004.26491149,E,0.004,126.0,101125,6.1,W,R,S*5F
$WTRTK,0.513,0.218,0.002,0.557,-7.92,2.57,-67.69,4,21,5,31,87,--,1,9.3,23.5,191,2,3019.28523484,N,12004.26137012,E,0.01,67.69,3.31*5F
$GNGGA,074323.80,3019.28961431,N,12004.26491213,E,4,44,0.4,5.1464,M,7.8966,M,1.8,0*5F
$GNRMC,074323.80,D,3019.28961431,N,12004.26491213,E,0.004,122.1,101125,6.1,W,R,S*5A
$WTRTK,0.513,0.218,0.002,0.557,-7.92,2.57,-67.69,4,21,5,31,87,--,1,9.3,23.3,191,2,3019.28523478,N,12004.26137003,E,0.01,67.69,3.31*5A
$GNGGA,074323.80,3019.28961431,N,12004.26491213,E,4,44,0.4,5.1464,M,7.8966,M,1.8,0*5F
$GNRMC,074323.80,D,3019.28961431,N,12004.26491213,E,0.004,122.1,101125,6.1,W,R,S*5A
$WTRTK,0.514,0.218,0.001,0.558,-7.92,2.57,-67.69,4,21,5,31,87,--,1,9.3,23.3,191,2,3019.28523481,N,12004.26137009,E,0.01,67.69,3.31*5D
$GNGGA,074323.90,3019.28961456,N,12004.26491194,E,4,44,0.4,5.1458,M,7.8966,M,1.9,0*5D
$GNRMC,074323.90,D,3019.28961456,N,12004.26491194,E,0.005,114.4,101125,6.1,W,R,S*57
$WTRTK,0.514,0.218,0.001,0.558,-7.92,2.57,-67.69,4,21,5,31,87,--,1,9.3,23.5,191,2,3019.28523475,N,12004.26137000,E,0.01,67.69,3.31*59
$GNGGA,074323.90,3019.28961456,N,12004.26491194,E,4,44,0.4,5.1458,M,7.8966,M,1.9,0*5D
$GNRMC,074323.90,D,3019.28961456,N,12004.26491194,E,0.005,114.4,101125,6.1,W,R,S*57
$WTRTK,0.512,0.218,0.000,0.557,-7.92,2.57,-67.69,4,21,5,31,87,--,1,9.3,23.4,191,2,3019.28523476,N,12004.26137002,E,0.01,67.69,3.31*51
$GNGGA,074323.90,3019.28961456,N,12004.26491194,E,4,44,0.4,5.1458,M,7.8966,M,1.9,0*5D
$GNRMC,074323.90,D,3019.28961456,N,12004.26491194,E,0.005,114.4,101125,6.1,W,R,S*57
$WTRTK,0.512,0.218,0.000,0.557,-7.92,2.57,-67.68,4,21,5,31,0,--,1,9.3,23.3,191,2,3019.28523471,N,12004.26136994,E,0.01,67.68,3.31*69
$GNGGA,074324.00,3019.28961417,N,12004.26491152,E,4,44,0.4,5.1456,M,7.8966,M,2.0,0*58
$GNRMC,074324.00,D,3019.28961417,N,12004.26491152,E,0.005,114.7,101125,6.1,W,R,S*55
$WTRTK,0.513,0.219,0.000,0.558,-7.92,2.57,-67.68,4,21,5,31,759,--,1,9.3,23.4,191,2,3019.28523469,N,12004.26136993,E,0.01,67.68,3.31*64
$GNGGA,074324.10,3019.28961460,N,12004.26491240,E,4,44,0.4,5.1433,M,7.8966,M,2.1,0*5B
$GNRMC,074324.10,D,3019.28961460,N,12004.26491240,E,0.005,119.5,101125,6.1,W,R,S*5B
$WTRTK,0.513,0.219,0.000,0.558,-7.92,2.57,-67.68,4,21,5,31,759,--,1,9.3,23.3,191,2,3019.28523467,N,12004.26136992,E,0.01,67.68,3.31*6C
$GNGGA,074324.10,3019.28961460,N,12004.26491240,E,4,44,0.4,5.1433,M,7.8966,M,2.1,0*5B
$GNRMC,074324.10,D,3019.28961460,N,12004.26491240,E,0.005,119.5,101125,6.1,W,R,S*5B
$WTRTK,0.514,0.218,0.002,0.558,-7.92,2.57,-67.68,4,21,5,31,759,--,1,9.3,23.3,191,2,3019.28523467,N,12004.26136993,E,0.01,67.68,3.31*69
$GNGGA,074324.20,3019.28961461,N,12004.26491250,E,4,44,0.4,5.1400,M,7.8966,M,1.2,0*58
$GNRMC,074324.20,D,3019.28961461,N,12004.26491250,E,0.004,120.8,101125,6.1,W,R,S*5E
$WTRTK,0.514,0.218,0.002,0.558,-7.92,2.57,-67.68,4,21,5,31,759,--,1,9.3,23.3,191,2,3019.28523462,N,12004.26136984,E,0.01,67.68,3.31*6A
$GNGGA,074324.20,3019.28961461,N,12004.26491250,E,4,44,0.4,5.1400,M,7.8966,M,1.2,0*58
$GNRMC,074324.20,D,3019.28961461,N,12004.26491250,E,0.004,120.8,101125,6.1,W,R,S*5E
$WTRTK,0.513,0.219,0.002,0.558,-7.92,2.57,-67.67,4,21,5,31,759,--,1,9.3,23.5,191,2,3019.28523464,N,12004.26136990,E,0.01,67.67,3.31*69
$GNGGA,074324.30,3019.28961423,N,12004.26491208,E,4,44,0.4,5.1402,M,7.8966,M,1.3,0*51
$GNRMC,074324.30,D,3019.28961423,N,12004.26491208,E,0.003,116.7,101125,6.1,W,R,S*59
$WTRTK,0.513,0.219,0.002,0.558,-7.92,2.57,-67.67,4,21,5,31,759,--,1,9.3,23.1,191,2,3019.28523459,N,12004.26136980,E,0.01,67.67,3.31*62
$GNGGA,074324.30,3019.28961423,N,12004.26491208,E,4,44,0.4,5.1402,M,7.8966,M,1.3,0*51
$GNRMC,074324.30,D,3019.28961423,N,12004.26491208,E,0.003,116.7,101125,6.1,W,R,S*59
$WTRTK,0.513,0.216,0.008,0.557,-7.92,2.57,-67.66,4,21,5,31,759,--,1,9.3,23.4,191,2,3019.28523459,N,12004.26136982,E,0.01,67.66,3.31*6F
$GNGGA,074324.40,3019.28961508,N,12004.26491166,E,4,44,0.4,5.1404,M,7.8966,M,1.4,0*54
$GNRMC,074324.40,D,3019.28961508,N,12004.26491166,E,0.004,114.6,101125,6.1,W,R,S*59
$WTRTK,0.513,0.216,0.008,0.557,-7.92,2.57,-67.66,4,21,5,31,759,--,1,9.3,23.3,191,2,3019.28523455,N,12004.26136972,E,0.01,67.66,3.31*6B
$GNGGA,074324.40,3019.28961508,N,12004.26491166,E,4,44,0.4,5.1404,M,7.8966,M,1.4,0*54
$GNRMC,074324.40,D,3019.28961508,N,12004.26491166,E,0.004,114.6,101125,6.1,W,R,S*59
$WTRTK,0.515,0.217,0.007,0.559,-7.92,2.57,-67.66,4,21,5,31,846,--,1,9.3,23.3,191,2,3019.28523457,N,12004.26136979,E,0.01,67.66,3.31*65
$GNGGA,074324.50,3019.28961401,N,12004.26491164,E,4,44,0.4,5.1417,M,7.8966,M,1.5,0*5C
$GNRMC,074324.50,D,3019.28961401,N,12004.26491164,E,0.005,123.3,101125,6.1,W,R,S*52
$WTRTK,0.515,0.217,0.007,0.559,-7.92,2.57,-67.66,4,21,5,31,846,--,1,9.3,23.3,191,2,3019.28523452,N,12004.26136968,E,0.01,67.66,3.31*60
$GNGGA,074324.50,3019.28961401,N,12004.26491164,E,4,44,0.4,5.1417,M,7.8966,M,1.5,0*5C
$GNRMC,074324.50,D,3019.28961401,N,12004.26491164,E,0.005,123.3,101125,6.1,W,R,S*52
$WTRTK,0.513,0.218,0.007,0.557,-7.92,2.57,-67.66,4,21,5,31,846,--,1,9.3,23.2,191,2,3019.28523452,N,12004.26136971,E,0.01,67.66,3.31*6E
$GNGGA,074324.60,3019.28961436,N,12004.26491266,E,4,44,0.4,5.1438,M,7.8966,M,1.6,0*54
$GNRMC,074324.60,D,3019.28961436,N,12004.26491266,E,0.004,130.3,101125,6.1,W,R,S*57
$WTRTK,0.513,0.218,0.007,0.557,-7.92,2.57,-67.66,4,21,5,31,846,--,1,9.3,23.3,191,2,3019.28523448,N,12004.26136960,E,0.01,67.66,3.31*64
$GNGGA,074324.60,3019.28961436,N,12004.26491266,E,4,44,0.4,5.1438,M,7.8966,M,1.6,0*54
$GNRMC,074324.60,D,3019.28961436,N,12004.26491266,E,0.004,130.3,101125,6.1,W,R,S*57
$WTRTK,0.512,0.217,0.004,0.556,-7.92,2.57,-67.65,4,21,5,31,1603,--,1,9.3,23.3,191,2,3019.28523450,N,12004.26136967,E,0.01,67.65,3.31*58
$GNGGA,074324.70,3019.28961431,N,12004.26491181,E,4,44,0.4,5.1413,M,7.8966,M,1.7,0*50
$GNRMC,074324.70,D,3019.28961431,N,12004.26491181,E,0.004,126.2,101125,6.1,W,R,S*5D
$WTRTK,0.512,0.217,0.004,0.556,-7.92,2.57,-67.65,4,21,5,31,1603,--,1,9.3,23.3,191,2,3019.28523445,N,12004.26136956,E,0.01,67.65,3.31*5E
$GNGGA,074324.70,3019.28961431,N,12004.26491181,E,4,44,0.4,5.1413,M,7.8966,M,1.7,0*50
$GNRMC,074324.70,D,3019.28961431,N,12004.26491181,E,0.004,126.2,101125,6.1,W,R,S*5D
$WTRTK,0.513,0.220,0.003,0.558,-7.92,2.57,-67.65,4,21,5,31,1603,--,1,9.3,23.3,191,2,3019.28523446,N,12004.26136958,E,0.01,67.65,3.31*5F
$GNGGA,074324.80,3019.28961496,N,12004.26491217,E,4,44,0.4,5.1417,M,7.8966,M,0.8,0*54
$GNRMC,074324.80,D,3019.28961496,N,12004.26491217,E,0.003,146.9,101125,6.1,W,R,S*59
$WTRTK,0.513,0.220,0.003,0.558,-7.92,2.57,-67.65,4,21,5,31,1603,--,1,9.3,23.5,191,2,3019.28523441,N,12004.26136948,E,0.01,67.65,3.31*5F
$GNGGA,074324.80,3019.28961496,N,12004.26491217,E,4,44,0.4,5.1417,M,7.8966,M,0.8,0*54
$GNRMC,074324.80,D,3019.28961496,N,12004.26491217,E,0.003,146.9,101125,6.1,W,R,S*59
$WTRTK,0.512,0.218,0.000,0.557,-7.92,2.57,-67.65,4,21,5,31,1603,--,1,9.3,23.3,191,2,3019.28523442,N,12004.26136954,E,0.01,67.65,3.31*51
$GNGGA,074324.90,3019.28961459,N,12004.26491215,E,4,44,0.4,5.1421,M,7.8966,M,0.9,0*50
$GNRMC,074324.90,D,3019.28961459,N,12004.26491215,E,0.003,134.5,101125,6.1,W,R,S*50
$WTRTK,0.512,0.218,0.000,0.557,-7.92,2.57,-67.64,4,21,5,31,1603,--,1,9.3,23.4,191,2,3019.28523438,N,12004.26136943,E,0.01,67.64,3.31*5D
$GNGGA,074324.90,3019.28961459,N,12004.26491215,E,4,44,0.4,5.1421,M,7.8966,M,0.9,0*50
$GNRMC,074324.90,D,3019.28961459,N,12004.26491215,E,0.003,134.5,101125,6.1,W,R,S*50
$WTRTK,0.513,0.217,0.005,0.557,-7.92,2.57,-67.64,4,21,5,31,1603,--,1,9.3,23.4,191,2,3019.28523438,N,12004.26136945,E,0.01,67.64,3.31*50
$GNGGA,074324.90,3019.28961459,N,12004.26491215,E,4,44,0.4,5.1421,M,7.8966,M,0.9,0*50
$GNRMC,074324.90,D,3019.28961459,N,12004.26491215,E,0.003,134.5,101125,6.1,W,R,S*50
$WTRTK,0.513,0.217,0.005,0.557,-7.92,2.57,-67.64,4,21,5,31,0,--,1,9.3,23.4,191,2,3019.28523434,N,12004.26136934,E,0.01,67.64,3.31*6E
$GNGGA,074325.00,3019.28961508,N,12004.26491299,E,4,44,0.4,5.1407,M,7.8966,M,1.0,0*55
$GNRMC,074325.00,D,3019.28961508,N,12004.26491299,E,0.002,108.2,101125,6.1,W,R,S*50
$WTRTK,0.512,0.217,0.004,0.556,-7.92,2.57,-67.64,4,21,5,31,0,--,1,9.3,23.4,191,2,3019.28523434,N,12004.26136937,E,0.01,67.64,3.31*6C
$GNGGA,074325.10,3019.28961406,N,12004.26491153,E,4,44,0.4,5.1422,M,7.8966,M,1.1,0*58
$GNRMC,074325.10,D,3019.28961406,N,12004.26491153,E,0.003,116.8,101125,6.1,W,R,S*5F
$WTRTK,0.512,0.217,0.004,0.556,-7.92,2.57,-67.64,4,21,5,31,0,--,1,9.3,23.2,191,2,3019.28523431,N,12004.26136930,E,0.01,67.64,3.31*68
$GNGGA,074325.10,3019.28961406,N,12004.26491153,E,4,44,0.4,5.1422,M,7.8966,M,1.1,0*58
$GNRMC,074325.10,D,3019.28961406,N,12004.26491153,E,0.003,116.8,101125,6.1,W,R,S*5F
$WTRTK,0.514,0.216,0.005,0.558,-7.92,2.57,-67.64,4,21,5,31,0,--,1,9.3,23.3,191,2,3019.28523431,N,12004.26136932,E,0.01,67.64,3.31*63
$GNGGA,074325.20,3019.28961350,N,12004.26491161,E,4,44,0.4,5.1462,M,7.8966,M,1.2,0*59
$GNRMC,074325.20,D,3019.28961350,N,12004.26491161,E,0.003,123.5,101125,6.1,W,R,S*52
$WTRTK,0.514,0.216,0.005,0.558,-7.92,2.57,-67.63,4,21,5,31,0,--,1,9.3,23.4,191,2,3019.28523428,N,12004.26136921,E,0.01,67.63,3.31*6E
$GNGGA,074325.20,3019.28961350,N,12004.26491161,E,4,44,0.4,5.1462,M,7.8966,M,1.2,0*59
$GNRMC,074325.20,D,3019.28961350,N,12004.26491161,E,0.003,123.5,101125,6.1,W,R,S*52
$WTRTK,0.512,0.216,0.005,0.557,-7.92,2.57,-67.63,4,21,5,31,0,--,1,9.3,23.4,191,2,3019.28523429,N,12004.26136928,E,0.01,67.63,3.31*6F
$GNGGA,074325.30,3019.28961331,N,12004.26491182,E,4,44,0.4,5.1447,M,7.8966,M,1.3,0*54
$GNRMC,074325.30,D,3019.28961331,N,12004.26491182,E,0.004,118.0,101125,6.1,W,R,S*53
$WTRTK,0.512,0.216,0.005,0.557,-7.92,2.57,-67.63,4,21,5,31,0,--,1,9.3,23.2,191,2,3019.28523424,N,12004.26136917,E,0.01,67.63,3.31*68
$GNGGA,074325.30,3019.28961331,N,12004.26491182,E,4,44,0.4,5.1447,M,7.8966,M,1.3,0*54
$GNRMC,074325.30,D,3019.28961331,N,12004.26491182,E,0.004,118.0,101125,6.1,W,R,S*53
$WTRTK,0.512,0.217,0.002,0.556,-7.92,2.57,-67.63,4,21,5,31,0,--,1,9.3,23.4,191,2,3019.28523424,N,12004.26136919,E,0.01,67.63,3.31*67
$GNGGA,074325.40,3019.28961324,N,12004.26491055,E,4,44,0.4,5.1468,M,7.8966,M,1.4,0*56
$GNRMC,074325.40,D,3019.28961324,N,12004.26491055,E,0.003,115.7,101125,6.1,W,R,S*56
$WTRTK,0.512,0.217,0.002,0.556,-7.92,2.57,-67.63,4,21,5,31,0,--,1,9.3,23.4,191,2,3019.28523420,N,12004.26136908,E,0.01,67.63,3.31*63
$GNGGA,074325.40,3019.28961324,N,12004.26491055,E,4,44,0.4,5.1468,M,7.8966,M,1.4,0*56
$GNRMC,074325.40,D,3019.28961324,N,12004.26491055,E,0.003,115.7,101125,6.1,W,R,S*56
$WTRTK,0.513,0.217,0.010,0.558,-7.92,2.57,-67.63,4,21,5,31,87,--,1,9.3,23.4,191,2,3019.28523421,N,12004.26136914,E,0.01,67.63,3.31*5C
$GNGGA,074325.50,3019.28961354,N,12004.26491126,E,4,44,0.4,5.1444,M,7.8966,M,1.5,0*5A
$GNRMC,074325.50,D,3019.28961354,N,12004.26491126,E,0.002,124.0,101125,6.1,W,R,S*51
$WTRTK,0.513,0.217,0.010,0.558,-7.92,2.57,-67.62,4,21,5,31,87,--,1,9.3,23.5,191,2,3019.28523417,N,12004.26136904,E,0.01,67.62,3.31*59
$GNGGA,074325.50,3019.28961354,N,12004.26491126,E,4,44,0.4,5.1444,M,7.8966,M,1.5,0*5A
$GNRMC,074325.50,D,3019.28961354,N,12004.26491126,E,0.002,124.0,101125,6.1,W,R,S*51
$WTRTK,0.513,0.218,0.010,0.557,-7.92,2.57,-67.62,4,21,5,31,87,--,1,9.3,23.4,191,2,3019.28523417,N,12004.26136906,E,0.01,67.62,3.31*5A
$GNGGA,074325.60,3019.28961324,N,12004.26491117,E,4,44,0.4,5.1452,M,7.8966,M,1.6,0*58
$GNRMC,074325.60,D,3019.28961324,N,12004.26491117,E,0.002,136.4,101125,6.1,W,R,S*50
$WTRTK,0.513,0.218,0.010,0.557,-7.91,2.57,-67.62,4,21,5,31,87,--,1,9.3,23.4,191,2,3019.28523413,N,12004.26136897,E,0.01,67.62,3.31*54
$GNGGA,074325.60,3019.28961324,N,12004.26491117,E,4,44,0.4,5.1452,M,7.8966,M,1.6,0*58
$GNRMC,074325.60,D,3019.28961324,N,12004.26491117,E,0.002,136.4,101125,6.1,W,R,S*50
$WTRTK,0.512,0.217,0.007,0.556,-7.92,2.57,-67.62,4,21,5,31,87,--,1,9.3,23.3,191,2,3019.28523414,N,12004.26136902,E,0.01,67.62,3.31*53
$GNGGA,074325.70,3019.28961312,N,12004.26491084,E,4,44,0.4,5.1481,M,7.8966,M,1.7,0*58
$GNRMC,074325.70,D,3019.28961312,N,12004.26491084,E,0.002,148.2,101125,6.1,W,R,S*50
$WTRTK,0.512,0.217,0.007,0.556,-7.91,2.57,-67.62,4,21,5,31,87,--,1,9.3,23.2,191,2,3019.28523410,N,12004.26136892,E,0.01,67.62,3.31*5D
$GNGGA,074325.70,3019.28961312,N,12004.26491084,E,4,44,0.4,5.1481,M,7.8966,M,1.7,0*58
$GNRMC,074325.70,D,3019.28961312,N,12004.26491084,E,0.002,148.2,101125,6.1,W,R,S*50
$WTRTK,0.512,0.217,0.000,0.556,-7.91,2.57,-67.62,4,21,5,31,87,--,1,9.3,23.3,191,2,3019.28523410,N,12004.26136894,E,0.01,67.62,3.31*5D
$GNGGA,074325.80,3019.28961258,N,12004.26491059,E,4,44,0.4,5.1479,M,7.8966,M,1.8,0*50
$GNRMC,074325.80,D,3019.28961258,N,12004.26491059,E,0.004,145.1,101125,6.1,W,R,S*58
$WTRTK,0.512,0.217,0.000,0.556,-7.91,2.57,-67.61,4,21,5,31,87,--,1,9.3,23.4,191,2,3019.28523405,N,12004.26136884,E,0.01,67.61,3.31*5F
$GNGGA,074325.80,3019.28961258,N,12004.26491059,E,4,44,0.4,5.1479,M,7.8966,M,1.8,0*50
$GNRMC,074325.80,D,3019.28961258,N,12004.26491059,E,0.004,145.1,101125,6.1,W,R,S*58
$WTRTK,0.514,0.219,0.004,0.558,-7.91,2.57,-67.61,4,21,5,31,87,--,1,9.3,23.4,191,2,3019.28523406,N,12004.26136889,E,0.01,67.61,3.31*53
$GNGGA,074325.90,3019.28961368,N,12004.26491203,E,4,44,0.4,5.1468,M,7.8966,M,1.9,0*5F
$GNRMC,074325.90,D,3019.28961368,N,12004.26491203,E,0.004,141.7,101125,6.1,W,R,S*54
$WTRTK,0.514,0.219,0.004,0.558,-7.91,2.57,-67.60,4,21,5,31,87,--,1,9.3,23.3,191,2,3019.28523402,N,12004.26136879,E,0.01,67.60,3.31*5F
$GNGGA,074325.90,3019.28961368,N,12004.26491203,E,4,44,0.4,5.1468,M,7.8966,M,1.9,0*5F
$GNRMC,074325.90,D,3019.28961368,N,12004.26491203,E,0.004,141.7,101125,6.1,W,R,S*54
$WTRTK,0.511,0.219,0.000,0.556,-7.91,2.57,-67.60,4,21,5,31,87,--,1,9.3,23.3,191,2,3019.28523402,N,12004.26136881,E,0.01,67.60,3.31*57
$GNGGA,074325.90,3019.28961368,N,12004.26491203,E,4,44,0.4,5.1468,M,7.8966,M,1.9,0*5F
$GNRMC,074325.90,D,3019.28961368,N,12004.26491203,E,0.004,141.7,101125,6.1,W,R,S*54
$WTRTK,0.511,0.219,0.000,0.556,-7.91,2.57,-67.60,4,21,5,31,0,--,1,9.3,23.3,191,2,3019.28523397,N,12004.26136871,E,0.01,67.60,3.31*6C
$GNGGA,074326.00,3019.28961356,N,12004.26491147,E,4,44,0.4,5.1481,M,7.8966,M,2.0,0*56
$GNRMC,074326.00,D,3019.28961356,N,12004.26491147,E,0.004,143.6,101125,6.1,W,R,S*53
$WTRTK,0.513,0.218,0.004,0.558,-7.91,2.57,-67.60,4,21,5,31,0,--,1,9.3,23.2,191,2,3019.28523395,N,12004.26136869,E,0.01,67.60,3.31*6F
$GNGGA,074326.10,3019.28961412,N,12004.26491045,E,4,44,0.4,5.1475,M,7.8966,M,2.1,0*59
$GNRMC,074326.10,D,3019.28961412,N,12004.26491045,E,0.003,140.4,101125,6.1,W,R,S*50
$WTRTK,0.513,0.218,0.004,0.558,-7.91,2.57,-67.60,4,21,5,31,757,--,1,9.3,23.3,191,2,3019.28523394,N,12004.26136867,E,0.01,67.60,3.31*64
$GNGGA,074326.10,3019.28961412,N,12004.26491045,E,4,44,0.4,5.1475,M,7.8966,M,2.1,0*59
$GNRMC,074326.10,D,3019.28961412,N,12004.26491045,E,0.003,140.4,101125,6.1,W,R,S*50
$WTRTK,0.514,0.217,0.004,0.558,-7.91,2.57,-67.59,4,21,5,31,757,--,1,9.3,23.3,191,2,3019.28523394,N,12004.26136868,E,0.01,67.59,3.31*63
$GNGGA,074326.20,3019.28961473,N,12004.26491071,E,4,44,0.4,5.1397,M,7.8966,M,1.2,0*51
$GNRMC,074326.20,D,3019.28961473,N,12004.26491071,E,0.003,154.3,101125,6.1,W,R,S*51
$WTRTK,0.514,0.217,0.004,0.558,-7.91,2.57,-67.59,4,21,5,31,757,--,1,9.3,23.2,191,2,3019.28523389,N,12004.26136858,E,0.01,67.59,3.31*6D
$GNGGA,074326.20,3019.28961473,N,12004.26491071,E,4,44,0.4,5.1397,M,7.8966,M,1.2,0*51
$GNRMC,074326.20,D,3019.28961473,N,12004.26491071,E,0.003,154.3,101125,6.1,W,R,S*51
$WTRTK,0.514,0.218,0.007,0.558,-7.91,2.57,-67.59,4,21,5,31,757,--,1,9.3,23.4,191,2,3019.28523391,N,12004.26136864,E,0.01,67.59,3.31*61
$GNGGA,074326.30,3019.28961472,N,12004.26491117,E,4,44,0.4,5.1400,M,7.8966,M,1.3,0*58
$GNRMC,074326.30,D,3019.28961472,N,12004.26491117,E,0.003,163.3,101125,6.1,W,R,S*54
$WTRTK,0.514,0.218,0.007,0.558,-7.91,2.57,-67.59,4,21,5,31,757,--,1,9.3,23.4,191,2,3019.28523386,N,12004.26136854,E,0.01,67.59,3.31*64
$GNGGA,074326.30,3019.28961472,N,12004.26491117,E,4,44,0.4,5.1400,M,7.8966,M,1.3,0*58
$GNRMC,074326.30,D,3019.28961472,N,12004.26491117,E,0.003,163.3,101125,6.1,W,R,S*54
$WTRTK,0.514,0.219,0.003,0.558,-7.91,2.57,-67.59,4,21,5,31,757,--,1,9.3,23.3,191,2,3019.28523387,N,12004.26136855,E,0.01,67.59,3.31*66
$GNGGA,074326.40,3019.28961515,N,12004.26491060,E,4,44,0.4,5.1419,M,7.8966,M,1.4,0*51
$GNRMC,074326.40,D,3019.28961515,N,12004.26491060,E,0.004,168.0,101125,6.1,W,R,S*5D
$WTRTK,0.514,0.219,0.003,0.558,-7.91,2.57,-67.59,4,21,5,31,757,--,1,9.3,23.5,191,2,3019.28523382,N,12004.26136845,E,0.01,67.59,3.31*64
$GNGGA,074326.40,3019.28961515,N,12004.26491060,E,4,44,0.4,5.1419,M,7.8966,M,1.4,0*51
$GNRMC,074326.40,D,3019.28961515,N,12004.26491060,E,0.004,168.0,101125,6.1,W,R,S*5D
$WTRTK,0.512,0.217,0.000,0.556,-7.91,2.57,-67.58,4,21,5,31,1601,--,1,9.3,23.1,191,2,3019.28523384,N,12004.26136851,E,0.01,67.58,3.31*55
$GNGGA,074326.50,3019.28961541,N,12004.26491108,E,4,44,0.4,5.1407,M,7.8966,M,1.5,0*50
$GNRMC,074326.50,D,3019.28961541,N,12004.26491108,E,0.004,174.1,101125,6.1,W,R,S*5E
$WTRTK,0.512,0.217,0.000,0.556,-7.91,2.57,-67.58,4,21,5,31,1601,--,1,9.3,23.3,191,2,3019.28523379,N,12004.26136841,E,0.01,67.58,3.31*54
$GNGGA,074326.50,3019.28961541,N,12004.26491108,E,4,44,0.4,5.1407,M,7.8966,M,1.5,0*50
$GNRMC,074326.50,D,3019.28961541,N,12004.26491108,E,0.004,174.1,101125,6.1,W,R,S*5E
$WTRTK,0.513,0.219,0.004,0.558,-7.91,2.57,-67.58,4,21,5,31,1601,--,1,9.3,23.4,191,2,3019.28523379,N,12004.26136842,E,0.01,67.58,3.31*55
$GNGGA,074326.60,3019.28961435,N,12004.26491075,E,4,44,0.4,5.1389,M,7.8966,M,0.6,0*59
$GNRMC,074326.60,D,3019.28961435,N,12004.26491075,E,0.003,181.3,101125,6.1,W,R,S*5B
$WTRTK,0.513,0.219,0.004,0.558,-7.91,2.57,-67.58,4,21,5,31,1601,--,1,9.3,23.3,191,2,3019.28523375,N,12004.26136832,E,0.01,67.58,3.31*59
$GNGGA,074326.60,3019.28961435,N,12004.26491075,E,4,44,0.4,5.1389,M,7.8966,M,0.6,0*59
$GNRMC,074326.60,D,3019.28961435,N,12004.26491075,E,0.003,181.3,101125,6.1,W,R,S*5B
$WTRTK,0.512,0.218,0.005,0.557,-7.91,2.57,-67.57,4,21,5,31,1601,--,1,9.3,23.3,191,2,3019.28523376,N,12004.26136838,E,0.01,67.57,3.31*5E
$GNGGA,074326.70,3019.28961605,N,12004.26491154,E,4,44,0.4,5.1340,M,7.8966,M,0.7,0*5F
$GNRMC,074326.70,D,3019.28961605,N,12004.26491154,E,0.002,163.4,101125,6.1,W,R,S*53
$WTRTK,0.512,0.218,0.005,0.557,-7.91,2.57,-67.57,4,21,5,31,1601,--,1,9.3,23.3,191,2,3019.28523372,N,12004.26136826,E,0.01,67.57,3.31*55
$GNGGA,074326.70,3019.28961605,N,12004.26491154,E,4,44,0.4,5.1340,M,7.8966,M,0.7,0*5F
$GNRMC,074326.70,D,3019.28961605,N,12004.26491154,E,0.002,163.4,101125,6.1,W,R,S*53
$WTRTK,0.513,0.217,0.007,0.557,-7.91,2.57,-67.57,4,21,5,31,1601,--,1,9.3,23.2,191,2,3019.28523372,N,12004.26136828,E,0.01,67.57,3.31*56
$GNGGA,074326.80,3019.28961398,N,12004.26491163,E,4,44,0.4,5.1391,M,7.8966,M,0.8,0*56
$GNRMC,074326.80,D,3019.28961398,N,12004.26491163,E,0.001,159.7,101125,6.1,W,R,S*50
$WTRTK,0.513,0.217,0.007,0.557,-7.91,2.57,-67.57,4,21,5,31,1601,--,1,9.3,23.3,191,2,3019.28523366,N,12004.26136818,E,0.01,67.57,3.31*51
$GNGGA,074326.80,3019.28961398,N,12004.26491163,E,4,44,0.4,5.1391,M,7.8966,M,0.8,0*56
$GNRMC,074326.80,D,3019.28961398,N,12004.26491163,E,0.001,159.7,101125,6.1,W,R,S*50
$WTRTK,0.512,0.219,0.000,0.557,-7.91,2.57,-67.57,4,21,5,31,1601,--,1,9.3,23.3,191,2,3019.28523369,N,12004.26136824,E,0.01,67.57,3.31*59
$GNGGA,074326.90,3019.28961508,N,12004.26491090,E,4,44,0.4,5.1407,M,7.8966,M,0.9,0*5C
$GNRMC,074326.90,D,3019.28961508,N,12004.26491090,E,0.002,159.5,101125,6.1,W,R,S*52
$WTRTK,0.512,0.219,0.000,0.557,-7.91,2.57,-67.57,4,21,5,31,1601,--,1,9.3,23.3,191,2,3019.28523362,N,12004.26136812,E,0.01,67.57,3.31*57
$GNGGA,074326.90,3019.28961508,N,12004.26491090,E,4,44,0.4,5.1407,M,7.8966,M,0.9,0*5C
$GNRMC,074326.90,D,3019.28961508,N,12004.26491090,E,0.002,159.5,101125,6.1,W,R,S*52
$WTRTK,0.513,0.218,0.005,0.558,-7.91,2.57,-67.56,4,21,5,31,1601,--,1,9.3,23.2,191,2,3019.28523363,N,12004.26136814,E,0.01,67.56,3.31*5B
$GNGGA,074326.90,3019.28961508,N,12004.26491090,E,4,44,0.4,5.1407,M,7.8966,M,0.9,0*5C
$GNRMC,074326.90,D,3019.28961508,N,12004.26491090,E,0.002,159.5,101125,6.1,W,R,S*52
$WTRTK,0.513,0.218,0.005,0.558,-7.90,2.57,-67.56,4,21,5,31,0,--,1,9.3,23.4,191,2,3019.28523357,N,12004.26136803,E,0.01,67.56,3.31*6B
$GNGGA,074327.00,3019.28961464,N,12004.26491084,E,4,44,0.4,5.1371,M,7.8966,M,1.0,0*54
$GNRMC,074327.00,D,3019.28961464,N,12004.26491084,E,0.001,180.8,101125,6.1,W,R,S*5E
$WTRTK,0.513,0.220,0.007,0.559,-7.90,2.57,-67.55,4,21,5,31,0,--,1,9.3,23.3,191,2,3019.28523357,N,12004.26136805,E,0.01,67.55,3.31*62
$GNGGA,074327.10,3019.28961341,N,12004.26491242,E,4,44,0.4,5.1481,M,7.8966,M,1.1,0*54
$GNRMC,074327.10,D,3019.28961341,N,12004.26491242,E,0.001,199.8,101125,6.1,W,R,S*5F
$WTRTK,0.513,0.220,0.007,0.559,-7.90,2.57,-67.55,4,21,5,31,0,--,1,9.3,23.3,191,2,3019.28523354,N,12004.26136799,E,0.01,67.55,3.31*6B
$GNGGA,074327.10,3019.28961341,N,12004.26491242,E,4,44,0.4,5.1481,M,7.8966,M,1.1,0*54
$GNRMC,074327.10,D,3019.28961341,N,12004.26491242,E,0.001,199.8,101125,6.1,W,R,S*5F
$WTRTK,0.515,0.216,0.013,0.559,-7.91,2.57,-67.55,4,21,5,31,0,--,1,9.3,23.3,191,2,3019.28523354,N,12004.26136800,E,0.01,67.55,3.31*63
$GNGGA,074327.20,3019.28961332,N,12004.26491289,E,4,44,0.4,5.1463,M,7.8966,M,1.2,0*5B
$GNRMC,074327.20,D,3019.28961332,N,12004.26491289,E,0.002,168.5,101125,6.1,W,R,S*5F
$WTRTK,0.515,0.216,0.013,0.559,-7.91,2.57,-67.55,4,21,5,31,0,--,1,9.3,23.2,191,2,3019.28523350,N,12004.26136790,E,0.01,67.55,3.31*60
$GNGGA,074327.20,3019.28961332,N,12004.26491289,E,4,44,0.4,5.1463,M,7.8966,M,1.2,0*5B
$GNRMC,074327.20,D,3019.28961332,N,12004.26491289,E,0.002,168.5,101125,6.1,W,R,S*5F
$WTRTK,0.515,0.214,0.017,0.558,-7.91,2.57,-67.54,4,21,5,31,0,--,1,9.3,23.2,191,2,3019.28523352,N,12004.26136796,E,0.01,67.54,3.31*63
$GNGGA,074327.30,3019.28961332,N,12004.26491158,E,4,44,0.4,5.1474,M,7.8966,M,1.3,0*52
$GNRMC,074327.30,D,3019.28961332,N,12004.26491158,E,0.002,177.8,101125,6.1,W,R,S*52
$WTRTK,0.515,0.214,0.017,0.558,-7.91,2.57,-67.54,4,21,5,31,0,--,1,9.3,23.3,191,2,3019.28523347,N,12004.26136785,E,0.01,67.54,3.31*64
$GNGGA,074327.30,3019.28961332,N,12004.26491158,E,4,44,0.4,5.1474,M,7.8966,M,1.3,0*52
$GNRMC,074327.30,D,3019.28961332,N,12004.26491158,E,0.002,177.8,101125,6.1,W,R,S*52
$WTRTK,0.517,0.214,0.009,0.560,-7.91,2.57,-67.54,4,21,5,31,0,--,1,9.3,23.3,191,2,3019.28523348,N,12004.26136787,E,0.01,67.54,3.31*6F
$GNGGA,074327.40,3019.28961341,N,12004.26491291,E,4,44,0.4,5.1490,M,7.8966,M,1.4,0*5A
$GNRMC,074327.40,D,3019.28961341,N,12004.26491291,E,0.003,197.2,101125,6.1,W,R,S*52
$WTRTK,0.517,0.214,0.009,0.560,-7.91,2.57,-67.54,4,21,5,31,0,--,1,9.3,23.4,191,2,3019.28523343,N,12004.26136777,E,0.01,67.54,3.31*6C
$GNGGA,074327.40,3019.28961341,N,12004.26491291,E,4,44,0.4,5.1490,M,7.8966,M,1.4,0*5A
$GNRMC,074327.40,D,3019.28961341,N,12004.26491291,E,0.003,197.2,101125,6.1,W,R,S*52
$WTRTK,0.515,0.216,0.008,0.558,-7.91,2.57,-67.54,4,21,5,31,0,--,1,9.3,23.4,191,2,3019.28523345,N,12004.26136782,E,0.01,67.54,3.31*6A
$GNGGA,074327.50,3019.28961336,N,12004.26491259,E,4,44,0.4,5.1482,M,7.8966,M,1.5,0*5D
$GNRMC,074327.50,D,3019.28961336,N,12004.26491259,E,0.004,183.9,101125,6.1,W,R,S*5E
$WTRTK,0.515,0.216,0.008,0.558,-7.91,2.57,-67.54,4,21,5,31,0,--,1,9.3,23.4,191,2,3019.28523341,N,12004.26136773,E,0.01,67.54,3.31*60
$GNGGA,074327.50,3019.28961336,N,12004.26491259,E,4,44,0.4,5.1482,M,7.8966,M,1.5,0*5D
$GNRMC,074327.50,D,3019.28961336,N,12004.26491259,E,0.004,183.9,101125,6.1,W,R,S*5E
$WTRTK,0.514,0.215,0.013,0.558,-7.91,2.57,-67.54,4,21,5,31,0,--,1,9.3,23.4,191,2,3019.28523341,N,12004.26136775,E,0.01,67.54,3.31*6E
$GNGGA,074327.60,3019.28961376,N,12004.26491263,E,4,44,0.4,5.1473,M,7.8966,M,1.6,0*5E
$GNRMC,074327.60,D,3019.28961376,N,12004.26491263,E,0.004,190.7,101125,6.1,W,R,S*5C
$WTRTK,0.514,0.215,0.013,0.558,-7.91,2.57,-67.54,4,21,5,31,0,--,1,9.3,23.5,191,2,3019.28523338,N,12004.26136767,E,0.01,67.54,3.31*62
$GNGGA,074327.60,3019.28961376,N,12004.26491263,E,4,44,0.4,5.1473,M,7.8966,M,1.6,0*5E
$GNRMC,074327.60,D,3019.28961376,N,12004.26491263,E,0.004,190.7,101125,6.1,W,R,S*5C
$WTRTK,0.515,0.215,0.013,0.559,-7.91,2.57,-67.54,4,21,5,31,0,--,1,9.3,23.4,191,2,3019.28523339,N,12004.26136772,E,0.01,67.54,3.31*66
$GNGGA,074327.70,3019.28961364,N,12004.26491257,E,4,44,0.4,5.1475,M,7.8966,M,1.7,0*5C
$GNRMC,074327.70,D,3019.28961364,N,12004.26491257,E,0.003,194.2,101125,6.1,W,R,S*5F
$WTRTK,0.515,0.215,0.013,0.559,-7.91,2.57,-67.54,4,21,5,31,0,--,1,9.3,23.4,191,2,3019.28523336,N,12004.26136763,E,0.01,67.54,3.31*69
$GNGGA,074327.70,3019.28961364,N,12004.26491257,E,4,44,0.4,5.1475,M,7.8966,M,1.7,0*5C
$GNRMC,074327.70,D,3019.28961364,N,12004.26491257,E,0.003,194.2,101125,6.1,W,R,S*5F
$WTRTK,0.514,0.216,0.011,0.558,-7.91,2.57,-67.54,4,21,5,31,0,--,1,9.3,23.3,191,2,3019.28523336,N,12004.26136765,E,0.01,67.54,3.31*69
$GNGGA,074327.80,3019.28961349,N,12004.26491273,E,4,44,0.4,5.1486,M,7.8966,M,1.8,0*59
$GNRMC,074327.80,D,3019.28961349,N,12004.26491273,E,0.003,204.1,101125,6.1,W,R,S*50
$WTRTK,0.514,0.216,0.011,0.558,-7.91,2.57,-67.54,4,21,5,31,0,--,1,9.3,23.4,191,2,3019.28523334,N,12004.26136757,E,0.01,67.54,3.31*6D
$GNGGA,074327.80,3019.28961349,N,12004.26491273,E,4,44,0.4,5.1486,M,7.8966,M,1.8,0*59
$GNRMC,074327.80,D,3019.28961349,N,12004.26491273,E,0.003,204.1,101125,6.1,W,R,S*50
$WTRTK,0.515,0.213,0.006,0.557,-7.91,2.57,-67.54,4,21,5,31,0,--,1,9.3,23.3,191,2,3019.28523335,N,12004.26136762,E,0.01,67.54,3.31*60
$GNGGA,074327.90,3019.28961315,N,12004.26491340,E,4,44,0.4,5.1500,M,7.8966,M,1.9,0*5E
$GNRMC,074327.90,D,3019.28961315,N,12004.26491340,E,0.002,169.3,101125,6.1,W,R,S*52
$WTRTK,0.515,0.213,0.006,0.557,-7.91,2.57,-67.54,4,21,5,31,0,--,1,9.3,23.3,191,2,3019.28523331,N,12004.26136753,E,0.01,67.54,3.31*66
$GNGGA,074327.90,3019.28961315,N,12004.26491340,E,4,44,0.4,5.1500,M,7.8966,M,1.9,0*5E
$GNRMC,074327.90,D,3019.28961315,N,12004.26491340,E,0.002,169.3,101125,6.1,W,R,S*52
$WTRTK,0.514,0.215,0.011,0.557,-7.91,2.57,-67.54,4,21,5,31,0,--,1,9.3,23.5,191,2,3019.28523332,N,12004.26136755,E,0.01,67.54,3.31*64
$GNGGA,074327.90,3019.28961315,N,12004.26491340,E,4,44,0.4,5.1500,M,7.8966,M,1.9,0*5E
$GNRMC,074327.90,D,3019.28961315,N,12004.26491340,E,0.002,169.3,101125,6.1,W,R,S*52
$WTRTK,0.514,0.215,0.011,0.557,-7.90,2.57,-67.54,4,21,5,31,0,--,1,9.3,23.4,191,2,3019.28523329,N,12004.26136747,E,0.01,67.54,3.31*6D
$GNGGA,074328.00,3019.28961303,N,12004.26491301,E,4,44,0.4,5.1478,M,7.8966,M,2.0,0*5E
$GNRMC,074328.00,D,3019.28961303,N,12004.26491301,E,0.003,165.1,101125,6.1,W,R,S*59
$WTRTK,0.514,0.215,0.007,0.558,-7.90,2.57,-67.54,4,21,5,31,757,--,1,9.3,23.3,191,2,3019.28523329,N,12004.26136746,E,0.01,67.54,3.31*66
$GNGGA,074328.10,3019.28961382,N,12004.26491241,E,4,44,0.4,5.1453,M,7.8966,M,2.1,0*5B
$GNRMC,074328.10,D,3019.28961382,N,12004.26491241,E,0.003,173.3,101125,6.1,W,R,S*51
$WTRTK,0.514,0.215,0.007,0.558,-7.90,2.57,-67.53,4,21,5,31,757,--,1,9.3,23.3,191,2,3019.28523328,N,12004.26136744,E,0.01,67.53,3.31*65
$GNGGA,074328.10,3019.28961382,N,12004.26491241,E,4,44,0.4,5.1453,M,7.8966,M,2.1,0*5B
$GNRMC,074328.10,D,3019.28961382,N,12004.26491241,E,0.003,173.3,101125,6.1,W,R,S*51
$WTRTK,0.515,0.213,0.012,0.558,-7.89,2.57,-67.53,4,21,5,31,757,--,1,9.3,23.4,191,2,3019.28523328,N,12004.26136746,E,0.01,67.53,3.31*6B
$GNGGA,074328.20,3019.28961410,N,12004.26491137,E,4,44,0.4,5.1439,M,7.8966,M,1.2,0*5A
$GNRMC,074328.20,D,3019.28961410,N,12004.26491137,E,0.003,184.2,101125,6.1,W,R,S*55
$WTRTK,0.515,0.213,0.012,0.558,-7.89,2.57,-67.53,4,21,5,31,757,--,1,9.3,23.4,191,2,3019.28523323,N,12004.26136737,E,0.01,67.53,3.31*66
$GNGGA,074328.20,3019.28961410,N,12004.26491137,E,4,44,0.4,5.1439,M,7.8966,M,1.2,0*5A
$GNRMC,074328.20,D,3019.28961410,N,12004.26491137,E,0.003,184.2,101125,6.1,W,R,S*55
$WTRTK,0.515,0.215,0.013,0.558,-7.89,2.57,-67.53,4,21,5,31,757,--,1,9.3,23.3,191,2,3019.28523325,N,12004.26136742,E,0.01,67.53,3.31*62
$GNGGA,074328.30,3019.28961403,N,12004.26491051,E,4,44,0.4,5.1441,M,7.8966,M,1.3,0*56
$GNRMC,074328.30,D,3019.28961403,N,12004.26491051,E,0.002,188.1,101125,6.1,W,R,S*59
$WTRTK,0.515,0.215,0.013,0.558,-7.90,2.57,-67.53,4,21,5,31,757,--,1,9.3,23.3,191,2,3019.28523326,N,12004.26136744,E,0.01,67.53,3.31*6F
$GNGGA,074328.30,3019.28961403,N,12004.26491051,E,4,44,0.4,5.1441,M,7.8966,M,1.3,0*56
$GNRMC,074328.30,D,3019.28961403,N,12004.26491051,E,0.002,188.1,101125,6.1,W,R,S*59
$WTRTK,0.516,0.213,0.008,0.559,-7.91,2.57,-67.53,4,21,5,31,757,--,1,9.3,23.3,191,2,3019.28523328,N,12004.26136751,E,0.01,67.53,3.31*6A
$GNGGA,074328.40,3019.28961420,N,12004.26491057,E,4,44,0.4,5.1429,M,7.8966,M,1.4,0*5F
$GNRMC,074328.40,D,3019.28961420,N,12004.26491057,E,0.002,163.6,101125,6.1,W,R,S*5B
$WTRTK,0.516,0.213,0.008,0.559,-7.91,2.57,-67.53,4,21,5,31,1514,--,1,9.3,23.3,191,2,3019.28523330,N,12004.26136759,E,0.01,67.53,3.31*5F
$GNGGA,074328.40,3019.28961420,N,12004.26491057,E,4,44,0.4,5.1429,M,7.8966,M,1.4,0*5F
$GNRMC,074328.40,D,3019.28961420,N,12004.26491057,E,0.002,163.6,101125,6.1,W,R,S*5B
$WTRTK,0.515,0.214,0.011,0.558,-7.92,2.57,-67.53,4,21,5,31,1601,--,1,9.3,23.4,191,2,3019.28523332,N,12004.26136767,E,0.01,67.53,3.31*5E
$GNGGA,074328.50,3019.28961387,N,12004.26491174,E,4,44,0.4,5.1434,M,7.8966,M,0.5,0*58
$GNRMC,074328.50,D,3019.28961387,N,12004.26491174,E,0.003,164.3,101125,6.1,W,R,S*53
$WTRTK,0.515,0.214,0.011,0.558,-7.92,2.57,-67.53,4,21,5,31,1601,--,1,9.3,23.2,191,2,3019.28523334,N,12004.26136777,E,0.01,67.53,3.31*5F
$GNGGA,074328.50,3019.28961387,N,12004.26491174,E,4,44,0.4,5.1434,M,7.8966,M,0.5,0*58
$GNRMC,074328.50,D,3019.28961387,N,12004.26491174,E,0.003,164.3,101125,6.1,W,R,S*53
$WTRTK,0.514,0.214,0.010,0.558,-7.92,2.57,-67.53,4,21,5,31,1601,--,1,9.3,23.4,191,2,3019.28523337,N,12004.26136787,E,0.01,67.53,3.31*55
$GNGGA,074328.60,3019.28961380,N,12004.26491090,E,4,44,0.4,5.1421,M,7.8966,M,0.6,0*50
$GNRMC,074328.60,D,3019.28961380,N,12004.26491090,E,0.004,148.3,101125,6.1,W,R,S*55
$WTRTK,0.514,0.214,0.010,0.558,-7.92,2.57,-67.53,4,21,5,31,1601,--,1,9.3,23.3,191,2,3019.28523340,N,12004.26136798,E,0.01,67.53,3.31*5C
$GNGGA,074328.60,3019.28961380,N,12004.26491090,E,4,44,0.4,5.1421,M,7.8966,M,0.6,0*50
$GNRMC,074328.60,D,3019.28961380,N,12004.26491090,E,0.004,148.3,101125,6.1,W,R,S*55
$WTRTK,0.516,0.215,0.013,0.559,-7.92,2.57,-67.53,4,21,5,31,1601,--,1,9.3,23.4,191,2,3019.28523343,N,12004.26136810,E,0.02,67.53,3.31*55
$GNGGA,074328.70,3019.28961365,N,12004.26491173,E,4,44,0.4,5.1420,M,7.8966,M,0.7,0*56
$GNRMC,074328.70,D,3019.28961365,N,12004.26491173,E,0.003,153.4,101125,6.1,W,R,S*59
$WTRTK,0.516,0.215,0.013,0.559,-7.92,2.57,-67.53,4,21,5,31,1601,--,1,9.3,23.4,191,2,3019.28523346,N,12004.26136823,E,0.02,67.53,3.31*50
$GNGGA,074328.70,3019.28961365,N,12004.26491173,E,4,44,0.4,5.1420,M,7.8966,M,0.7,0*56
$GNRMC,074328.70,D,3019.28961365,N,12004.26491173,E,0.003,153.4,101125,6.1,W,R,S*59
$WTRTK,0.516,0.217,0.015,0.560,-7.92,2.57,-67.53,4,21,5,31,1601,--,1,9.3,23.3,191,2,3019.28523350,N,12004.26136837,E,0.02,67.53,3.31*5B
$GNGGA,074328.80,3019.28961475,N,12004.26491114,E,4,44,0.4,5.1402,M,7.8966,M,0.8,0*51
$GNRMC,074328.80,D,3019.28961475,N,12004.26491114,E,0.003,157.6,101125,6.1,W,R,S*57
$WTRTK,0.516,0.217,0.015,0.560,-7.92,2.57,-67.53,4,21,5,31,1601,--,1,9.3,23.2,191,2,3019.28523354,N,12004.26136851,E,0.02,67.53,3.31*5E
$GNGGA,074328.80,3019.28961475,N,12004.26491114,E,4,44,0.4,5.1402,M,7.8966,M,0.8,0*51
$GNRMC,074328.80,D,3019.28961475,N,12004.26491114,E,0.003,157.6,101125,6.1,W,R,S*57
$WTRTK,0.515,0.214,0.011,0.558,-7.92,2.57,-67.53,4,21,5,31,1601,--,1,9.3,23.4,191,2,3019.28523359,N,12004.26136866,E,0.02,67.53,3.31*5E
$GNGGA,074328.90,3019.28961376,N,12004.26491180,E,4,44,0.4,5.1411,M,7.8966,M,0.9,0*5A
$GNRMC,074328.90,D,3019.28961376,N,12004.26491180,E,0.004,154.7,101125,6.1,W,R,S*5A
$WTRTK,0.515,0.214,0.011,0.558,-7.92,2.57,-67.53,4,21,5,31,1601,--,1,9.3,23.4,191,2,3019.28523363,N,12004.26136881,E,0.02,67.53,3.31*5E
$GNGGA,074328.90,3019.28961376,N,12004.26491180,E,4,44,0.4,5.1411,M,7.8966,M,0.9,0*5A
$GNRMC,074328.90,D,3019.28961376,N,12004.26491180,E,0.004,154.7,101125,6.1,W,R,S*5A
$WTRTK,0.514,0.217,0.015,0.558,-7.92,2.57,-67.53,4,21,5,31,1601,--,1,9.3,23.5,191,2,3019.28523369,N,12004.26136898,E,0.02,67.53,3.31*5B
$GNGGA,074328.90,3019.28961376,N,12004.26491180,E,4,44,0.4,5.1411,M,7.8966,M,0.9,0*5A
$GNRMC,074328.90,D,3019.28961376,N,12004.26491180,E,0.004,154.7,101125,6.1,W,R,S*5A
$WTRTK,0.514,0.217,0.015,0.558,-7.92,2.57,-67.53,4,21,5,31,0,--,1,9.3,23.3,191,2,3019.28523374,N,12004.26136913,E,0.02,67.53,3.31*65
$GNGGA,074329.00,3019.28961385,N,12004.26491161,E,4,44,0.4,5.1435,M,7.8966,M,1.0,0*5F
$GNRMC,074329.00,D,3019.28961385,N,12004.26491161,E,0.004,159.4,101125,6.1,W,R,S*5F
$WTRTK,0.515,0.216,0.010,0.559,-7.92,2.57,-67.52,4,21,5,31,0,--,1,9.3,23.3,191,2,3019.28523380,N,12004.26136932,E,0.02,67.52,3.31*69
$GNGGA,074329.10,3019.28961476,N,12004.26491205,E,4,44,0.4,5.1387,M,7.8966,M,1.1,0*5B
$GNRMC,074329.10,D,3019.28961476,N,12004.26491205,E,0.004,165.3,101125,6.1,W,R,S*5C
$WTRTK,0.515,0.216,0.010,0.559,-7.92,2.57,-67.52,4,21,5,31,0,--,1,9.3,23.3,191,2,3019.28523385,N,12004.26136949,E,0.03,67.52,3.31*61
$GNGGA,074329.10,3019.28961476,N,12004.26491205,E,4,44,0.4,5.1387,M,7.8966,M,1.1,0*5B
$GNRMC,074329.10,D,3019.28961476,N,12004.26491205,E,0.004,165.3,101125,6.1,W,R,S*5C
$WTRTK,0.514,0.214,0.014,0.557,-7.92,2.57,-67.52,4,21,5,31,0,--,1,9.3,23.3,191,2,3019.28523391,N,12004.26136968,E,0.03,67.52,3.31*6E
$GNGGA,074329.20,3019.28961425,N,12004.26491201,E,4,44,0.4,5.1431,M,7.8966,M,1.2,0*53
$GNRMC,074329.20,D,3019.28961425,N,12004.26491201,E,0.005,169.6,101125,6.1,W,R,S*55
$WTRTK,0.514,0.214,0.014,0.557,-7.92,2.57,-67.52,4,21,5,31,0,--,1,9.3,23.4,191,2,3019.28523397,N,12004.26136986,E,0.03,67.52,3.31*6F
$GNGGA,074329.20,3019.28961425,N,12004.26491201,E,4,44,0.4,5.1431,M,7.8966,M,1.2,0*53
$GNRMC,074329.20,D,3019.28961425,N,12004.26491201,E,0.005,169.6,101125,6.1,W,R,S*55
$WTRTK,0.515,0.217,0.014,0.559,-7.92,2.57,-67.52,4,21,5,31,0,--,1,9.3,23.4,191,2,3019.28523404,N,12004.26137008,E,0.03,67.52,3.31*60
$GNGGA,074329.30,3019.28961453,N,12004.26491190,E,4,44,0.4,5.1405,M,7.8966,M,1.3,0*5E
$GNRMC,074329.30,D,3019.28961453,N,12004.26491190,E,0.005,173.7,101125,6.1,W,R,S*54
$WTRTK,0.515,0.217,0.014,0.559,-7.92,2.57,-67.52,4,21,5,31,0,--,1,9.3,23.3,191,2,3019.28523409,N,12004.26137027,E,0.03,67.52,3.31*67
$GNGGA,074329.30,3019.28961453,N,12004.26491190,E,4,44,0.4,5.1405,M,7.8966,M,1.3,0*5E
$GNRMC,074329.30,D,3019.28961453,N,12004.26491190,E,0.005,173.7,101125,6.1,W,R,S*54
$WTRTK,0.516,0.216,0.019,0.560,-7.92,2.57,-67.52,4,21,5,31,0,--,1,9.3,23.3,191,2,3019.28523416,N,12004.26137049,E,0.03,67.52,3.31*64
$GNGGA,074329.40,3019.28961565,N,12004.26491209,E,4,44,0.4,5.1365,M,7.8966,M,1.4,0*58
$GNRMC,074329.40,D,3019.28961565,N,12004.26491209,E,0.006,179.9,101125,6.1,W,R,S*53
$WTRTK,0.516,0.216,0.019,0.560,-7.92,2.57,-67.52,4,21,5,31,0,--,1,9.3,23.3,191,2,3019.28523421,N,12004.26137069,E,0.03,67.52,3.31*62
$GNGGA,074329.40,3019.28961565,N,12004.26491209,E,4,44,0.4,5.1365,M,7.8966,M,1.4,0*58
$GNRMC,074329.40,D,3019.28961565,N,12004.26491209,E,0.006,179.9,101125,6.1,W,R,S*53
$WTRTK,0.515,0.213,0.016,0.557,-7.92,2.57,-67.52,4,21,5,31,87,--,1,9.3,23.3,191,2,3019.28523429,N,12004.26137094,E,0.03,67.52,3.31*5A
$GNGGA,074329.50,3019.28961528,N,12004.26491126,E,4,44,0.4,5.1376,M,7.8966,M,1.5,0*5D
$GNRMC,074329.50,D,3019.28961528,N,12004.26491126,E,0.005,177.0,101125,6.1,W,R,S*51
$WTRTK,0.515,0.213,0.016,0.557,-7.92,2.57,-67.52,4,21,5,31,87,--,1,9.3,23.3,191,2,3019.28523435,N,12004.26137115,E,0.03,67.52,3.31*5F
$GNGGA,074329.50,3019.28961528,N,12004.26491126,E,4,44,0.4,5.1376,M,7.8966,M,1.5,0*5D
$GNRMC,074329.50,D,3019.28961528,N,12004.26491126,E,0.005,177.0,101125,6.1,W,R,S*51
$WTRTK,0.517,0.213,0.017,0.560,-7.92,2.57,-67.52,4,21,5,31,87,--,1,9.3,23.3,191,2,3019.28523442,N,12004.26137139,E,0.04,67.52,3.31*51
$GNGGA,074329.60,3019.28961555,N,12004.26491219,E,4,44,0.4,5.1409,M,7.8966,M,1.6,0*57
$GNRMC,074329.60,D,3019.28961555,N,12004.26491219,E,0.005,163.0,101125,6.1,W,R,S*52
$WTRTK,0.517,0.213,0.017,0.560,-7.92,2.57,-67.52,4,21,5,31,844,--,1,9.3,23.3,191,2,3019.28523448,N,12004.26137160,E,0.04,67.52,3.31*60
$GNGGA,074329.60,3019.28961555,N,12004.26491219,E,4,44,0.4,5.1409,M,7.8966,M,1.6,0*57
$GNRMC,074329.60,D,3019.28961555,N,12004.26491219,E,0.005,163.0,101125,6.1,W,R,S*52
$WTRTK,0.514,0.215,0.011,0.557,-7.92,2.57,-67.52,4,21,5,31,844,--,1,9.3,23.3,191,2,3019.28523456,N,12004.26137188,E,0.04,67.52,3.31*6E
$GNGGA,074329.70,3019.28961576,N,12004.26491201,E,4,44,0.4,5.1403,M,7.8966,M,0.7,0*54
$GNRMC,074329.70,D,3019.28961576,N,12004.26491201,E,0.004,167.4,101125,6.1,W,R,S*5A
$WTRTK,0.514,0.215,0.011,0.557,-7.92,2.57,-67.52,4,21,5,31,844,--,1,9.3,23.3,191,2,3019.28523462,N,12004.26137209,E,0.04,67.52,3.31*63
$GNGGA,074329.70,3019.28961576,N,12004.26491201,E,4,44,0.4,5.1403,M,7.8966,M,0.7,0*54
$GNRMC,074329.70,D,3019.28961576,N,12004.26491201,E,0.004,167.4,101125,6.1,W,R,S*5A
$WTRTK,0.513,0.214,0.011,0.556,-7.92,2.57,-67.52,4,21,5,31,844,--,1,9.3,23.3,191,2,3019.28523470,N,12004.26137234,E,0.04,67.52,3.31*69
$GNGGA,074329.80,3019.28961563,N,12004.26491151,E,4,44,0.4,5.1400,M,7.8966,M,0.8,0*55
$GNRMC,074329.80,D,3019.28961563,N,12004.26491151,E,0.004,178.3,101125,6.1,W,R,S*5E
$WTRTK,0.513,0.214,0.011,0.556,-7.92,2.57,-67.52,4,21,5,31,844,--,1,9.3,23.3,191,2,3019.28523475,N,12004.26137254,E,0.04,67.52,3.31*6A
$GNGGA,074329.80,3019.28961563,N,12004.26491151,E,4,44,0.4,5.1400,M,7.8966,M,0.8,0*55
$GNRMC,074329.80,D,3019.28961563,N,12004.26491151,E,0.004,178.3,101125,6.1,W,R,S*5E
$WTRTK,0.516,0.215,0.019,0.559,-7.92,2.57,-67.52,4,21,5,31,844,--,1,9.3,23.4,191,2,3019.28523484,N,12004.26137283,E,0.04,67.52,3.31*6A
$GNGGA,074329.90,3019.28961493,N,12004.26491174,E,4,44,0.4,5.1412,M,7.8966,M,0.9,0*5F
$GNRMC,074329.90,D,3019.28961493,N,12004.26491174,E,0.003,180.9,101125,6.1,W,R,S*5C
$WTRTK,0.516,0.215,0.019,0.559,-7.92,2.57,-67.51,4,21,5,31,844,--,1,9.3,23.3,191,2,3019.28523490,N,12004.26137302,E,0.04,67.51,3.31*60
$GNGGA,074329.90,3019.28961493,N,12004.26491174,E,4,44,0.4,5.1412,M,7.8966,M,0.9,0*5F
$GNRMC,074329.90,D,3019.28961493,N,12004.26491174,E,0.003,180.9,101125,6.1,W,R,S*5C
$WTRTK,0.514,0.214,0.012,0.558,-7.92,2.57,-67.51,4,21,5,31,844,--,1,9.3,23.3,191,2,3019.28523498,N,12004.26137328,E,0.04,67.51,3.31*69
$GNGGA,074329.90,3019.28961493,N,12004.26491174,E,4,44,0.4,5.1412,M,7.8966,M,0.9,0*5F
$GNRMC,074329.90,D,3019.28961493,N,12004.26491174,E,0.003,180.9,101125,6.1,W,R,S*5C
$WTRTK,0.514,0.214,0.012,0.558,-7.92,2.57,-67.51,4,21,5,31,0,--,1,9.3,23.5,191,2,3019.28523505,N,12004.26137346,E,0.04,67.51,3.31*6A
$GNGGA,074330.00,3019.28961498,N,12004.26491248,E,4,44,0.4,5.1392,M,7.8966,M,1.0,0*5E
$GNRMC,074330.00,D,3019.28961498,N,12004.26491248,E,0.004,178.0,101125,6.1,W,R,S*53
$WTRTK,0.515,0.217,0.015,0.560,-7.92,2.57,-67.51,4,21,5,31,0,--,1,9.3,23.4,191,2,3019.28523514,N,12004.26137377,E,0.04,67.51,3.31*67
$GNGGA,074330.10,3019.28961498,N,12004.26491241,E,4,44,0.4,5.1403,M,7.8966,M,1.1,0*58
$GNRMC,074330.10,D,3019.28961498,N,12004.26491241,E,0.004,180.9,101125,6.1,W,R,S*55
$WTRTK,0.515,0.217,0.015,0.560,-7.92,2.57,-67.51,4,21,5,31,0,--,1,9.3,23.3,191,2,3019.28523520,N,12004.26137394,E,0.04,67.51,3.31*6A
$GNGGA,074330.10,3019.28961498,N,12004.26491241,E,4,44,0.4,5.1403,M,7.8966,M,1.1,0*58
$GNRMC,074330.10,D,3019.28961498,N,12004.26491241,E,0.004,180.9,101125,6.1,W,R,S*55
$WTRTK,0.515,0.216,0.013,0.559,-7.92,2.57,-67.51,4,21,5,31,0,--,1,9.3,23.4,191,2,3019.28523529,N,12004.26137420,E,0.04,67.51,3.31*61
$GNGGA,074330.20,3019.28961354,N,12004.26491217,E,4,44,0.4,5.1483,M,7.8966,M,1.2,0*54
$GNRMC,074330.20,D,3019.28961354,N,12004.26491217,E,0.005,179.2,101125,6.1,W,R,S*5E
$WTRTK,0.515,0.216,0.013,0.559,-7.92,2.57,-67.51,4,21,5,31,0,--,1,9.3,23.4,191,2,3019.28523534,N,12004.26137436,E,0.04,67.51,3.31*6A
$GNGGA,074330.20,3019.28961354,N,12004.26491217,E,4,44,0.4,5.1483,M,7.8966,M,1.2,0*54
$GNRMC,074330.20,D,3019.28961354,N,12004.26491217,E,0.005,179.2,101125,6.1,W,R,S*5E
$WTRTK,0.515,0.217,0.011,0.559,-7.92,2.57,-67.51,4,21,5,31,0,--,1,9.3,23.3,191,2,3019.28523544,N,12004.26137467,E,0.05,67.51,3.31*6C
$GNGGA,074330.30,3019.28961382,N,12004.26491235,E,4,44,0.4,5.1477,M,7.8966,M,1.3,0*54
$GNRMC,074330.30,D,3019.28961382,N,12004.26491235,E,0.005,174.3,101125,6.1,W,R,S*58
$WTRTK,0.515,0.217,0.011,0.559,-7.91,2.57,-67.51,4,21,5,31,0,--,1,9.3,23.2,191,2,3019.28523370,N,12004.26136980,E,0.02,67.51,3.31*6D
$GNGGA,074330.30,3019.28961382,N,12004.26491235,E,4,44,0.4,5.1477,M,7.8966,M,1.3,0*54
$GNRMC,074330.30,D,3019.28961382,N,12004.26491235,E,0.005,174.3,101125,6.1,W,R,S*58
$WTRTK,0.514,0.215,0.006,0.558,-7.90,2.57,-67.50,4,21,5,31,0,--,1,9.3,23.3,191,2,3019.28523339,N,12004.26136898,E,0.02,67.50,3.31*6C
$GNGGA,074330.40,3019.28961369,N,12004.26491264,E,4,44,0.4,5.1473,M,7.8966,M,1.4,0*51
$GNRMC,074330.40,D,3019.28961369,N,12004.26491264,E,0.005,170.2,101125,6.1,W,R,S*5B
$WTRTK,0.514,0.215,0.006,0.558,-7.90,2.57,-67.50,4,21,5,31,765,--,1,9.3,23.2,191,2,3019.28523281,N,12004.26136743,E,0.01,67.50,3.31*61
$GNGGA,074330.40,3019.28961369,N,12004.26491264,E,4,44,0.4,5.1473,M,7.8966,M,1.4,0*51
$GNRMC,074330.40,D,3019.28961369,N,12004.26491264,E,0.005,170.2,101125,6.1,W,R,S*5B
$WTRTK,0.514,0.215,0.011,0.557,-7.90,2.57,-67.50,4,21,5,31,852,--,1,9.3,23.2,191,2,3019.28523283,N,12004.26136750,E,0.01,67.50,3.31*63
$GNGGA,074330.50,3019.28961334,N,12004.26491232,E,4,44,0.4,5.1472,M,7.8966,M,0.5,0*5A
$GNRMC,074330.50,D,3019.28961334,N,12004.26491232,E,0.004,172.1,101125,6.1,W,R,S*51
$WTRTK,0.514,0.215,0.011,0.557,-7.90,2.57,-67.50,4,21,5,31,852,--,1,9.3,23.3,191,2,3019.28523258,N,12004.26136689,E,0.01,67.50,3.31*61
$GNGGA,074330.50,3019.28961334,N,12004.26491232,E,4,44,0.4,5.1472,M,7.8966,M,0.5,0*5A
$GNRMC,074330.50,D,3019.28961334,N,12004.26491232,E,0.004,172.1,101125,6.1,W,R,S*51
$WTRTK,0.515,0.216,0.015,0.559,-7.90,2.57,-67.50,4,21,5,31,852,--,1,9.3,23.4,191,2,3019.28523256,N,12004.26136682,E,0.01,67.50,3.31*6B
$GNGGA,074330.60,3019.28961346,N,12004.26491217,E,4,44,0.4,5.1471,M,7.8966,M,0.6,0*5B
$GNRMC,074330.60,D,3019.28961346,N,12004.26491217,E,0.004,175.3,101125,6.1,W,R,S*55
$WTRTK,0.515,0.216,0.015,0.559,-7.90,2.57,-67.49,4,21,5,31,852,--,1,9.3,23.3,191,2,3019.28523244,N,12004.26136653,E,0.01,67.49,3.31*63
$GNGGA,074330.60,3019.28961346,N,12004.26491217,E,4,44,0.4,5.1471,M,7.8966,M,0.6,0*5B
$GNRMC,074330.60,D,3019.28961346,N,12004.26491217,E,0.004,175.3,101125,6.1,W,R,S*55
$WTRTK,0.516,0.214,0.013,0.559,-7.90,2.57,-67.49,4,21,5,31,852,--,1,9.3,23.4,191,2,3019.28523246,N,12004.26136657,E,0.01,67.49,3.31*65
$GNGGA,074330.70,3019.28961311,N,12004.26491314,E,4,44,0.4,5.1489,M,7.8966,M,0.7,0*5C
$GNRMC,074330.70,D,3019.28961311,N,12004.26491314,E,0.004,172.4,101125,6.1,W,R,S*54
$WTRTK,0.516,0.214,0.013,0.559,-7.90,2.57,-67.49,4,21,5,31,852,--,1,9.3,23.4,191,2,3019.28523235,N,12004.26136636,E,0.01,67.49,3.31*66
$GNGGA,074330.70,3019.28961311,N,12004.26491314,E,4,44,0.4,5.1489,M,7.8966,M,0.7,0*5C
$GNRMC,074330.70,D,3019.28961311,N,12004.26491314,E,0.004,172.4,101125,6.1,W,R,S*54
$WTRTK,0.516,0.215,0.014,0.559,-7.90,2.57,-67.49,4,21,5,31,852,--,1,9.3,23.4,191,2,3019.28523235,N,12004.26136634,E,0.01,67.49,3.31*62
$GNGGA,074330.80,3019.28961303,N,12004.26491201,E,4,44,0.4,5.1486,M,7.8966,M,0.8,0*55
$GNRMC,074330.80,D,3019.28961303,N,12004.26491201,E,0.004,175.0,101125,6.1,W,R,S*5E
$WTRTK,0.516,0.215,0.014,0.559,-7.90,2.57,-67.49,4,21,5,31,852,--,1,9.3,23.3,191,2,3019.28523229,N,12004.26136620,E,0.00,67.49,3.31*6C
$GNGGA,074330.80,3019.28961303,N,12004.26491201,E,4,44,0.4,5.1486,M,7.8966,M,0.8,0*55
$GNRMC,074330.80,D,3019.28961303,N,12004.26491201,E,0.004,175.0,101125,6.1,W,R,S*5E
$WTRTK,0.517,0.217,0.011,0.561,-7.90,2.57,-67.49,4,21,5,31,852,--,1,9.3,23.4,191,2,3019.28523230,N,12004.26136623,E,0.01,67.49,3.31*6C
$GNGGA,074330.90,3019.28961407,N,12004.26491303,E,4,44,0.4,5.1474,M,7.8966,M,0.9,0*58
$GNRMC,074330.90,D,3019.28961407,N,12004.26491303,E,0.004,179.0,101125,6.1,W,R,S*53
$WTRTK,0.517,0.217,0.011,0.561,-7.90,2.57,-67.49,4,21,5,31,852,--,1,9.3,23.2,191,2,3019.28523225,N,12004.26136611,E,0.00,67.49,3.31*6E
$GNGGA,074330.90,3019.28961407,N,12004.26491303,E,4,44,0.4,5.1474,M,7.8966,M,0.9,0*58
$GNRMC,074330.90,D,3019.28961407,N,12004.26491303,E,0.004,179.0,101125,6.1,W,R,S*53
$WTRTK,0.514,0.215,0.008,0.558,-7.90,2.57,-67.49,4,21,5,31,852,--,1,9.3,23.4,191,2,3019.28523225,N,12004.26136611,E,0.01,67.49,3.31*6A
$GNGGA,074330.90,3019.28961407,N,12004.26491303,E,4,44,0.4,5.1474,M,7.8966,M,0.9,0*58
$GNRMC,074330.90,D,3019.28961407,N,12004.26491303,E,0.004,179.0,101125,6.1,W,R,S*53
$WTRTK,0.514,0.215,0.008,0.558,-7.89,2.57,-67.49,4,21,5,31,0,--,1,9.3,23.4,191,2,3019.28523221,N,12004.26136602,E,0.00,67.49,3.31*6A
$GNGGA,074331.00,3019.28961369,N,12004.26491177,E,4,44,0.4,5.1481,M,7.8966,M,1.0,0*5C
$GNRMC,074331.00,D,3019.28961369,N,12004.26491177,E,0.004,178.6,101125,6.1,W,R,S*52
$WTRTK,0.516,0.215,0.008,0.559,-7.89,2.57,-67.48,4,21,5,31,0,--,1,9.3,23.3,191,2,3019.28523221,N,12004.26136603,E,0.00,67.48,3.31*6F
$GNGGA,074331.10,3019.28961416,N,12004.26491218,E,4,44,0.4,5.1458,M,7.8966,M,1.1,0*5D
$GNRMC,074331.10,D,3019.28961416,N,12004.26491218,E,0.004,180.7,101125,6.1,W,R,S*50
$WTRTK,0.516,0.215,0.008,0.559,-7.89,2.57,-67.48,4,21,5,31,0,--,1,9.3,23.3,191,2,3019.28523219,N,12004.26136598,E,0.00,67.48,3.31*65
$GNGGA,074331.10,3019.28961416,N,12004.26491218,E,4,44,0.4,5.1458,M,7.8966,M,1.1,0*5D
$GNRMC,074331.10,D,3019.28961416,N,12004.26491218,E,0.004,180.7,101125,6.1,W,R,S*50
$WTRTK,0.516,0.215,0.011,0.559,-7.89,2.57,-67.48,4,21,5,31,0,--,1,9.3,23.5,191,2,3019.28523220,N,12004.26136599,E,0.00,67.48,3.31*60
$GNGGA,074331.20,3019.28961279,N,12004.26491209,E,4,44,0.4,5.1464,M,7.8966,M,1.2,0*5D
$GNRMC,074331.20,D,3019.28961279,N,12004.26491209,E,0.004,181.9,101125,6.1,W,R,S*53
$WTRTK,0.516,0.215,0.011,0.559,-7.89,2.57,-67.48,4,21,5,31,0,--,1,9.3,23.3,191,2,3019.28523217,N,12004.26136593,E,0.00,67.48,3.31*68
$GNGGA,074331.20,3019.28961279,N,12004.26491209,E,4,44,0.4,5.1464,M,7.8966,M,1.2,0*5D
$GNRMC,074331.20,D,3019.28961279,N,12004.26491209,E,0.004,181.9,101125,6.1,W,R,S*53
$WTRTK,0.516,0.215,0.009,0.560,-7.89,2.57,-67.48,4,21,5,31,0,--,1,9.3,23.3,191,2,3019.28523217,N,12004.26136596,E,0.00,67.48,3.31*6E
$GNGGA,074331.30,3019.28961490,N,12004.26491231,E,4,44,0.4,5.1438,M,7.8966,M,1.3,0*5E
$GNRMC,074331.30,D,3019.28961490,N,12004.26491231,E,0.004,183.4,101125,6.1,W,R,S*57
$WTRTK,0.516,0.215,0.009,0.560,-7.89,2.57,-67.48,4,21,5,31,0,--,1,9.3,23.4,191,2,3019.28523215,N,12004.26136591,E,0.00,67.48,3.31*6C
$GNGGA,074331.30,3019.28961490,N,12004.26491231,E,4,44,0.4,5.1438,M,7.8966,M,1.3,0*5E
$GNRMC,074331.30,D,3019.28961490,N,12004.26491231,E,0.004,183.4,101125,6.1,W,R,S*57
$WTRTK,0.514,0.215,0.008,0.557,-7.89,2.57,-67.48,4,21,5,31,0,--,1,9.3,23.3,191,2,3019.28523215,N,12004.26136592,E,0.00,67.48,3.31*6F
$GNGGA,074331.40,3019.28961416,N,12004.26491268,E,4,44,0.4,5.1406,M,7.8966,M,1.4,0*51
$GNRMC,074331.40,D,3019.28961416,N,12004.26491268,E,0.005,171.8,101125,6.1,W,R,S*52
$WTRTK,0.514,0.215,0.008,0.557,-7.89,2.57,-67.48,4,21,5,31,0,--,1,9.3,23.4,191,2,3019.28523213,N,12004.26136588,E,0.00,67.48,3.31*65
$GNGGA,074331.40,3019.28961416,N,12004.26491268,E,4,44,0.4,5.1406,M,7.8966,M,1.4,0*51
$GNRMC,074331.40,D,3019.28961416,N,12004.26491268,E,0.005,171.8,101125,6.1,W,R,S*52
$WTRTK,0.514,0.216,0.007,0.558,-7.89,2.57,-67.48,4,21,5,31,87,--,1,9.3,23.4,191,2,3019.28523214,N,12004.26136591,E,0.00,67.48,3.31*56
$GNGGA,074331.50,3019.28961432,N,12004.26491156,E,4,44,0.4,5.1449,M,7.8966,M,1.5,0*52
$GNRMC,074331.50,D,3019.28961432,N,12004.26491156,E,0.004,170.6,101125,6.1,W,R,S*55
$WTRTK,0.514,0.216,0.007,0.558,-7.89,2.57,-67.48,4,21,5,31,87,--,1,9.3,23.3,191,2,3019.28523211,N,12004.26136586,E,0.00,67.48,3.31*52
$GNGGA,074331.50,3019.28961432,N,12004.26491156,E,4,44,0.4,5.1449,M,7.8966,M,1.5,0*52
$GNRMC,074331.50,D,3019.28961432,N,12004.26491156,E,0.004,170.6,101125,6.1,W,R,S*55
$WTRTK,0.517,0.216,0.009,0.561,-7.89,2.57,-67.48,4,21,5,31,87,--,1,9.3,23.3,191,2,3019.28523212,N,12004.26136588,E,0.00,67.48,3.31*58
$GNGGA,074331.60,3019.28961389,N,12004.26491164,E,4,44,0.4,5.1400,M,7.8966,M,1.6,0*59
$GNRMC,074331.60,D,3019.28961389,N,12004.26491164,E,0.004,181.0,101125,6.1,W,R,S*58
$WTRTK,0.517,0.216,0.009,0.561,-7.89,2.57,-67.48,4,21,5,31,87,--,1,9.3,23.3,191,2,3019.28523210,N,12004.26136584,E,0.00,67.48,3.31*56
$GNGGA,074331.60,3019.28961389,N,12004.26491164,E,4,44,0.4,5.1400,M,7.8966,M,1.6,0*59
$GNRMC,074331.60,D,3019.28961389,N,12004.26491164,E,0.004,181.0,101125,6.1,W,R,S*58
$WTRTK,0.517,0.216,0.013,0.561,-7.89,2.57,-67.48,4,21,5,31,87,--,1,9.3,23.3,191,2,3019.28523211,N,12004.26136587,E,0.00,67.48,3.31*5F
$GNGGA,074331.70,3019.28961530,N,12004.26491234,E,4,44,0.4,5.1468,M,7.8966,M,1.7,0*55
$GNRMC,074331.70,D,3019.28961530,N,12004.26491234,E,0.004,179.3,101125,6.1,W,R,S*5F
$WTRTK,0.517,0.216,0.013,0.561,-7.89,2.57,-67.47,4,21,5,31,87,--,1,9.3,23.4,191,2,3019.28523210,N,12004.26136584,E,0.00,67.47,3.31*5A
$GNGGA,074331.70,3019.28961530,N,12004.26491234,E,4,44,0.4,5.1468,M,7.8966,M,1.7,0*55
$GNRMC,074331.70,D,3019.28961530,N,12004.26491234,E,0.004,179.3,101125,6.1,W,R,S*5F
$WTRTK,0.514,0.213,0.006,0.557,-7.89,2.57,-67.47,4,21,5,31,87,--,1,9.3,23.3,191,2,3019.28523211,N,12004.26136585,E,0.00,67.47,3.31*5A
$GNGGA,074331.80,3019.28961493,N,12004.26491236,E,4,44,0.4,5.1455,M,7.8966,M,1.8,0*51
$GNRMC,074331.80,D,3019.28961493,N,12004.26491236,E,0.005,174.1,101125,6.1,W,R,S*54
$WTRTK,0.514,0.213,0.006,0.557,-7.89,2.57,-67.47,4,21,5,31,87,--,1,9.3,23.3,191,2,3019.28523211,N,12004.26136582,E,0.00,67.47,3.31*5D
$GNGGA,074331.80,3019.28961493,N,12004.26491236,E,4,44,0.4,5.1455,M,7.8966,M,1.8,0*51
$GNRMC,074331.80,D,3019.28961493,N,12004.26491236,E,0.005,174.1,101125,6.1,W,R,S*54
$WTRTK,0.516,0.213,0.009,0.558,-7.89,2.57,-67.47,4,21,5,31,87,--,1,9.3,23.3,191,2,3019.28523212,N,12004.26136584,E,0.00,67.47,3.31*5A
$GNGGA,074331.90,3019.28961404,N,12004.26491154,E,4,44,0.4,5.1438,M,7.8966,M,1.9,0*53
$GNRMC,074331.90,D,3019.28961404,N,12004.26491154,E,0.005,168.9,101125,6.1,W,R,S*59
$WTRTK,0.516,0.213,0.009,0.558,-7.89,2.57,-67.47,4,21,5,31,87,--,1,9.3,23.2,191,2,3019.28523211,N,12004.26136582,E,0.00,67.47,3.31*5E
$GNGGA,074331.90,3019.28961404,N,12004.26491154,E,4,44,0.4,5.1438,M,7.8966,M,1.9,0*53
