$WTRTK,-0.123,0.531,-0.018,0.546,-3.55,1.62,12.29,4,21,5,31,818,--,1,9.3,23.8,137,2,3019.25325756,N,12004.23725640,E,3.22,347.71,2.74*7B
$GNGGA,075331.90,3019.26458623,N,12004.24387770,E,4,32,0.6,5.1631,M,7.8959,M,1.9,0*5A
$GNRMC,075331.90,D,3019.26458623,N,12004.24387770,E,1.862,259.5,101125,6.1,W,R,S*51
$WTRTK,-0.123,0.531,-0.018,0.546,-3.59,1.57,12.28,4,21,5,31,818,--,1,9.3,23.7,137,2,3019.25325067,N,12004.23722965,E,3.22,347.72,2.74*76
$GNGGA,075332.00,3019.26457758,N,12004.24381735,E,4,32,0.6,5.1667,M,7.8959,M,2.0,0*5C
$GNRMC,075332.00,D,3019.26457758,N,12004.24381735,E,1.855,259.9,101125,6.1,W,R,S*56
$WTRTK,-0.118,0.532,-0.021,0.545,-3.60,1.53,12.29,4,21,5,31,0,--,1,9.3,23.7,137,2,3019.25324376,N,12004.23720298,E,3.21,347.71,2.74*73
$GNGGA,075332.00,3019.26457758,N,12004.24381735,E,4,32,0.6,5.1667,M,7.8959,M,2.0,0*5C
$GNRMC,075332.00,D,3019.26457758,N,12004.24381735,E,1.855,259.9,101125,6.1,W,R,S*56
$WTRTK,-0.118,0.532,-0.021,0.545,-3.60,1.56,12.28,4,21,5,31,0,--,1,9.3,23.8,137,2,3019.25324128,N,12004.23717219,E,3.20,347.72,2.74*7E
$GNGGA,075332.10,3019.26456703,N,12004.24375956,E,4,32,0.6,5.1625,M,7.8959,M,1.1,0*56
$GNRMC,075332.10,D,3019.26456703,N,12004.24375956,E,1.846,260.0,101125,6.1,W,R,S*59
$WTRTK,-0.125,0.528,-0.010,0.543,-3.63,1.55,12.28,4,21,5,31,0,--,1,9.3,23.8,137,2,3019.25323859,N,12004.23714151,E,3.21,347.72,2.74*7A
$GNGGA,075332.10,3019.26456703,N,12004.24375956,E,4,32,0.6,5.1625,M,7.8959,M,1.1,0*56
$GNRMC,075332.10,D,3019.26456703,N,12004.24375956,E,1.846,260.0,101125,6.1,W,R,S*59
$WTRTK,-0.125,0.528,-0.010,0.543,-3.61,1.57,12.24,4,21,5,31,0,--,1,9.3,23.7,137,2,3019.25323200,N,12004.23711479,E,3.20,347.76,2.74*70
$GNGGA,075332.20,3019.26456167,N,12004.24369980,E,4,32,0.6,5.1644,M,7.8959,M,1.2,0*53
$GNRMC,075332.20,D,3019.26456167,N,12004.24369980,E,1.856,262.0,101125,6.1,W,R,S*5B
$WTRTK,-0.120,0.523,-0.019,0.537,-3.63,1.58,12.19,4,21,5,31,0,--,1,9.3,23.8,137,2,3019.25322858,N,12004.23708483,E,3.21,347.81,2.74*7A
$GNGGA,075332.20,3019.26456167,N,12004.24369980,E,4,32,0.6,5.1644,M,7.8959,M,1.2,0*53
$GNRMC,075332.20,D,3019.26456167,N,12004.24369980,E,1.856,262.0,101125,6.1,W,R,S*5B
$WTRTK,-0.120,0.523,-0.019,0.537,-3.64,1.58,12.12,4,21,5,31,0,--,1,9.3,23.8,137,2,3019.25322216,N,12004.23705799,E,3.21,347.88,2.74*7A
$GNGGA,075332.30,3019.26455395,N,12004.24363944,E,4,30,0.6,5.1797,M,7.8959,M,1.3,0*50
$GNRMC,075332.30,D,3019.26455395,N,12004.24363944,E,1.848,262.5,101125,6.1,W,R,S*5E
$WTRTK,-0.119,0.529,-0.027,0.543,-3.65,1.59,12.04,4,21,5,31,0,--,1,9.3,23.8,136,2,3019.25322077,N,12004.23702692,E,3.22,347.96,2.74*76
$GNGGA,075332.30,3019.26455395,N,12004.24363944,E,4,30,0.6,5.1797,M,7.8959,M,1.3,0*50
$GNRMC,075332.30,D,3019.26455395,N,12004.24363944,E,1.848,262.5,101125,6.1,W,R,S*5E
$WTRTK,-0.119,0.529,-0.027,0.543,-3.61,1.59,11.93,4,21,5,31,0,--,1,9.3,23.7,136,2,3019.25321451,N,12004.23699993,E,3.23,348.07,2.75*79
$GNGGA,075332.40,3019.26454373,N,12004.24358152,E,4,34,0.5,5.1763,M,7.8959,M,1.4,0*52
$GNRMC,075332.40,D,3019.26454373,N,12004.24358152,E,1.879,260.2,101125,6.1,W,R,S*50
$WTRTK,-0.112,0.527,-0.011,0.539,-3.59,1.60,11.79,4,21,5,31,87,--,1,9.3,23.7,136,2,3019.25321355,N,12004.23696893,E,3.23,348.21,2.75*47
$GNGGA,075332.40,3019.26454373,N,12004.24358152,E,4,34,0.5,5.1763,M,7.8959,M,1.4,0*52
$GNRMC,075332.40,D,3019.26454373,N,12004.24358152,E,1.879,260.2,101125,6.1,W,R,S*50
$WTRTK,-0.112,0.527,-0.011,0.539,-3.58,1.61,11.62,4,21,5,31,87,--,1,9.3,23.8,136,2,3019.25320748,N,12004.23694182,E,3.23,348.38,2.75*48
$GNGGA,075332.50,3019.26453030,N,12004.24352155,E,4,34,0.5,5.1792,M,7.8959,M,1.5,0*52
$GNRMC,075332.50,D,3019.26453030,N,12004.24352155,E,1.901,257.0,101125,6.1,W,R,S*57
$WTRTK,-0.113,0.530,-0.012,0.542,-3.56,1.60,11.44,4,21,5,31,87,--,1,9.3,23.8,136,2,3019.25320425,N,12004.23691036,E,3.25,348.56,2.75*46
$GNGGA,075332.50,3019.26453030,N,12004.24352155,E,4,34,0.5,5.1792,M,7.8959,M,1.5,0*52
$GNRMC,075332.50,D,3019.26453030,N,12004.24352155,E,1.901,257.0,101125,6.1,W,R,S*57
$WTRTK,-0.113,0.530,-0.012,0.542,-3.53,1.57,11.23,4,21,5,31,87,--,1,9.3,23.8,136,2,3019.25319848,N,12004.23688295,E,3.25,348.77,2.75*4B
$GNGGA,075332.60,3019.26452382,N,12004.24346606,E,4,34,0.5,5.1861,M,7.8959,M,1.6,0*5E
$GNRMC,075332.60,D,3019.26452382,N,12004.24346606,E,1.865,257.4,101125,6.1,W,R,S*5C
$WTRTK,-0.112,0.538,-0.002,0.549,-3.57,1.58,11.04,4,21,5,31,87,--,1,9.3,23.8,136,2,3019.25319291,N,12004.23685171,E,3.26,348.96,2.75*40
$GNGGA,075332.60,3019.26452382,N,12004.24346606,E,4,34,0.5,5.1861,M,7.8959,M,1.6,0*5E
$GNRMC,075332.60,D,3019.26452382,N,12004.24346606,E,1.865,257.4,101125,6.1,W,R,S*5C
$WTRTK,-0.112,0.538,-0.002,0.549,-3.60,1.60,10.85,4,21,5,31,87,--,1,9.3,23.8,136,2,3019.25318716,N,12004.23682420,E,3.27,349.15,2.75*41
$GNGGA,075332.70,3019.26451389,N,12004.24340327,E,4,34,0.5,5.1824,M,7.8959,M,1.7,0*57
$GNRMC,075332.70,D,3019.26451389,N,12004.24340327,E,1.880,260.7,101125,6.1,W,R,S*59
$WTRTK,-0.099,0.527,-0.003,0.537,-3.65,1.59,10.67,4,21,5,31,87,--,1,9.3,23.7,136,2,3019.25318185,N,12004.23679431,E,3.29,349.33,2.75*4B
$GNGGA,075332.70,3019.26451389,N,12004.24340327,E,4,34,0.5,5.1824,M,7.8959,M,1.7,0*57
$GNRMC,075332.70,D,3019.26451389,N,12004.24340327,E,1.880,260.7,101125,6.1,W,R,S*59
$WTRTK,-0.099,0.527,-0.003,0.537,-3.75,1.55,10.54,4,21,5,31,87,--,1,9.3,23.7,136,2,3019.25317615,N,12004.23676664,E,3.28,349.46,2.76*4A
$GNGGA,075332.80,3019.26450058,N,12004.24334605,E,4,33,0.5,5.1879,M,7.8959,M,1.8,0*50
$GNRMC,075332.80,D,3019.26450058,N,12004.24334605,E,1.888,261.3,101125,6.1,W,R,S*53
$WTRTK,-0.104,0.537,-0.019,0.547,-3.74,1.51,10.42,4,21,5,31,87,--,1,9.3,23.8,136,2,3019.25317327,N,12004.23673545,E,3.28,349.58,2.75*42
$GNGGA,075332.80,3019.26450058,N,12004.24334605,E,4,33,0.5,5.1879,M,7.8959,M,1.8,0*50
$GNRMC,075332.80,D,3019.26450058,N,12004.24334605,E,1.888,261.3,101125,6.1,W,R,S*53
$WTRTK,-0.104,0.537,-0.019,0.547,-3.65,1.49,10.27,4,21,5,31,87,--,1,9.3,23.9,136,2,3019.25316747,N,12004.23670788,E,3.26,349.73,2.75*4D
$GNGGA,075332.90,3019.26449354,N,12004.24328517,E,4,33,0.5,5.2001,M,7.8959,M,1.9,0*5E
$GNRMC,075332.90,D,3019.26449354,N,12004.24328517,E,1.889,262.4,101125,6.1,W,R,S*5D
$WTRTK,-0.109,0.567,-0.009,0.578,-3.57,1.44,10.22,4,21,5,31,87,--,1,9.3,23.8,136,2,3019.25316472,N,12004.23667670,E,3.25,349.78,2.75*4D
$GNGGA,075332.90,3019.26449354,N,12004.24328517,E,4,33,0.5,5.2001,M,7.8959,M,1.9,0*5E
$GNRMC,075332.90,D,3019.26449354,N,12004.24328517,E,1.889,262.4,101125,6.1,W,R,S*5D
$WTRTK,-0.109,0.567,-0.009,0.578,-3.51,1.42,10.23,4,21,5,31,860,--,1,9.3,23.8,136,2,3019.25315874,N,12004.23664950,E,3.22,349.77,2.75*72
$GNGGA,075333.00,3019.26448660,N,12004.24322751,E,4,34,0.5,5.1952,M,7.8959,M,2.0,0*5E
$GNRMC,075333.00,D,3019.26448660,N,12004.24322751,E,1.860,262.8,101125,6.1,W,R,S*57
$WTRTK,-0.103,0.531,-0.022,0.541,-3.51,1.41,10.30,4,21,5,31,0,--,1,9.3,23.9,136,2,3019.25315254,N,12004.23662253,E,3.22,349.70,2.75*77
$GNGGA,075333.00,3019.26448660,N,12004.24322751,E,4,34,0.5,5.1952,M,7.8959,M,2.0,0*5E
$GNRMC,075333.00,D,3019.26448660,N,12004.24322751,E,1.860,262.8,101125,6.1,W,R,S*57
$WTRTK,-0.103,0.531,-0.022,0.541,-3.48,1.40,10.43,4,21,5,31,0,--,1,9.3,23.7,136,2,3019.25315174,N,12004.23659124,E,3.21,349.57,2.75*78
$GNGGA,075333.10,3019.26447861,N,12004.24316880,E,4,33,0.5,5.1990,M,7.8959,M,1.1,0*50
$GNRMC,075333.10,D,3019.26447861,N,12004.24316880,E,1.812,262.7,101125,6.1,W,R,S*58
$WTRTK,-0.105,0.528,-0.025,0.539,-3.50,1.43,10.58,4,21,5,31,0,--,1,9.3,23.8,136,2,3019.25315114,N,12004.23655983,E,3.21,349.42,2.75*7A
$GNGGA,075333.10,3019.26447861,N,12004.24316880,E,4,33,0.5,5.1990,M,7.8959,M,1.1,0*50
$GNRMC,075333.10,D,3019.26447861,N,12004.24316880,E,1.812,262.7,101125,6.1,W,R,S*58
$WTRTK,-0.105,0.528,-0.025,0.539,-3.49,1.41,10.76,4,21,5,31,0,--,1,9.3,23.8,136,2,3019.25314450,N,12004.23653312,E,3.20,349.24,2.75*7D
$GNGGA,075333.20,3019.26447313,N,12004.24311104,E,4,33,0.5,5.1965,M,7.8959,M,1.2,0*56
$GNRMC,075333.20,D,3019.26447313,N,12004.24311104,E,1.815,261.6,101125,6.1,W,R,S*52
$WTRTK,-0.111,0.515,-0.025,0.527,-3.46,1.33,10.96,5,21,5,31,0,--,1,9.3,23.9,136,2,3019.25314388,N,12004.23650308,E,3.20,349.04,2.75*75
$GNGGA,075333.20,3019.26447313,N,12004.24311104,E,4,33,0.5,5.1965,M,7.8959,M,1.2,0*56
$GNRMC,075333.20,D,3019.26447313,N,12004.24311104,E,1.815,261.6,101125,6.1,W,R,S*52
$WTRTK,-0.111,0.515,-0.025,0.527,-3.41,1.36,11.13,5,21,5,31,0,--,1,9.3,23.8,136,2,3019.25313705,N,12004.23647650,E,3.19,348.87,2.75*72
$GNGGA,075333.30,3019.26446241,N,12004.24305082,E,4,34,0.5,5.2065,M,7.8959,M,1.3,0*56
$GNRMC,075333.30,D,3019.26446241,N,12004.24305082,E,1.889,258.7,101125,6.1,W,R,S*50
$WTRTK,-0.115,0.551,-0.010,0.563,-3.35,1.39,11.28,4,21,5,31,0,--,1,9.3,23.9,136,2,3019.25313573,N,12004.23644642,E,3.18,348.72,2.75*7C
$GNGGA,075333.30,3019.26446241,N,12004.24305082,E,4,34,0.5,5.2065,M,7.8959,M,1.3,0*56
$GNRMC,075333.30,D,3019.26446241,N,12004.24305082,E,1.889,258.7,101125,6.1,W,R,S*50
$WTRTK,-0.115,0.551,-0.010,0.563,-3.34,1.42,11.46,4,21,5,31,0,--,1,9.3,23.9,136,2,3019.25312876,N,12004.23642006,E,3.18,348.54,2.75*74
$GNGGA,075333.40,3019.26445431,N,12004.24299313,E,4,33,0.5,5.2076,M,7.8959,M,1.4,0*5E
$GNRMC,075333.40,D,3019.26445431,N,12004.24299313,E,1.954,260.0,101125,6.1,W,R,S*57
$WTRTK,-0.109,0.547,-0.020,0.559,-3.33,1.42,11.63,4,21,5,31,87,--,1,9.3,23.7,135,2,3019.25312503,N,12004.23638776,E,3.18,348.37,2.75*41
$GNGGA,075333.40,3019.26445431,N,12004.24299313,E,4,33,0.5,5.2076,M,7.8959,M,1.4,0*5E
$GNRMC,075333.40,D,3019.26445431,N,12004.24299313,E,1.954,260.0,101125,6.1,W,R,S*57
$WTRTK,-0.109,0.547,-0.020,0.559,-3.32,1.42,11.79,4,21,5,31,87,--,1,9.3,23.8,135,2,3019.25311799,N,12004.23636150,E,3.16,348.21,2.75*43
$GNGGA,075333.50,3019.26444802,N,12004.24293015,E,4,32,0.6,5.2164,M,7.8959,M,1.5,0*5C
$GNRMC,075333.50,D,3019.26444802,N,12004.24293015,E,1.935,259.7,101125,6.1,W,R,S*5E
$WTRTK,-0.109,0.533,-0.027,0.545,-3.31,1.44,11.90,4,21,5,31,87,--,1,9.3,23.8,135,2,3019.25311540,N,12004.23632750,E,3.16,348.10,2.75*4E
$GNGGA,075333.50,3019.26444802,N,12004.24293015,E,4,32,0.6,5.2164,M,7.8959,M,1.5,0*5C
$GNRMC,075333.50,D,3019.26444802,N,12004.24293015,E,1.935,259.7,101125,6.1,W,R,S*5E
$WTRTK,-0.109,0.533,-0.027,0.545,-3.32,1.40,12.02,4,21,5,31,87,--,1,9.3,23.8,135,2,3019.25310829,N,12004.23630140,E,3.15,347.98,2.76*48
$GNGGA,075333.60,3019.26444080,N,12004.24287161,E,4,33,0.5,5.2103,M,7.8959,M,1.6,0*5A
$GNRMC,075333.60,D,3019.26444080,N,12004.24287161,E,1.928,260.6,101125,6.1,W,R,S*5F
$WTRTK,-0.120,0.547,-0.023,0.561,-3.32,1.40,12.15,4,21,5,31,87,--,1,9.3,23.9,135,2,3019.25310519,N,12004.23626850,E,3.15,347.85,2.76*48
$GNGGA,075333.60,3019.26444080,N,12004.24287161,E,4,33,0.5,5.2103,M,7.8959,M,1.6,0*5A
$GNRMC,075333.60,D,3019.26444080,N,12004.24287161,E,1.928,260.6,101125,6.1,W,R,S*5F
$WTRTK,-0.120,0.547,-0.023,0.561,-3.39,1.42,12.28,4,21,5,31,87,--,1,9.3,23.7,135,2,3019.25309818,N,12004.23624252,E,3.14,347.72,2.76*46
$GNGGA,075333.70,3019.26443349,N,12004.24281295,E,4,33,0.5,5.2152,M,7.8959,M,1.7,0*51
$GNRMC,075333.70,D,3019.26443349,N,12004.24281295,E,1.817,263.8,101125,6.1,W,R,S*51
$WTRTK,-0.118,0.543,-0.015,0.556,-3.38,1.43,12.37,4,21,5,31,87,--,1,9.3,23.8,135,2,3019.25309585,N,12004.23620891,E,3.14,347.63,2.76*41
$GNGGA,075333.70,3019.26443349,N,12004.24281295,E,4,33,0.5,5.2152,M,7.8959,M,1.7,0*51
$GNRMC,075333.70,D,3019.26443349,N,12004.24281295,E,1.817,263.8,101125,6.1,W,R,S*51
$WTRTK,-0.118,0.543,-0.015,0.556,-3.34,1.46,12.43,4,21,5,31,87,--,1,9.3,23.8,135,2,3019.25308911,N,12004.23618295,E,3.12,347.57,2.76*4F
$GNGGA,075333.80,3019.26442412,N,12004.24275250,E,4,33,0.5,5.2194,M,7.8958,M,1.8,0*50
$GNRMC,075333.80,D,3019.26442412,N,12004.24275250,E,1.818,263.0,101125,6.1,W,R,S*53
$WTRTK,-0.122,0.559,-0.005,0.572,-3.39,1.46,12.48,4,21,5,31,87,--,1,9.3,23.8,135,2,3019.25308952,N,12004.23615208,E,3.12,347.52,2.76*47
$GNGGA,075333.80,3019.26442412,N,12004.24275250,E,4,33,0.5,5.2194,M,7.8958,M,1.8,0*50
$GNRMC,075333.80,D,3019.26442412,N,12004.24275250,E,1.818,263.0,101125,6.1,W,R,S*53
$WTRTK,-0.122,0.559,-0.005,0.572,-3.38,1.45,12.51,4,21,5,31,87,--,1,9.3,23.7,135,2,3019.25308289,N,12004.23612625,E,3.10,347.49,2.77*4A
$GNGGA,075333.90,3019.26441315,N,12004.24269255,E,4,33,0.5,5.2379,M,7.8958,M,1.9,0*5A
$GNRMC,075333.90,D,3019.26441315,N,12004.24269255,E,1.863,261.7,101125,6.1,W,R,S*50
$WTRTK,-0.123,0.558,-0.011,0.572,-3.31,1.44,12.52,4,21,5,31,87,--,1,9.3,23.7,135,2,3019.25308269,N,12004.23609524,E,3.10,347.48,2.77*43
$GNGGA,075333.90,3019.26441315,N,12004.24269255,E,4,33,0.5,5.2379,M,7.8958,M,1.9,0*5A
$GNRMC,075333.90,D,3019.26441315,N,12004.24269255,E,1.863,261.7,101125,6.1,W,R,S*50
$WTRTK,-0.123,0.558,-0.011,0.572,-3.35,1.44,12.54,4,21,5,31,87,--,1,9.3,23.8,135,2,3019.25307624,N,12004.23606952,E,3.09,347.46,2.77*48
$GNGGA,075334.00,3019.26440758,N,12004.24263554,E,4,36,0.5,5.2372,M,7.8958,M,2.0,0*50
$GNRMC,075334.00,D,3019.26440758,N,12004.24263554,E,1.857,261.0,101125,6.1,W,R,S*5E
$WTRTK,-0.124,0.541,-0.006,0.555,-3.38,1.44,12.55,4,21,5,31,0,--,1,9.3,23.9,135,2,3019.25306974,N,12004.23604385,E,3.08,347.45,2.77*7D
$GNGGA,075334.00,3019.26440758,N,12004.24263554,E,4,36,0.5,5.2372,M,7.8958,M,2.0,0*50
$GNRMC,075334.00,D,3019.26440758,N,12004.24263554,E,1.857,261.0,101125,6.1,W,R,S*5E
$WTRTK,-0.124,0.541,-0.006,0.555,-3.42,1.44,12.60,4,21,5,31,0,--,1,9.3,23.8,135,2,3019.25306818,N,12004.23601150,E,3.09,347.40,2.77*77
$GNGGA,075334.10,3019.26440087,N,12004.24257477,E,4,33,0.5,5.2560,M,7.8958,M,2.1,0*52
$GNRMC,075334.10,D,3019.26440087,N,12004.24257477,E,1.857,258.0,101125,6.1,W,R,S*57
$WTRTK,-0.123,0.541,-0.010,0.555,-3.40,1.44,12.64,4,21,5,31,0,--,1,9.3,23.8,135,2,3019.25306158,N,12004.23598590,E,3.07,347.36,2.77*78
$GNGGA,075334.10,3019.26440087,N,12004.24257477,E,4,33,0.5,5.2560,M,7.8958,M,2.1,0*52
$GNRMC,075334.10,D,3019.26440087,N,12004.24257477,E,1.857,258.0,101125,6.1,W,R,S*57
$WTRTK,-0.123,0.541,-0.010,0.555,-3.42,1.47,12.69,4,21,5,31,0,--,1,9.3,23.8,135,2,3019.25305490,N,12004.23596046,E,3.07,347.31,2.77*71
$GNGGA,075334.20,3019.26438986,N,12004.24251744,E,4,32,0.5,5.2463,M,7.8958,M,2.2,0*53
$GNRMC,075334.20,D,3019.26438986,N,12004.24251744,E,1.866,260.6,101125,6.1,W,R,S*59
$WTRTK,-0.125,0.542,-0.008,0.556,-3.42,1.44,12.76,4,21,5,31,0,--,1,9.3,23.9,135,2,3019.25304795,N,12004.23593516,E,3.06,347.24,2.77*75
$GNGGA,075334.20,3019.26438986,N,12004.24251744,E,4,32,0.5,5.2463,M,7.8958,M,2.2,0*53
$GNRMC,075334.20,D,3019.26438986,N,12004.24251744,E,1.866,260.6,101125,6.1,W,R,S*59
$WTRTK,-0.125,0.542,-0.008,0.556,-3.39,1.52,12.84,4,21,5,31,0,--,1,9.3,23.9,135,2,3019.25304074,N,12004.23591009,E,3.04,347.16,2.77*71
$GNGGA,075334.30,3019.26437571,N,12004.24245743,E,4,31,0.5,5.2494,M,7.8958,M,2.3,0*51
$GNRMC,075334.30,D,3019.26437571,N,12004.24245743,E,1.875,257.8,101125,6.1,W,R,S*59
$WTRTK,-0.126,0.546,-0.007,0.560,-3.34,1.49,12.97,4,21,5,31,0,--,1,9.3,23.8,135,2,3019.25303340,N,12004.23588519,E,3.02,347.03,2.78*7A
$GNGGA,075334.30,3019.26437571,N,12004.24245743,E,4,31,0.5,5.2494,M,7.8958,M,2.3,0*51
$GNRMC,075334.30,D,3019.26437571,N,12004.24245743,E,1.875,257.8,101125,6.1,W,R,S*59
$WTRTK,-0.126,0.546,-0.007,0.560,-3.32,1.49,13.14,4,21,5,31,0,--,1,9.3,23.7,135,2,3019.25302602,N,12004.23586053,E,3.01,346.86,2.78*71
$GNGGA,075334.40,3019.26436418,N,12004.24239624,E,4,33,0.5,5.2498,M,7.8958,M,2.4,0*5B
$GNRMC,075334.40,D,3019.26436418,N,12004.24239624,E,1.898,257.7,101125,6.1,W,R,S*56
$WTRTK,-0.125,0.551,-0.001,0.565,-3.31,1.50,13.33,4,21,5,31,87,--,1,9.3,23.8,135,2,3019.25301853,N,12004.23583606,E,2.99,346.67,2.78*4C
$GNGGA,075334.40,3019.26436418,N,12004.24239624,E,4,33,0.5,5.2498,M,7.8958,M,2.4,0*5B
$GNRMC,075334.40,D,3019.26436418,N,12004.24239624,E,1.898,257.7,101125,6.1,W,R,S*56
$WTRTK,-0.125,0.551,-0.001,0.565,-3.27,1.53,13.52,4,21,5,31,87,--,1,9.3,23.8,135,2,3019.25301093,N,12004.23581182,E,2.96,346.48,2.78*40
$GNGGA,075334.50,3019.26435155,N,12004.24233843,E,4,33,0.5,5.2616,M,7.8958,M,2.5,0*55
$GNRMC,075334.50,D,3019.26435155,N,12004.24233843,E,1.891,256.3,101125,6.1,W,R,S*51
$WTRTK,-0.127,0.556,0.002,0.570,-3.28,1.54,13.73,4,21,5,31,87,--,1,9.3,23.8,134,2,3019.25300323,N,12004.23578786,E,2.93,346.27,2.78*64
$GNGGA,075334.50,3019.26435155,N,12004.24233843,E,4,33,0.5,5.2616,M,7.8958,M,2.5,0*55
$GNRMC,075334.50,D,3019.26435155,N,12004.24233843,E,1.891,256.3,101125,6.1,W,R,S*51
$WTRTK,-0.127,0.556,0.002,0.570,-3.22,1.53,13.95,4,21,5,31,87,--,1,9.3,23.8,134,2,3019.25299556,N,12004.23576413,E,2.91,346.05,2.78*67
$GNGGA,075334.60,3019.26434076,N,12004.24228106,E,4,34,0.5,5.2508,M,7.8958,M,2.6,0*5D
$GNRMC,075334.60,D,3019.26434076,N,12004.24228106,E,1.864,257.1,101125,6.1,W,R,S*58
$WTRTK,-0.134,0.554,-0.004,0.570,-3.21,1.51,14.17,4,21,5,31,87,--,1,9.3,23.8,134,2,3019.25298790,N,12004.23574061,E,2.89,345.83,2.78*4E
$GNGGA,075334.60,3019.26434076,N,12004.24228106,E,4,34,0.5,5.2508,M,7.8958,M,2.6,0*5D
$GNRMC,075334.60,D,3019.26434076,N,12004.24228106,E,1.864,257.1,101125,6.1,W,R,S*58
$WTRTK,-0.134,0.554,-0.004,0.570,-3.13,1.47,14.39,4,21,5,31,87,--,1,9.3,23.8,134,2,3019.25298021,N,12004.23571728,E,2.87,345.61,2.79*45
$GNGGA,075334.70,3019.26433110,N,12004.24222639,E,4,34,0.5,5.2562,M,7.8958,M,2.7,0*56
$GNRMC,075334.70,D,3019.26433110,N,12004.24222639,E,1.783,258.2,101125,6.1,W,R,S*54
$WTRTK,-0.144,0.551,-0.013,0.570,-3.17,1.51,14.64,4,21,5,31,87,--,1,9.3,23.7,134,2,3019.25297252,N,12004.23569424,E,2.84,345.36,2.79*4B
$GNGGA,075334.70,3019.26433110,N,12004.24222639,E,4,34,0.5,5.2562,M,7.8958,M,2.7,0*56
$GNRMC,075334.70,D,3019.26433110,N,12004.24222639,E,1.783,258.2,101125,6.1,W,R,S*54
$WTRTK,-0.144,0.551,-0.013,0.570,-3.18,1.49,14.90,4,21,5,31,87,--,1,9.3,23.8,134,2,3019.25296489,N,12004.23567139,E,2.82,345.10,2.79*4D
$GNGGA,075334.80,3019.26432037,N,12004.24216968,E,4,34,0.5,5.2613,M,7.8958,M,2.8,0*5A
$GNRMC,075334.80,D,3019.26432037,N,12004.24216968,E,1.782,257.8,101125,6.1,W,R,S*56
$WTRTK,-0.142,0.537,-0.006,0.556,-3.14,1.48,15.16,4,21,5,31,87,--,1,9.3,23.7,134,2,3019.25295734,N,12004.23564870,E,2.79,344.84,2.79*4F
$GNGGA,075334.80,3019.26432037,N,12004.24216968,E,4,34,0.5,5.2613,M,7.8958,M,2.8,0*5A
$GNRMC,075334.80,D,3019.26432037,N,12004.24216968,E,1.782,257.8,101125,6.1,W,R,S*56
$WTRTK,-0.142,0.537,-0.006,0.556,-3.07,1.55,15.38,4,21,5,31,87,--,1,9.3,23.8,134,2,3019.25294987,N,12004.23562624,E,2.77,344.62,2.79*4A
$GNGGA,075334.90,3019.26431012,N,12004.24211303,E,4,34,0.5,5.2538,M,7.8958,M,2.9,0*54
$GNRMC,075334.90,D,3019.26431012,N,12004.24211303,E,1.772,258.3,101125,6.1,W,R,S*58
$WTRTK,-0.149,0.532,-0.011,0.553,-3.05,1.54,15.60,4,21,5,31,87,--,1,9.3,23.9,134,2,3019.25294808,N,12004.23559047,E,2.77,344.40,2.79*45
$GNGGA,075334.90,3019.26431012,N,12004.24211303,E,4,34,0.5,5.2538,M,7.8958,M,2.9,0*54
$GNRMC,075334.90,D,3019.26431012,N,12004.24211303,E,1.772,258.3,101125,6.1,W,R,S*58
$WTRTK,-0.149,0.532,-0.011,0.553,-3.02,1.55,15.80,4,21,5,31,87,--,1,9.3,23.9,134,2,3019.25294079,N,12004.23556808,E,2.75,344.20,2.79*4B
$GNGGA,075335.00,3019.26429883,N,12004.24205900,E,4,35,0.5,5.2564,M,7.8958,M,3.0,0*59
$GNRMC,075335.00,D,3019.26429883,N,12004.24205900,E,1.780,257.3,101125,6.1,W,R,S*57
$WTRTK,-0.154,0.532,0.000,0.554,-2.99,1.49,16.03,4,21,5,31,0,--,1,9.3,23.7,134,2,3019.25293352,N,12004.23554585,E,2.73,343.97,2.79*50
$GNGGA,075335.00,3019.26429883,N,12004.24205900,E,4,35,0.5,5.2564,M,7.8958,M,3.0,0*59
$GNRMC,075335.00,D,3019.26429883,N,12004.24205900,E,1.780,257.3,101125,6.1,W,R,S*57
$WTRTK,-0.154,0.532,0.000,0.554,-3.00,1.49,16.26,4,21,5,31,0,--,1,9.3,23.7,134,2,3019.25293083,N,12004.23550969,E,2.73,343.74,2.80*58
$GNGGA,075335.10,3019.26428721,N,12004.24200216,E,4,35,0.5,5.2588,M,7.8958,M,3.1,0*54
$GNRMC,075335.10,D,3019.26428721,N,12004.24200216,E,1.783,256.3,101125,6.1,W,R,S*5B
$WTRTK,-0.154,0.535,0.008,0.557,-3.03,1.48,16.49,4,21,5,31,0,--,1,9.3,23.8,134,2,3019.25292773,N,12004.23547372,E,2.73,343.51,2.80*58
$GNGGA,075335.10,3019.26428721,N,12004.24200216,E,4,35,0.5,5.2588,M,7.8958,M,3.1,0*54
$GNRMC,075335.10,D,3019.26428721,N,12004.24200216,E,1.783,256.3,101125,6.1,W,R,S*5B
$WTRTK,-0.154,0.535,0.008,0.557,-3.02,1.52,16.69,4,21,5,31,0,--,1,9.3,23.8,134,2,3019.25292081,N,12004.23545154,E,2.72,343.31,2.80*59
$GNGGA,075335.20,3019.26427603,N,12004.24194794,E,4,35,0.5,5.2501,M,7.8958,M,3.2,0*5A
$GNRMC,075335.20,D,3019.26427603,N,12004.24194794,E,1.752,255.4,101125,6.1,W,R,S*5F
$WTRTK,-0.160,0.537,0.008,0.560,-3.04,1.54,16.91,4,21,5,31,737,--,1,9.3,23.8,134,2,3019.25291621,N,12004.23541692,E,2.72,343.09,2.80*51
$GNGGA,075335.20,3019.26427603,N,12004.24194794,E,4,35,0.5,5.2501,M,7.8958,M,3.2,0*5A
$GNRMC,075335.20,D,3019.26427603,N,12004.24194794,E,1.752,255.4,101125,6.1,W,R,S*5F
$WTRTK,-0.160,0.537,0.008,0.560,-3.01,1.55,17.09,4,21,5,31,737,--,1,9.3,23.8,134,2,3019.25290958,N,12004.23539468,E,2.71,342.91,2.80*5E
$GNGGA,075335.30,3019.26426495,N,12004.24189204,E,4,35,0.5,5.2604,M,7.8958,M,2.3,0*51
$GNRMC,075335.30,D,3019.26426495,N,12004.24189204,E,1.743,255.7,101125,6.1,W,R,S*51
$WTRTK,-0.158,0.536,0.011,0.559,-3.01,1.54,17.28,4,21,5,31,2077,--,1,9.3,23.8,134,2,3019.25290427,N,12004.23536049,E,2.72,342.72,2.80*66
$GNGGA,075335.30,3019.26426495,N,12004.24189204,E,4,35,0.5,5.2604,M,7.8958,M,2.3,0*51
$GNRMC,075335.30,D,3019.26426495,N,12004.24189204,E,1.743,255.7,101125,6.1,W,R,S*51
$WTRTK,-0.158,0.536,0.011,0.559,-2.98,1.52,17.45,4,21,5,31,2220,--,1,9.3,23.8,134,2,3019.25289788,N,12004.23533824,E,2.69,342.55,2.80*6D
$GNGGA,075335.40,3019.26425267,N,12004.24184028,E,4,35,0.5,5.2613,M,7.8958,M,2.4,0*5E
$GNRMC,075335.40,D,3019.26425267,N,12004.24184028,E,1.705,256.2,101125,6.1,W,R,S*5B
$WTRTK,-0.177,0.492,-0.037,0.524,-3.01,1.48,17.65,5,21,5,31,2307,--,1,9.3,23.6,134,2,3019.25289241,N,12004.23530555,E,2.69,342.35,2.81*40
$GNGGA,075335.40,3019.26425267,N,12004.24184028,E,4,35,0.5,5.2613,M,7.8958,M,2.4,0*5E
$GNRMC,075335.40,D,3019.26425267,N,12004.24184028,E,1.705,256.2,101125,6.1,W,R,S*5B
$WTRTK,-0.177,0.492,-0.037,0.524,-3.05,1.47,17.87,5,21,5,31,2307,--,1,9.3,23.9,134,2,3019.25288597,N,12004.23528356,E,2.67,342.13,2.81*43
$GNGGA,075335.50,3019.26423866,N,12004.24178699,E,4,35,0.5,5.2694,M,7.8958,M,1.5,0*50
$GNRMC,075335.50,D,3019.26423866,N,12004.24178699,E,1.697,255.9,101125,6.1,W,R,S*5A
$WTRTK,-0.180,0.505,-0.040,0.538,-3.03,1.46,18.06,4,21,5,31,2307,--,1,9.3,23.8,134,2,3019.25288188,N,12004.23525137,E,2.67,341.94,2.81*46
$GNGGA,075335.50,3019.26423866,N,12004.24178699,E,4,35,0.5,5.2694,M,7.8958,M,1.5,0*50
$GNRMC,075335.50,D,3019.26423866,N,12004.24178699,E,1.697,255.9,101125,6.1,W,R,S*5A
$WTRTK,-0.180,0.505,-0.040,0.538,-3.04,1.45,18.27,4,21,5,31,2307,--,1,9.3,23.8,134,2,3019.25287531,N,12004.23522960,E,2.66,341.73,2.81*4D
$GNGGA,075335.60,3019.26422669,N,12004.24173067,E,4,34,0.5,5.2722,M,7.8958,M,1.6,0*51
$GNRMC,075335.60,D,3019.26422669,N,12004.24173067,E,1.700,255.8,101125,6.1,W,R,S*5B
$WTRTK,-0.173,0.519,0.000,0.547,-3.03,1.42,18.51,4,21,5,31,2307,--,1,9.3,23.7,134,2,3019.25287094,N,12004.23519802,E,2.67,341.49,2.81*6C
$GNGGA,075335.60,3019.26422669,N,12004.24173067,E,4,34,0.5,5.2722,M,7.8958,M,1.6,0*51
$GNRMC,075335.60,D,3019.26422669,N,12004.24173067,E,1.700,255.8,101125,6.1,W,R,S*5B
$WTRTK,-0.173,0.519,0.000,0.547,-2.97,1.43,18.72,4,21,5,31,2307,--,1,9.3,23.8,134,2,3019.25286421,N,12004.23517627,E,2.66,341.28,2.81*65
$GNGGA,075335.70,3019.26421348,N,12004.24167666,E,4,33,0.6,5.2663,M,7.8958,M,1.7,0*56
$GNRMC,075335.70,D,3019.26421348,N,12004.24167666,E,1.726,253.2,101125,6.1,W,R,S*55
$WTRTK,-0.174,0.528,0.018,0.556,-3.00,1.46,18.91,4,21,5,31,2307,--,1,9.3,23.9,133,2,3019.25285898,N,12004.23514819,E,2.67,341.09,2.82*64
$GNGGA,075335.70,3019.26421348,N,12004.24167666,E,4,33,0.6,5.2663,M,7.8958,M,1.7,0*56
$GNRMC,075335.70,D,3019.26421348,N,12004.24167666,E,1.726,253.2,101125,6.1,W,R,S*55
$WTRTK,-0.174,0.528,0.018,0.556,-3.02,1.47,19.05,4,21,5,31,2307,--,1,9.3,23.8,133,2,3019.25285215,N,12004.23512641,E,2.68,340.95,2.82*6B
$GNGGA,075335.80,3019.26419773,N,12004.24162592,E,4,32,0.6,5.2673,M,7.8958,M,1.8,0*5C
$GNRMC,075335.80,D,3019.26419773,N,12004.24162592,E,1.773,249.2,101125,6.1,W,R,S*5B
$WTRTK,-0.188,0.525,0.002,0.558,-3.01,1.43,19.17,4,21,5,31,2307,--,1,9.3,23.7,133,2,3019.25284541,N,12004.23509593,E,2.70,340.83,2.82*64
$GNGGA,075335.80,3019.26419773,N,12004.24162592,E,4,32,0.6,5.2673,M,7.8958,M,1.8,0*5C
$GNRMC,075335.80,D,3019.26419773,N,12004.24162592,E,1.773,249.2,101125,6.1,W,R,S*5B
$WTRTK,-0.188,0.525,0.002,0.558,-3.03,1.40,19.26,4,21,5,31,2307,--,1,9.3,23.8,133,2,3019.25283854,N,12004.23507388,E,2.70,340.74,2.82*6C
$GNGGA,075335.90,3019.26418226,N,12004.24156942,E,4,33,0.6,5.2703,M,7.8958,M,1.9,0*59
$GNRMC,075335.90,D,3019.26418226,N,12004.24156942,E,1.803,249.2,101125,6.1,W,R,S*50
$WTRTK,-0.187,0.528,0.002,0.560,-3.04,1.41,19.30,4,21,5,31,2307,--,1,9.3,23.7,133,2,3019.25282731,N,12004.23504109,E,2.72,340.70,2.82*68
$GNGGA,075335.90,3019.26418226,N,12004.24156942,E,4,33,0.6,5.2703,M,7.8958,M,1.9,0*59
$GNRMC,075335.90,D,3019.26418226,N,12004.24156942,E,1.803,249.2,101125,6.1,W,R,S*50
$WTRTK,-0.187,0.528,0.002,0.560,-3.03,1.38,19.34,4,21,5,31,2307,--,1,9.3,23.7,133,2,3019.25282034,N,12004.23501886,E,2.73,340.66,2.82*6A
$GNGGA,075336.00,3019.26416572,N,12004.24151723,E,4,34,0.5,5.2672,M,7.8958,M,2.0,0*5C
$GNRMC,075336.00,D,3019.26416572,N,12004.24151723,E,1.829,250.2,101125,6.1,W,R,S*5C
$WTRTK,-0.189,0.535,0.009,0.568,-3.00,1.40,19.34,4,21,5,31,0,--,1,9.3,23.7,133,2,3019.25281334,N,12004.23499666,E,2.73,340.66,2.82*51
$GNGGA,075336.00,3019.26416572,N,12004.24151723,E,4,34,0.5,5.2672,M,7.8958,M,2.0,0*5C
$GNRMC,075336.00,D,3019.26416572,N,12004.24151723,E,1.829,250.2,101125,6.1,W,R,S*5C
$WTRTK,-0.189,0.535,0.009,0.568,-2.96,1.38,19.34,4,21,5,31,0,--,1,9.3,23.9,133,2,3019.25280437,N,12004.23496720,E,2.74,340.66,2.82*50
$GNGGA,075336.10,3019.26414882,N,12004.24146267,E,4,32,0.5,5.2710,M,7.8958,M,2.1,0*5C
$GNRMC,075336.10,D,3019.26414882,N,12004.24146267,E,1.836,250.6,101125,6.1,W,R,S*54
$WTRTK,-0.194,0.517,-0.011,0.553,-2.93,1.39,19.31,4,21,5,31,0,--,1,9.3,23.7,133,2,3019.25279543,N,12004.23493790,E,2.77,340.69,2.81*7A
$GNGGA,075336.10,3019.26414882,N,12004.24146267,E,4,32,0.5,5.2710,M,7.8958,M,2.1,0*5C
$GNRMC,075336.10,D,3019.26414882,N,12004.24146267,E,1.836,250.6,101125,6.1,W,R,S*54
$WTRTK,-0.194,0.517,-0.011,0.553,-2.92,1.40,19.28,4,21,5,31,0,--,1,9.3,23.7,133,2,3019.25278832,N,12004.23491534,E,2.77,340.72,2.81*73
$GNGGA,075336.20,3019.26413509,N,12004.24140912,E,4,34,0.5,5.2717,M,7.8958,M,2.2,0*5B
$GNRMC,075336.20,D,3019.26413509,N,12004.24140912,E,1.828,251.6,101125,6.1,W,R,S*5F
$WTRTK,-0.203,0.538,-0.001,0.575,-2.93,1.38,19.24,4,21,5,31,0,--,1,9.3,23.7,133,2,3019.25277930,N,12004.23488513,E,2.79,340.76,2.81*7F
$GNGGA,075336.20,3019.26413509,N,12004.24140912,E,4,34,0.5,5.2717,M,7.8958,M,2.2,0*5B
$GNRMC,075336.20,D,3019.26413509,N,12004.24140912,E,1.828,251.6,101125,6.1,W,R,S*5F
$WTRTK,-0.203,0.538,-0.001,0.575,-2.93,1.38,19.17,4,21,5,31,0,--,1,9.3,23.8,133,2,3019.25277225,N,12004.23486239,E,2.79,340.83,2.81*74
$GNGGA,075336.30,3019.26412206,N,12004.24135146,E,4,34,0.5,5.2707,M,7.8958,M,2.3,0*58
$GNRMC,075336.30,D,3019.26412206,N,12004.24135146,E,1.819,252.8,101125,6.1,W,R,S*53
$WTRTK,-0.197,0.529,-0.001,0.565,-2.95,1.37,19.11,4,21,5,31,0,--,1,9.3,23.9,133,2,3019.25276318,N,12004.23482725,E,2.83,340.89,2.81*78
$GNGGA,075336.30,3019.26412206,N,12004.24135146,E,4,34,0.5,5.2707,M,7.8958,M,2.3,0*58
$GNRMC,075336.30,D,3019.26412206,N,12004.24135146,E,1.819,252.8,101125,6.1,W,R,S*53
$WTRTK,-0.197,0.529,-0.001,0.565,-2.93,1.38,19.03,4,21,5,31,0,--,1,9.3,23.8,133,2,3019.25275594,N,12004.23480422,E,2.83,340.97,2.81*7B
$GNGGA,075336.40,3019.26410710,N,12004.24129456,E,4,34,0.5,5.2681,M,7.8958,M,2.4,0*5E
$GNRMC,075336.40,D,3019.26410710,N,12004.24129456,E,1.830,253.5,101125,6.1,W,R,S*5A
$WTRTK,-0.187,0.533,0.011,0.565,-2.95,1.40,18.95,4,21,5,31,87,--,1,9.3,23.9,133,2,3019.25274860,N,12004.23477047,E,2.85,341.05,2.81*60
$GNGGA,075336.40,3019.26410710,N,12004.24129456,E,4,34,0.5,5.2681,M,7.8958,M,2.4,0*5E
$GNRMC,075336.40,D,3019.26410710,N,12004.24129456,E,1.830,253.5,101125,6.1,W,R,S*5A
$WTRTK,-0.187,0.533,0.011,0.565,-2.99,1.38,18.88,4,21,5,31,87,--,1,9.3,23.8,133,2,3019.25274133,N,12004.23474724,E,2.85,341.12,2.81*66
$GNGGA,075336.50,3019.26409028,N,12004.24123531,E,4,34,0.5,5.2788,M,7.8958,M,2.5,0*58
$GNRMC,075336.50,D,3019.26409028,N,12004.24123531,E,1.847,253.7,101125,6.1,W,R,S*57
$WTRTK,-0.181,0.534,0.015,0.565,-2.95,1.36,18.81,4,21,5,31,87,--,1,9.3,23.8,133,2,3019.25273457,N,12004.23471473,E,2.86,341.19,2.82*67
$GNGGA,075336.50,3019.26409028,N,12004.24123531,E,4,34,0.5,5.2788,M,7.8958,M,2.5,0*58
$GNRMC,075336.50,D,3019.26409028,N,12004.24123531,E,1.847,253.7,101125,6.1,W,R,S*57
$WTRTK,-0.181,0.534,0.015,0.565,-2.90,1.33,18.78,4,21,5,31,87,--,1,9.3,23.8,133,2,3019.25272721,N,12004.23469144,E,2.86,341.22,2.82*62
$GNGGA,075336.60,3019.26407540,N,12004.24118203,E,4,35,0.5,5.2720,M,7.8958,M,2.6,0*50
$GNRMC,075336.60,D,3019.26407540,N,12004.24118203,E,1.828,253.5,101125,6.1,W,R,S*54
$WTRTK,-0.183,0.526,0.007,0.557,-2.88,1.33,18.73,4,21,5,31,835,--,1,9.3,23.8,133,2,3019.25272102,N,12004.23465566,E,2.90,341.27,2.82*5F
$GNGGA,075336.60,3019.26407540,N,12004.24118203,E,4,35,0.5,5.2720,M,7.8958,M,2.6,0*50
$GNRMC,075336.60,D,3019.26407540,N,12004.24118203,E,1.828,253.5,101125,6.1,W,R,S*54
$WTRTK,-0.183,0.526,0.007,0.557,-2.86,1.32,18.70,4,21,5,31,835,--,1,9.3,23.8,133,2,3019.25271333,N,12004.23463211,E,2.91,341.30,2.82*56
$GNGGA,075336.70,3019.26406011,N,12004.24112659,E,4,34,0.5,5.2712,M,7.8958,M,2.7,0*51
$GNRMC,075336.70,D,3019.26406011,N,12004.24112659,E,1.823,253.2,101125,6.1,W,R,S*58
$WTRTK,-0.187,0.528,0.002,0.560,-2.86,1.29,18.69,4,21,5,31,835,--,1,9.3,23.7,133,2,3019.25270757,N,12004.23459742,E,2.94,341.31,2.82*59
$GNGGA,075336.70,3019.26406011,N,12004.24112659,E,4,34,0.5,5.2712,M,7.8958,M,2.7,0*51
$GNRMC,075336.70,D,3019.26406011,N,12004.24112659,E,1.823,253.2,101125,6.1,W,R,S*58
$WTRTK,-0.187,0.528,0.002,0.560,-2.85,1.26,18.70,4,21,5,31,835,--,1,9.3,23.8,133,2,3019.25269949,N,12004.23457368,E,2.95,341.30,2.82*59
$GNGGA,075336.80,3019.26404520,N,12004.24107014,E,4,34,0.5,5.2642,M,7.8958,M,0.8,0*59
$GNRMC,075336.80,D,3019.26404520,N,12004.24107014,E,1.838,253.0,101125,6.1,W,R,S*51
$WTRTK,-0.182,0.533,0.023,0.564,-2.82,1.27,18.69,4,21,5,31,835,--,1,9.3,23.8,132,2,3019.25269373,N,12004.23454000,E,2.96,341.31,2.82*51
$GNGGA,075336.80,3019.26404520,N,12004.24107014,E,4,34,0.5,5.2642,M,7.8958,M,0.8,0*59
$GNRMC,075336.80,D,3019.26404520,N,12004.24107014,E,1.838,253.0,101125,6.1,W,R,S*51
$WTRTK,-0.182,0.533,0.023,0.564,-2.81,1.31,18.69,4,21,5,31,835,--,1,9.3,23.8,132,2,3019.25268539,N,12004.23451613,E,2.97,341.31,2.82*5C
$GNGGA,075336.90,3019.26403052,N,12004.24101112,E,4,33,0.5,5.2661,M,7.8958,M,0.9,0*59
$GNRMC,075336.90,D,3019.26403052,N,12004.24101112,E,1.884,252.7,101125,6.1,W,R,S*57
$WTRTK,-0.178,0.531,0.018,0.561,-2.77,1.31,18.70,4,21,5,31,835,--,1,9.3,23.8,132,2,3019.25267985,N,12004.23448216,E,3.00,341.30,2.82*54
$GNGGA,075336.90,3019.26403052,N,12004.24101112,E,4,33,0.5,5.2661,M,7.8958,M,0.9,0*59
$GNRMC,075336.90,D,3019.26403052,N,12004.24101112,E,1.884,252.7,101125,6.1,W,R,S*57
$WTRTK,-0.178,0.531,0.018,0.561,-2.75,1.35,18.68,4,21,5,31,835,--,1,9.3,23.8,132,2,3019.25267126,N,12004.23445816,E,3.00,341.32,2.82*5F
$GNGGA,075337.00,3019.26401368,N,12004.24095056,E,4,32,0.5,5.2745,M,7.8958,M,1.0,0*5A
$GNRMC,075337.00,D,3019.26401368,N,12004.24095056,E,1.926,253.0,101125,6.1,W,R,S*55
$WTRTK,-0.181,0.530,0.008,0.561,-2.75,1.32,18.64,4,21,5,31,0,--,1,9.3,23.8,132,2,3019.25266265,N,12004.23443412,E,3.01,341.36,2.82*52
$GNGGA,075337.00,3019.26401368,N,12004.24095056,E,4,32,0.5,5.2745,M,7.8958,M,1.0,0*5A
$GNRMC,075337.00,D,3019.26401368,N,12004.24095056,E,1.926,253.0,101125,6.1,W,R,S*55
$WTRTK,-0.181,0.530,0.008,0.561,-2.76,1.27,18.56,4,21,5,31,0,--,1,9.3,23.7,132,2,3019.25265642,N,12004.23439732,E,3.02,341.44,2.82*53
$GNGGA,075337.10,3019.26399966,N,12004.24089068,E,4,32,0.5,5.2659,M,7.8958,M,1.1,0*54
$GNRMC,075337.10,D,3019.26399966,N,12004.24089068,E,1.945,252.6,101125,6.1,W,R,S*54
$WTRTK,-0.173,0.525,0.019,0.553,-2.70,1.33,18.45,4,21,5,31,0,--,1,9.3,23.8,132,2,3019.25265025,N,12004.23436102,E,3.03,341.55,2.81*5A
$GNGGA,075337.10,3019.26399966,N,12004.24089068,E,4,32,0.5,5.2659,M,7.8958,M,1.1,0*54
$GNRMC,075337.10,D,3019.26399966,N,12004.24089068,E,1.945,252.6,101125,6.1,W,R,S*54
$WTRTK,-0.173,0.525,0.019,0.553,-2.69,1.29,18.41,4,21,5,31,0,--,1,9.3,23.8,132,2,3019.25264185,N,12004.23433653,E,3.05,341.59,2.81*5B
$GNGGA,075337.20,3019.26397959,N,12004.24083428,E,4,33,0.5,5.2640,M,7.8958,M,1.2,0*55
$GNRMC,075337.20,D,3019.26397959,N,12004.24083428,E,1.942,252.7,101125,6.1,W,R,S*59
$WTRTK,-0.176,0.531,0.011,0.560,-2.67,1.30,18.35,4,21,5,31,0,--,1,9.3,23.8,132,2,3019.25263455,N,12004.23430140,E,3.09,341.65,2.81*5C
$GNGGA,075337.20,3019.26397959,N,12004.24083428,E,4,33,0.5,5.2640,M,7.8958,M,1.2,0*55
$GNRMC,075337.20,D,3019.26397959,N,12004.24083428,E,1.942,252.7,101125,6.1,W,R,S*59
$WTRTK,-0.176,0.531,0.011,0.560,-2.65,1.27,18.26,4,21,5,31,0,--,1,9.3,23.8,132,2,3019.25262623,N,12004.23427635,E,3.10,341.74,2.81*53
$GNGGA,075337.30,3019.26396487,N,12004.24077510,E,4,32,0.5,5.2585,M,7.8958,M,1.3,0*50
$GNRMC,075337.30,D,3019.26396487,N,12004.24077510,E,1.905,253.5,101125,6.1,W,R,S*56
$WTRTK,-0.175,0.536,0.014,0.564,-2.63,1.23,18.15,4,21,5,31,0,--,1,9.3,23.9,132,2,3019.25261882,N,12004.23424068,E,3.13,341.85,2.81*53
$GNGGA,075337.30,3019.26396487,N,12004.24077510,E,4,32,0.5,5.2585,M,7.8958,M,1.3,0*50
$GNRMC,075337.30,D,3019.26396487,N,12004.24077510,E,1.905,253.5,101125,6.1,W,R,S*56
$WTRTK,-0.175,0.536,0.014,0.564,-2.64,1.20,18.01,4,21,5,31,0,--,1,9.3,23.8,132,2,3019.25261071,N,12004.23421524,E,3.13,341.99,2.81*52
$GNGGA,075337.40,3019.26394922,N,12004.24071884,E,4,33,0.5,5.2507,M,7.8958,M,1.4,0*5D
$GNRMC,075337.40,D,3019.26394922,N,12004.24071884,E,1.866,253.3,101125,6.1,W,R,S*55
$WTRTK,-0.180,0.533,0.011,0.563,-2.62,1.18,17.84,4,21,5,31,87,--,1,9.3,23.7,132,2,3019.25260389,N,12004.23418345,E,3.15,342.16,2.81*6C
$GNGGA,075337.40,3019.26394922,N,12004.24071884,E,4,33,0.5,5.2507,M,7.8958,M,1.4,0*5D
$GNRMC,075337.40,D,3019.26394922,N,12004.24071884,E,1.866,253.3,101125,6.1,W,R,S*55
$WTRTK,-0.180,0.533,0.011,0.563,-2.62,1.14,17.65,4,21,5,31,87,--,1,9.3,23.7,132,2,3019.25259606,N,12004.23415764,E,3.16,342.35,2.81*6F
$GNGGA,075337.50,3019.26393763,N,12004.24066039,E,4,34,0.5,5.2511,M,7.8958,M,1.5,0*59
$GNRMC,075337.50,D,3019.26393763,N,12004.24066039,E,1.827,254.8,101125,6.1,W,R,S*59
$WTRTK,-0.166,0.519,0.000,0.545,-2.65,1.14,17.42,4,21,5,31,87,--,1,9.3,23.8,132,2,3019.25258911,N,12004.23412601,E,3.18,342.58,2.81*6E
$GNGGA,075337.50,3019.26393763,N,12004.24066039,E,4,34,0.5,5.2511,M,7.8958,M,1.5,0*59
$GNRMC,075337.50,D,3019.26393763,N,12004.24066039,E,1.827,254.8,101125,6.1,W,R,S*59
$WTRTK,-0.166,0.519,0.000,0.545,-2.63,1.11,17.18,4,21,5,31,87,--,1,9.3,23.8,132,2,3019.25258165,N,12004.23409978,E,3.18,342.82,2.81*65
$GNGGA,075337.60,3019.26392260,N,12004.24060523,E,4,34,0.5,5.2531,M,7.8958,M,1.6,0*54
$GNRMC,075337.60,D,3019.26392260,N,12004.24060523,E,1.828,254.6,101125,6.1,W,R,S*54
$WTRTK,-0.168,0.528,0.004,0.554,-2.61,1.10,16.92,4,21,5,31,87,--,1,9.3,23.8,132,2,3019.25257614,N,12004.23406951,E,3.20,343.08,2.81*6F
$GNGGA,075337.60,3019.26392260,N,12004.24060523,E,4,34,0.5,5.2531,M,7.8958,M,1.6,0*54
$GNRMC,075337.60,D,3019.26392260,N,12004.24060523,E,1.828,254.6,101125,6.1,W,R,S*54
$WTRTK,-0.168,0.528,0.004,0.554,-2.61,1.05,16.66,4,21,5,31,809,--,1,9.3,23.7,132,2,3019.25256909,N,12004.23404296,E,3.20,343.34,2.81*5E
$GNGGA,075337.70,3019.26390582,N,12004.24054972,E,4,34,0.5,5.2575,M,7.8958,M,1.7,0*52
$GNRMC,075337.70,D,3019.26390582,N,12004.24054972,E,1.836,253.5,101125,6.1,W,R,S*58
$WTRTK,-0.164,0.528,-0.002,0.553,-2.59,1.02,16.38,4,21,5,31,809,--,1,9.3,23.8,132,2,3019.25256291,N,12004.23401322,E,3.22,343.62,2.81*76
$GNGGA,075337.70,3019.26390582,N,12004.24054972,E,4,34,0.5,5.2575,M,7.8958,M,1.7,0*52
$GNRMC,075337.70,D,3019.26390582,N,12004.24054972,E,1.836,253.5,101125,6.1,W,R,S*58
$WTRTK,-0.164,0.528,-0.002,0.553,-2.55,0.97,16.11,4,21,5,31,809,--,1,9.3,23.8,132,2,3019.25255630,N,12004.23398638,E,3.22,343.89,2.81*7C
$GNGGA,075337.80,3019.26389285,N,12004.24049430,E,4,36,0.5,5.2669,M,7.8958,M,0.8,0*50
$GNRMC,075337.80,D,3019.26389285,N,12004.24049430,E,1.826,253.4,101125,6.1,W,R,S*58
$WTRTK,-0.153,0.535,0.001,0.556,-2.53,0.94,15.85,4,21,5,31,809,--,1,9.3,23.9,132,2,3019.25254849,N,12004.23395657,E,3.21,344.15,2.81*51
$GNGGA,075337.80,3019.26389285,N,12004.24049430,E,4,36,0.5,5.2669,M,7.8958,M,0.8,0*50
$GNRMC,075337.80,D,3019.26389285,N,12004.24049430,E,1.826,253.4,101125,6.1,W,R,S*58
$WTRTK,-0.153,0.535,0.001,0.556,-2.58,0.87,15.68,4,21,5,31,809,--,1,9.3,23.7,132,2,3019.25254200,N,12004.23392974,E,3.22,344.32,2.81*5D
$GNGGA,075337.90,3019.26388313,N,12004.24043973,E,4,35,0.5,5.2626,M,7.8957,M,0.9,0*58
$GNRMC,075337.90,D,3019.26388313,N,12004.24043973,E,1.746,257.2,101125,6.1,W,R,S*5D
$WTRTK,-0.149,0.529,0.005,0.550,-2.55,0.83,15.55,4,21,5,31,809,--,1,9.3,23.8,131,2,3019.25253444,N,12004.23389981,E,3.19,344.45,2.81*5B
$GNGGA,075337.90,3019.26388313,N,12004.24043973,E,4,35,0.5,5.2626,M,7.8957,M,0.9,0*58
$GNRMC,075337.90,D,3019.26388313,N,12004.24043973,E,1.746,257.2,101125,6.1,W,R,S*5D
$WTRTK,-0.149,0.529,0.005,0.550,-2.59,0.90,15.46,4,21,5,31,809,--,1,9.3,23.9,131,2,3019.25252776,N,12004.23387336,E,3.17,344.54,2.81*53
$GNGGA,075338.00,3019.26387188,N,12004.24038680,E,4,35,0.5,5.2630,M,7.8957,M,1.0,0*51
$GNRMC,075338.00,D,3019.26387188,N,12004.24038680,E,1.699,257.8,101125,6.1,W,R,S*52
$WTRTK,-0.153,0.531,0.002,0.553,-2.61,0.89,15.41,4,21,5,31,0,--,1,9.3,23.7,131,2,3019.25252100,N,12004.23384705,E,3.16,344.59,2.81*52
$GNGGA,075338.00,3019.26387188,N,12004.24038680,E,4,35,0.5,5.2630,M,7.8957,M,1.0,0*51
$GNRMC,075338.00,D,3019.26387188,N,12004.24038680,E,1.699,257.8,101125,6.1,W,R,S*52
$WTRTK,-0.153,0.531,0.002,0.553,-2.58,0.86,15.44,4,21,5,31,0,--,1,9.3,23.7,131,2,3019.25251727,N,12004.23382045,E,3.14,344.56,2.80*5B
$GNGGA,075338.10,3019.26385955,N,12004.24033382,E,4,32,0.5,5.2591,M,7.8957,M,1.1,0*58
$GNRMC,075338.10,D,3019.26385955,N,12004.24033382,E,1.688,257.4,101125,6.1,W,R,S*59
$WTRTK,-0.162,0.540,0.003,0.564,-2.55,0.93,15.51,4,21,5,31,0,--,1,9.3,23.6,131,2,3019.25251034,N,12004.23379454,E,3.12,344.49,2.80*5B
$GNGGA,075338.10,3019.26385955,N,12004.24033382,E,4,32,0.5,5.2591,M,7.8957,M,1.1,0*58
$GNRMC,075338.10,D,3019.26385955,N,12004.24033382,E,1.688,257.4,101125,6.1,W,R,S*59
$WTRTK,-0.162,0.540,0.003,0.564,-2.55,0.96,15.63,4,21,5,31,0,--,1,9.3,23.6,131,2,3019.25250328,N,12004.23376886,E,3.10,344.37,2.80*57
$GNGGA,075338.20,3019.26384647,N,12004.24027772,E,4,29,0.6,5.2568,M,7.8957,M,1.2,0*54
$GNRMC,075338.20,D,3019.26384647,N,12004.24027772,E,1.686,257.3,101125,6.1,W,R,S*50
$WTRTK,-0.152,0.533,0.019,0.555,-2.55,0.90,15.85,4,21,5,31,0,--,1,9.3,23.8,131,2,3019.25249615,N,12004.23374341,E,3.07,344.15,2.80*5E
$GNGGA,075338.20,3019.26384647,N,12004.24027772,E,4,29,0.6,5.2568,M,7.8957,M,1.2,0*54
$GNRMC,075338.20,D,3019.26384647,N,12004.24027772,E,1.686,257.3,101125,6.1,W,R,S*50
$WTRTK,-0.152,0.533,0.019,0.555,-2.50,0.89,16.11,4,21,5,31,0,--,1,9.3,23.8,131,2,3019.25248902,N,12004.23371835,E,3.02,343.89,2.80*5F
$GNGGA,075338.30,3019.26383806,N,12004.24022492,E,4,29,0.6,5.2576,M,7.8957,M,1.3,0*5F
$GNRMC,075338.30,D,3019.26383806,N,12004.24022492,E,1.678,257.1,101125,6.1,W,R,S*56
$WTRTK,-0.162,0.524,-0.009,0.549,-2.57,0.86,16.45,4,21,5,31,0,--,1,9.3,23.7,131,2,3019.25248182,N,12004.23369365,E,2.99,343.55,2.80*78
$GNGGA,075338.30,3019.26383806,N,12004.24022492,E,4,29,0.6,5.2576,M,7.8957,M,1.3,0*5F
$GNRMC,075338.30,D,3019.26383806,N,12004.24022492,E,1.678,257.1,101125,6.1,W,R,S*56
$WTRTK,-0.162,0.524,-0.009,0.549,-2.55,0.88,16.81,4,21,5,31,722,--,1,9.3,23.7,131,2,3019.25247449,N,12004.23366940,E,2.93,343.19,2.80*76
$GNGGA,075338.40,3019.26382936,N,12004.24017625,E,4,29,0.6,5.2656,M,7.8957,M,1.4,0*55
$GNRMC,075338.40,D,3019.26382936,N,12004.24017625,E,1.661,256.7,101125,6.1,W,R,S*55
$WTRTK,-0.174,0.514,-0.024,0.543,-2.54,0.92,17.20,4,21,5,31,809,--,1,9.3,23.7,131,2,3019.25246714,N,12004.23364560,E,2.90,342.80,2.80*75
$GNGGA,075338.40,3019.26382936,N,12004.24017625,E,4,29,0.6,5.2656,M,7.8957,M,1.4,0*55
$GNRMC,075338.40,D,3019.26382936,N,12004.24017625,E,1.661,256.7,101125,6.1,W,R,S*55
$WTRTK,-0.174,0.514,-0.024,0.543,-2.53,0.87,17.65,4,21,5,31,809,--,1,9.3,23.7,131,2,3019.25245974,N,12004.23362206,E,2.87,342.35,2.80*75
$GNGGA,075338.50,3019.26381616,N,12004.24012722,E,4,29,0.6,5.2671,M,7.8957,M,0.5,0*5C
$GNRMC,075338.50,D,3019.26381616,N,12004.24012722,E,1.628,255.1,101125,6.1,W,R,S*51
$WTRTK,-0.180,0.520,-0.031,0.551,-2.53,0.84,18.13,4,21,5,31,809,--,1,9.3,23.7,131,2,3019.25245229,N,12004.23359884,E,2.84,341.87,2.80*71
$GNGGA,075338.50,3019.26381616,N,12004.24012722,E,4,29,0.6,5.2671,M,7.8957,M,0.5,0*5C
$GNRMC,075338.50,D,3019.26381616,N,12004.24012722,E,1.628,255.1,101125,6.1,W,R,S*51
$WTRTK,-0.180,0.520,-0.031,0.551,-2.50,0.80,18.65,4,21,5,31,809,--,1,9.3,23.8,131,2,3019.25244472,N,12004.23357599,E,2.80,341.35,2.80*73
$GNGGA,075338.60,3019.26380251,N,12004.24007710,E,4,29,0.6,5.2659,M,7.8957,M,0.6,0*55
$GNRMC,075338.60,D,3019.26380251,N,12004.24007710,E,1.615,254.4,101125,6.1,W,R,S*5B
$WTRTK,-0.191,0.506,-0.020,0.542,-2.54,0.76,19.20,4,21,5,31,809,--,1,9.3,23.7,131,2,3019.25243703,N,12004.23355349,E,2.78,340.80,2.80*74
$GNGGA,075338.60,3019.26380251,N,12004.24007710,E,4,29,0.6,5.2659,M,7.8957,M,0.6,0*55
$GNRMC,075338.60,D,3019.26380251,N,12004.24007710,E,1.615,254.4,101125,6.1,W,R,S*5B
$WTRTK,-0.191,0.506,-0.020,0.542,-2.55,0.69,19.72,4,21,5,31,809,--,1,9.3,23.8,131,2,3019.25242925,N,12004.23353124,E,2.75,340.28,2.80*78
$GNGGA,075338.70,3019.26378831,N,12004.24002712,E,4,29,0.6,5.2599,M,7.8957,M,0.7,0*56
$GNRMC,075338.70,D,3019.26378831,N,12004.24002712,E,1.604,253.9,101125,6.1,W,R,S*5C
$WTRTK,-0.204,0.517,-0.021,0.557,-2.53,0.65,20.25,4,21,5,31,809,--,1,9.3,23.8,131,2,3019.25242139,N,12004.23350938,E,2.72,339.75,2.80*72
$GNGGA,075338.70,3019.26378831,N,12004.24002712,E,4,29,0.6,5.2599,M,7.8957,M,0.7,0*56
$GNRMC,075338.70,D,3019.26378831,N,12004.24002712,E,1.604,253.9,101125,6.1,W,R,S*5C
$WTRTK,-0.204,0.517,-0.021,0.557,-2.58,0.64,20.76,4,21,5,31,809,--,1,9.3,23.7,131,2,3019.25241360,N,12004.23348773,E,2.69,339.24,2.80*7A
$GNGGA,075338.80,3019.26377520,N,12004.23997879,E,4,29,0.6,5.2629,M,7.8957,M,0.8,0*5C
$GNRMC,075338.80,D,3019.26377520,N,12004.23997879,E,1.615,253.0,101125,6.1,W,R,S*58
$WTRTK,-0.214,0.506,-0.025,0.550,-2.58,0.62,21.23,4,21,5,31,809,--,1,9.3,23.8,131,2,3019.25240595,N,12004.23346629,E,2.67,338.77,2.80*74
$GNGGA,075338.80,3019.26377520,N,12004.23997879,E,4,29,0.6,5.2629,M,7.8957,M,0.8,0*5C
$GNRMC,075338.80,D,3019.26377520,N,12004.23997879,E,1.615,253.0,101125,6.1,W,R,S*58
$WTRTK,-0.214,0.506,-0.025,0.550,-2.55,0.65,21.63,4,21,5,31,809,--,1,9.3,23.9,131,2,3019.25239849,N,12004.23344500,E,2.64,338.37,2.80*74
$GNGGA,075338.90,3019.26376186,N,12004.23992958,E,4,30,0.6,5.2632,M,7.8957,M,0.9,0*50
$GNRMC,075338.90,D,3019.26376186,N,12004.23992958,E,1.570,250.9,101125,6.1,W,R,S*5D
$WTRTK,-0.210,0.515,-0.004,0.556,-2.59,0.69,22.01,4,21,5,31,809,--,1,9.3,23.7,131,2,3019.25239124,N,12004.23342380,E,2.62,337.99,2.80*79
$GNGGA,075338.90,3019.26376186,N,12004.23992958,E,4,30,0.6,5.2632,M,7.8957,M,0.9,0*50
$GNRMC,075338.90,D,3019.26376186,N,12004.23992958,E,1.570,250.9,101125,6.1,W,R,S*5D
$WTRTK,-0.210,0.515,-0.004,0.556,-2.63,0.68,22.36,4,21,5,31,809,--,1,9.3,23.8,131,2,3019.25238412,N,12004.23340271,E,2.60,337.64,2.80*76
$GNGGA,075339.00,3019.26374305,N,12004.23988113,E,4,33,0.6,5.2605,M,7.8957,M,1.0,0*50
$GNRMC,075339.00,D,3019.26374305,N,12004.23988113,E,1.555,247.7,101125,6.1,W,R,S*5D
$WTRTK,-0.208,0.526,0.020,0.566,-2.62,0.67,22.71,4,21,5,31,0,--,1,9.3,23.7,131,2,3019.25237701,N,12004.23338177,E,2.59,337.29,2.80*53
$GNGGA,075339.00,3019.26374305,N,12004.23988113,E,4,33,0.6,5.2605,M,7.8957,M,1.0,0*50
$GNRMC,075339.00,D,3019.26374305,N,12004.23988113,E,1.555,247.7,101125,6.1,W,R,S*5D
$WTRTK,-0.208,0.526,0.020,0.566,-2.64,0.71,23.07,4,21,5,31,0,--,1,9.3,23.7,131,2,3019.25236978,N,12004.23336110,E,2.56,336.93,2.80*53
$GNGGA,075339.10,3019.26372627,N,12004.23983448,E,4,33,0.6,5.2571,M,7.8957,M,1.1,0*53
$GNRMC,075339.10,D,3019.26372627,N,12004.23983448,E,1.552,248.4,101125,6.1,W,R,S*54
$WTRTK,-0.220,0.519,0.031,0.565,-2.68,0.71,23.43,4,21,5,31,0,--,1,9.3,23.8,130,2,3019.25236234,N,12004.23334069,E,2.54,336.57,2.80*50
$GNGGA,075339.10,3019.26372627,N,12004.23983448,E,4,33,0.6,5.2571,M,7.8957,M,1.1,0*53
$GNRMC,075339.10,D,3019.26372627,N,12004.23983448,E,1.552,248.4,101125,6.1,W,R,S*54
$WTRTK,-0.220,0.519,0.031,0.565,-2.66,0.68,23.82,4,21,5,31,0,--,1,9.3,23.8,130,2,3019.25235475,N,12004.23332058,E,2.52,336.18,2.80*52
$GNGGA,075339.20,3019.26371090,N,12004.23978691,E,4,33,0.6,5.2575,M,7.8957,M,1.2,0*5C
$GNRMC,075339.20,D,3019.26371090,N,12004.23978691,E,1.600,246.0,101125,6.1,W,R,S*52
$WTRTK,-0.234,0.528,0.042,0.579,-2.63,0.68,24.24,4,21,5,31,0,--,1,9.3,23.8,130,2,3019.25234701,N,12004.23330077,E,2.49,335.76,2.80*5D
$GNGGA,075339.20,3019.26371090,N,12004.23978691,E,4,33,0.6,5.2575,M,7.8957,M,1.2,0*5C
$GNRMC,075339.20,D,3019.26371090,N,12004.23978691,E,1.600,246.0,101125,6.1,W,R,S*52
$WTRTK,-0.234,0.528,0.042,0.579,-2.66,0.69,24.68,4,21,5,31,0,--,1,9.3,23.8,130,2,3019.25233905,N,12004.23328124,E,2.48,335.32,2.80*53
$GNGGA,075339.30,3019.26369672,N,12004.23974176,E,4,33,0.6,5.2554,M,7.8957,M,1.3,0*5E
$GNRMC,075339.30,D,3019.26369672,N,12004.23974176,E,1.572,246.8,101125,6.1,W,R,S*5C
$WTRTK,-0.246,0.534,0.052,0.591,-2.63,0.74,25.10,5,21,5,31,0,--,1,9.3,23.9,130,2,3019.25233090,N,12004.23326200,E,2.46,334.90,2.80*52
$GNGGA,075339.30,3019.26369672,N,12004.23974176,E,4,33,0.6,5.2554,M,7.8957,M,1.3,0*5E
$GNRMC,075339.30,D,3019.26369672,N,12004.23974176,E,1.572,246.8,101125,6.1,W,R,S*5C
$WTRTK,-0.246,0.534,0.052,0.591,-2.60,0.80,25.46,5,21,5,31,730,--,1,9.3,23.9,130,2,3019.25232273,N,12004.23324292,E,2.45,334.54,2.80*51
$GNGGA,075339.40,3019.26368120,N,12004.23969443,E,4,33,0.6,5.2597,M,7.8957,M,1.4,0*5F
$GNRMC,075339.40,D,3019.26368120,N,12004.23969443,E,1.644,247.9,101125,6.1,W,R,S*53
$WTRTK,-0.247,0.508,-0.010,0.566,-2.65,0.83,25.78,4,21,5,31,817,--,1,9.3,23.9,130,2,3019.25231464,N,12004.23322382,E,2.45,334.22,2.80*78
$GNGGA,075339.40,3019.26368120,N,12004.23969443,E,4,33,0.6,5.2597,M,7.8957,M,1.4,0*5F
$GNRMC,075339.40,D,3019.26368120,N,12004.23969443,E,1.644,247.9,101125,6.1,W,R,S*53
$WTRTK,-0.247,0.508,-0.010,0.566,-2.69,0.80,26.09,4,21,5,31,817,--,1,9.3,23.8,130,2,3019.25230652,N,12004.23320473,E,2.46,333.91,2.80*72
$GNGGA,075339.50,3019.26366334,N,12004.23964708,E,4,33,0.6,5.2663,M,7.8957,M,0.5,0*5E
$GNRMC,075339.50,D,3019.26366334,N,12004.23964708,E,1.670,245.2,101125,6.1,W,R,S*54
$WTRTK,-0.256,0.505,-0.030,0.567,-2.72,0.76,26.39,4,21,5,31,817,--,1,9.3,23.7,130,2,3019.25229837,N,12004.23318567,E,2.44,333.61,2.80*74
$GNGGA,075339.50,3019.26366334,N,12004.23964708,E,4,33,0.6,5.2663,M,7.8957,M,0.5,0*5E
$GNRMC,075339.50,D,3019.26366334,N,12004.23964708,E,1.670,245.2,101125,6.1,W,R,S*54
$WTRTK,-0.256,0.505,-0.030,0.567,-2.76,0.74,26.66,4,21,5,31,817,--,1,9.3,23.8,130,2,3019.25229029,N,12004.23316675,E,2.41,333.34,2.80*7B
$GNGGA,075339.60,3019.26364500,N,12004.23960293,E,4,34,0.5,5.2597,M,7.8957,M,0.6,0*52
$GNRMC,075339.60,D,3019.26364500,N,12004.23960293,E,1.644,244.0,101125,6.1,W,R,S*53
$WTRTK,-0.260,0.503,-0.019,0.567,-2.78,0.73,26.94,4,21,5,31,817,--,1,9.3,23.8,130,2,3019.25228236,N,12004.23314800,E,2.40,333.06,2.80*74
$GNGGA,075339.60,3019.26364500,N,12004.23960293,E,4,34,0.5,5.2597,M,7.8957,M,0.6,0*52
$GNRMC,075339.60,D,3019.26364500,N,12004.23960293,E,1.644,244.0,101125,6.1,W,R,S*53
$WTRTK,-0.260,0.503,-0.019,0.567,-2.80,0.75,27.23,4,21,5,31,817,--,1,9.3,23.8,130,2,3019.25227453,N,12004.23312945,E,2.37,332.77,2.80*73
$GNGGA,075339.70,3019.26362204,N,12004.23955544,E,4,33,0.6,5.2531,M,7.8957,M,0.7,0*54
$GNRMC,075339.70,D,3019.26362204,N,12004.23955544,E,1.614,244.1,101125,6.1,W,R,S*58
$WTRTK,-0.263,0.500,-0.010,0.566,-2.81,0.74,27.53,4,21,5,31,817,--,1,9.3,23.8,130,2,3019.25225688,N,12004.23308841,E,2.40,332.47,2.80*77
$GNGGA,075339.70,3019.26362204,N,12004.23955544,E,4,33,0.6,5.2531,M,7.8957,M,0.7,0*54
$GNRMC,075339.70,D,3019.26362204,N,12004.23955544,E,1.614,244.1,101125,6.1,W,R,S*58
$WTRTK,-0.263,0.500,-0.010,0.566,-2.85,0.74,27.87,4,21,5,31,817,--,1,9.3,23.8,130,2,3019.25224914,N,12004.23306973,E,2.37,332.13,2.80*7E
$GNGGA,075339.80,3019.26360525,N,12004.23951143,E,4,32,0.6,5.2536,M,7.8957,M,0.8,0*53
$GNRMC,075339.80,D,3019.26360525,N,12004.23951143,E,1.541,246.2,101125,6.1,W,R,S*54
$WTRTK,-0.275,0.486,-0.025,0.559,-2.88,0.73,28.25,4,21,5,31,817,--,1,9.3,23.7,130,2,3019.25223273,N,12004.23303162,E,2.39,331.75,2.80*73
$GNGGA,075339.80,3019.26360525,N,12004.23951143,E,4,32,0.6,5.2536,M,7.8957,M,0.8,0*53
$GNRMC,075339.80,D,3019.26360525,N,12004.23951143,E,1.541,246.2,101125,6.1,W,R,S*54
$WTRTK,-0.275,0.486,-0.025,0.559,-3.00,0.71,28.66,4,21,5,31,817,--,1,9.3,23.7,130,2,3019.25222520,N,12004.23301305,E,2.35,331.34,2.80*7F
$GNGGA,075339.90,3019.26358792,N,12004.23946830,E,4,32,0.6,5.2533,M,7.8957,M,0.9,0*58
$GNRMC,075339.90,D,3019.26358792,N,12004.23946830,E,1.516,246.2,101125,6.1,W,R,S*59
$WTRTK,-0.277,0.491,-0.012,0.564,-3.10,0.48,29.17,4,21,5,31,817,--,1,9.3,23.7,130,2,3019.25221326,N,12004.23297852,E,2.35,330.83,2.80*74
$GNGGA,075339.90,3019.26358792,N,12004.23946830,E,4,32,0.6,5.2533,M,7.8957,M,0.9,0*58
$GNRMC,075339.90,D,3019.26358792,N,12004.23946830,E,1.516,246.2,101125,6.1,W,R,S*59
$WTRTK,-0.277,0.491,-0.012,0.564,-3.15,0.16,29.68,4,21,5,31,817,--,1,9.3,23.7,130,2,3019.25220622,N,12004.23295995,E,2.32,330.32,2.80*77
$GNGGA,075340.00,3019.26357279,N,12004.23942317,E,4,32,0.6,5.2664,M,7.8957,M,1.0,0*53
$GNRMC,075340.00,D,3019.26357279,N,12004.23942317,E,1.485,246.1,101125,6.1,W,R,S*53
$WTRTK,-0.283,0.478,-0.025,0.556,-3.21,0.09,30.13,4,21,5,31,0,--,1,9.3,23.9,130,2,3019.25219158,N,12004.23292527,E,2.28,329.87,2.80*7C
$GNGGA,075340.00,3019.26357279,N,12004.23942317,E,4,32,0.6,5.2664,M,7.8957,M,1.0,0*53
$GNRMC,075340.00,D,3019.26357279,N,12004.23942317,E,1.485,246.1,101125,6.1,W,R,S*53
$WTRTK,-0.283,0.478,-0.025,0.556,-3.38,0.06,30.59,4,21,5,31,0,--,1,9.3,23.8,130,2,3019.25218529,N,12004.23290702,E,2.27,329.41,2.80*75
$GNGGA,075340.10,3019.26355321,N,12004.23938608,E,4,31,0.6,5.2491,M,7.8957,M,1.1,0*50
$GNRMC,075340.10,D,3019.26355321,N,12004.23938608,E,1.380,241.3,101125,6.1,W,R,S*5D
$WTRTK,-0.296,0.483,-0.024,0.568,-3.40,-0.03,31.04,4,21,5,31,0,--,1,9.3,23.8,130,2,3019.25217150,N,12004.23287602,E,2.25,328.96,2.81*5D
$GNGGA,075340.10,3019.26355321,N,12004.23938608,E,4,31,0.6,5.2491,M,7.8957,M,1.1,0*50
$GNRMC,075340.10,D,3019.26355321,N,12004.23938608,E,1.380,241.3,101125,6.1,W,R,S*5D
$WTRTK,-0.296,0.483,-0.024,0.568,-3.42,0.01,31.46,4,21,5,31,0,--,1,9.3,23.8,130,2,3019.25216557,N,12004.23285803,E,2.20,328.54,2.81*72
$GNGGA,075340.20,3019.26353758,N,12004.23934781,E,4,32,0.5,5.2539,M,7.8957,M,1.2,0*53
$GNRMC,075340.20,D,3019.26353758,N,12004.23934781,E,1.299,239.2,101125,6.1,W,R,S*59
$WTRTK,-0.306,0.483,-0.012,0.572,-3.51,-0.02,31.92,4,21,5,31,0,--,1,9.3,23.9,130,2,3019.25214675,N,12004.23283443,E,2.22,328.08,2.81*54
$GNGGA,075340.20,3019.26353758,N,12004.23934781,E,4,32,0.5,5.2539,M,7.8957,M,1.2,0*53
$GNRMC,075340.20,D,3019.26353758,N,12004.23934781,E,1.299,239.2,101125,6.1,W,R,S*59
$WTRTK,-0.306,0.483,-0.012,0.572,-3.57,-0.08,32.39,4,21,5,31,0,--,1,9.3,23.9,130,2,3019.25214090,N,12004.23281655,E,2.19,327.61,2.81*58
$GNGGA,075340.30,3019.26351179,N,12004.23930957,E,4,32,0.5,5.2355,M,7.8957,M,1.3,0*59
$GNRMC,075340.30,D,3019.26351179,N,12004.23930957,E,1.313,237.7,101125,6.1,W,R,S*56
$WTRTK,-0.314,0.470,-0.017,0.566,-3.57,-0.01,32.82,4,21,5,31,748,--,1,9.3,23.8,130,2,3019.25212239,N,12004.23279794,E,2.15,327.18,2.81*5A
$GNGGA,075340.30,3019.26351179,N,12004.23930957,E,4,32,0.5,5.2355,M,7.8957,M,1.3,0*59
$GNRMC,075340.30,D,3019.26351179,N,12004.23930957,E,1.313,237.7,101125,6.1,W,R,S*56
$WTRTK,-0.314,0.470,-0.017,0.566,-3.68,0.12,33.27,4,21,5,31,748,--,1,9.3,23.8,130,2,3019.25211643,N,12004.23278070,E,2.13,326.73,2.81*7B
$GNGGA,075340.40,3019.26348997,N,12004.23926937,E,4,30,0.6,5.2193,M,7.8957,M,1.4,0*51
$GNRMC,075340.40,D,3019.26348997,N,12004.23926937,E,1.321,238.0,101125,6.1,W,R,S*59
$WTRTK,-0.315,0.463,-0.008,0.560,-3.80,0.20,33.73,4,21,5,31,835,--,1,9.3,23.9,130,2,3019.25209706,N,12004.23276107,E,2.14,326.27,2.80*73
$GNGGA,075340.40,3019.26348997,N,12004.23926937,E,4,30,0.6,5.2193,M,7.8957,M,1.4,0*51
$GNRMC,075340.40,D,3019.26348997,N,12004.23926937,E,1.321,238.0,101125,6.1,W,R,S*59
$WTRTK,-0.315,0.463,-0.008,0.560,-3.80,0.30,34.11,4,21,5,31,835,--,1,9.3,23.8,130,2,3019.25209080,N,12004.23274403,E,2.14,325.89,2.80*7D
$GNGGA,075340.50,3019.26347085,N,12004.23923445,E,4,29,0.6,5.2069,M,7.8957,M,0.5,0*54
$GNRMC,075340.50,D,3019.26347085,N,12004.23923445,E,1.334,239.2,101125,6.1,W,R,S*57
$WTRTK,-0.322,0.456,-0.018,0.559,-3.88,0.35,34.43,4,21,5,31,835,--,1,9.3,23.7,129,2,3019.25207614,N,12004.23272544,E,2.17,325.57,2.80*78
$GNGGA,075340.50,3019.26347085,N,12004.23923445,E,4,29,0.6,5.2069,M,7.8957,M,0.5,0*54
$GNRMC,075340.50,D,3019.26347085,N,12004.23923445,E,1.334,239.2,101125,6.1,W,R,S*57
$WTRTK,-0.322,0.456,-0.018,0.559,-3.97,0.41,34.65,4,21,5,31,835,--,1,9.3,23.8,129,2,3019.25206998,N,12004.23270792,E,2.20,325.35,2.80*7F
$GNGGA,075340.60,3019.26345042,N,12004.23919559,E,4,28,0.6,5.2094,M,7.8957,M,0.6,0*5B
$GNRMC,075340.60,D,3019.26345042,N,12004.23919559,E,1.436,237.2,101125,6.1,W,R,S*53
$WTRTK,-0.322,0.455,-0.008,0.557,-3.95,0.43,34.77,4,21,5,31,835,--,1,9.3,23.7,129,2,3019.25205296,N,12004.23268961,E,2.23,325.23,2.79*70
$GNGGA,075340.60,3019.26345042,N,12004.23919559,E,4,28,0.6,5.2094,M,7.8957,M,0.6,0*5B
$GNRMC,075340.60,D,3019.26345042,N,12004.23919559,E,1.436,237.2,101125,6.1,W,R,S*53
$WTRTK,-0.322,0.455,-0.008,0.557,-3.94,0.51,34.83,4,21,5,31,835,--,1,9.3,23.8,129,2,3019.25204676,N,12004.23267162,E,2.24,325.17,2.80*7F
$GNGGA,075340.70,3019.26342738,N,12004.23915754,E,4,29,0.6,5.2112,M,7.8957,M,0.7,0*5B
$GNRMC,075340.70,D,3019.26342738,N,12004.23915754,E,1.430,235.0,101125,6.1,W,R,S*5A
$WTRTK,-0.322,0.454,-0.006,0.557,-4.03,0.51,34.90,4,21,5,31,835,--,1,9.3,23.6,129,2,3019.25202618,N,12004.23264997,E,2.29,325.10,2.80*70
$GNGGA,075340.70,3019.26342738,N,12004.23915754,E,4,29,0.6,5.2112,M,7.8957,M,0.7,0*5B
$GNRMC,075340.70,D,3019.26342738,N,12004.23915754,E,1.430,235.0,101125,6.1,W,R,S*5A
$WTRTK,-0.322,0.454,-0.006,0.557,-4.03,0.53,34.93,4,21,5,31,835,--,1,9.3,23.7,129,2,3019.25201946,N,12004.23263171,E,2.29,325.07,2.80*76
$GNGGA,075340.80,3019.26340661,N,12004.23911963,E,4,31,0.6,5.2243,M,7.8957,M,0.8,0*54
$GNRMC,075340.80,D,3019.26340661,N,12004.23911963,E,1.421,236.5,101125,6.1,W,R,S*52
$WTRTK,-0.331,0.450,-0.029,0.560,-4.16,0.59,34.95,4,21,5,31,835,--,1,9.3,23.8,129,2,3019.25200072,N,12004.23261237,E,2.32,325.05,2.80*7A
$GNGGA,075340.80,3019.26340661,N,12004.23911963,E,4,31,0.6,5.2243,M,7.8957,M,0.8,0*54
$GNRMC,075340.80,D,3019.26340661,N,12004.23911963,E,1.421,236.5,101125,6.1,W,R,S*52
$WTRTK,-0.331,0.450,-0.029,0.560,-4.33,0.60,35.02,4,21,5,31,835,--,1,9.3,23.7,129,2,3019.25199354,N,12004.23259408,E,2.31,324.98,2.80*74
$GNGGA,075340.90,3019.26338415,N,12004.23907767,E,4,30,0.6,5.2254,M,7.8957,M,0.9,0*50
$GNRMC,075340.90,D,3019.26338415,N,12004.23907767,E,1.446,240.0,101125,6.1,W,R,S*55
$WTRTK,-0.334,0.454,-0.032,0.565,-4.42,0.66,35.05,4,21,5,31,835,--,1,9.3,23.8,129,2,3019.25197825,N,12004.23257494,E,2.32,324.95,2.80*74
$GNGGA,075340.90,3019.26338415,N,12004.23907767,E,4,30,0.6,5.2254,M,7.8957,M,0.9,0*50
$GNRMC,075340.90,D,3019.26338415,N,12004.23907767,E,1.446,240.0,101125,6.1,W,R,S*55
$WTRTK,-0.334,0.454,-0.032,0.565,-4.42,0.66,34.93,4,21,5,31,835,--,1,9.3,23.8,129,2,3019.25197136,N,12004.23255634,E,2.35,325.07,2.80*76
$GNGGA,075341.00,3019.26336266,N,12004.23903833,E,4,33,0.6,5.2264,M,7.8957,M,1.0,0*56
$GNRMC,075341.00,D,3019.26336266,N,12004.23903833,E,1.444,239.1,101125,6.1,W,R,S*56
$WTRTK,-0.325,0.451,-0.017,0.557,-4.40,0.60,34.75,4,21,5,31,0,--,1,9.3,23.8,129,2,3019.25195534,N,12004.23253544,E,2.39,325.25,2.80*7D
$GNGGA,075341.00,3019.26336266,N,12004.23903833,E,4,33,0.6,5.2264,M,7.8957,M,1.0,0*56
$GNRMC,075341.00,D,3019.26336266,N,12004.23903833,E,1.444,239.1,101125,6.1,W,R,S*56
$WTRTK,-0.325,0.451,-0.017,0.557,-4.38,0.54,34.48,4,21,5,31,0,--,1,9.3,23.8,129,2,3019.25194903,N,12004.23251586,E,2.43,325.52,2.80*73
$GNGGA,075341.10,3019.26334361,N,12004.23900004,E,4,34,0.5,5.2316,M,7.8957,M,1.1,0*5D
$GNRMC,075341.10,D,3019.26334361,N,12004.23900004,E,1.447,239.0,101125,6.1,W,R,S*5E
$WTRTK,-0.313,0.452,-0.011,0.550,-4.37,0.49,34.10,4,21,5,31,0,--,1,9.3,23.9,129,2,3019.25193078,N,12004.23249707,E,2.48,325.90,2.80*7E
$GNGGA,075341.10,3019.26334361,N,12004.23900004,E,4,34,0.5,5.2316,M,7.8957,M,1.1,0*5D
$GNRMC,075341.10,D,3019.26334361,N,12004.23900004,E,1.447,239.0,101125,6.1,W,R,S*5E
$WTRTK,-0.313,0.452,-0.011,0.550,-4.41,0.48,33.62,4,21,5,31,0,--,1,9.3,23.8,129,2,3019.25192509,N,12004.23247638,E,2.53,326.38,2.80*77
$GNGGA,075341.20,3019.26331961,N,12004.23896404,E,4,34,0.5,5.2259,M,7.8957,M,1.2,0*52
$GNRMC,075341.20,D,3019.26331961,N,12004.23896404,E,1.379,237.8,101125,6.1,W,R,S*54
$WTRTK,-0.303,0.458,-0.006,0.550,-4.42,0.47,33.06,4,21,5,31,0,--,1,9.3,23.8,129,2,3019.25190703,N,12004.23245942,E,2.57,326.94,2.80*7C
$GNGGA,075341.20,3019.26331961,N,12004.23896404,E,4,34,0.5,5.2259,M,7.8957,M,1.2,0*52
$GNRMC,075341.20,D,3019.26331961,N,12004.23896404,E,1.379,237.8,101125,6.1,W,R,S*54
$WTRTK,-0.303,0.458,-0.006,0.550,-4.44,0.46,32.47,4,21,5,31,0,--,1,9.3,23.8,129,2,3019.25190157,N,12004.23243789,E,2.61,327.53,2.80*78
$GNGGA,075341.30,3019.26329766,N,12004.23892604,E,4,34,0.5,5.2166,M,7.8957,M,1.3,0*5B
$GNRMC,075341.30,D,3019.26329766,N,12004.23892604,E,1.354,235.4,101125,6.1,W,R,S*52
$WTRTK,-0.288,0.466,0.002,0.548,-4.44,0.46,31.86,4,21,5,31,0,--,1,9.3,23.8,129,2,3019.25188587,N,12004.23242376,E,2.64,328.14,2.81*54
$GNGGA,075341.30,3019.26329766,N,12004.23892604,E,4,34,0.5,5.2166,M,7.8957,M,1.3,0*5B
$GNRMC,075341.30,D,3019.26329766,N,12004.23892604,E,1.354,235.4,101125,6.1,W,R,S*52
$WTRTK,-0.288,0.466,0.002,0.548,-4.39,0.44,31.20,4,21,5,31,0,--,1,9.3,23.7,129,2,3019.25188026,N,12004.23240174,E,2.66,328.80,2.81*5C
$GNGGA,075341.40,3019.26327536,N,12004.23888682,E,4,35,0.5,5.2197,M,7.8957,M,1.4,0*58
$GNRMC,075341.40,D,3019.26327536,N,12004.23888682,E,1.404,237.5,101125,6.1,W,R,S*58
$WTRTK,-0.277,0.479,0.008,0.554,-4.33,0.41,30.53,4,21,5,31,87,--,1,9.3,23.8,129,2,3019.25186366,N,12004.23238992,E,2.71,329.47,2.80*64
$GNGGA,075341.40,3019.26327536,N,12004.23888682,E,4,35,0.5,5.2197,M,7.8957,M,1.4,0*58
$GNRMC,075341.40,D,3019.26327536,N,12004.23888682,E,1.404,237.5,101125,6.1,W,R,S*58
$WTRTK,-0.277,0.479,0.008,0.554,-4.31,0.38,29.86,4,21,5,31,87,--,1,9.3,23.8,129,2,3019.25185773,N,12004.23236735,E,2.74,330.14,2.80*6D
$GNGGA,075341.50,3019.26325635,N,12004.23884909,E,4,34,0.5,5.2203,M,7.8957,M,1.5,0*55
$GNRMC,075341.50,D,3019.26325635,N,12004.23884909,E,1.415,242.3,101125,6.1,W,R,S*5F
$WTRTK,-0.268,0.484,0.000,0.553,-4.28,0.35,29.19,4,21,5,31,87,--,1,9.3,23.7,129,2,3019.25183744,N,12004.23235830,E,2.76,330.81,2.79*61
$GNGGA,075341.50,3019.26325635,N,12004.23884909,E,4,34,0.5,5.2203,M,7.8957,M,1.5,0*55
$GNRMC,075341.50,D,3019.26325635,N,12004.23884909,E,1.415,242.3,101125,6.1,W,R,S*5F
$WTRTK,-0.268,0.484,0.000,0.553,-4.24,0.29,28.45,4,21,5,31,87,--,1,9.3,23.8,129,2,3019.25183162,N,12004.23233527,E,2.79,331.55,2.79*6F
$GNGGA,075341.60,3019.26323570,N,12004.23881023,E,4,33,0.5,5.2237,M,7.8957,M,1.6,0*55
$GNRMC,075341.60,D,3019.26323570,N,12004.23881023,E,1.431,242.9,101125,6.1,W,R,S*50
