$WTRTK,0.548,0.197,-0.012,0.582,2.31,3.54,-68.87,4,21,5,31,789,--,1,9.3,9.9,164,2,3019.24659848,N,12004.25869925,E,4.95,68.87,10.28*64
$GNGGA,093102.90,3019.24837911,N,12004.27040629,E,1,19,1.0,10.2500,M,7.8975,M,,*7A
$GNRMC,093102.90,A,3019.24837911,N,12004.27040629,E,2.128,161.8,251225,6.1,W,A,C*56
$WTRTK,0.550,0.194,-0.006,0.584,2.36,3.62,-68.80,4,21,5,31,789,--,1,9.3,9.9,164,2,3019.24658839,N,12004.25869435,E,4.91,68.80,10.28*60
$GNGGA,093103.00,3019.24831647,N,12004.27043642,E,1,19,1.0,10.2484,M,7.8975,M,,*7B
$GNRMC,093103.00,A,3019.24831647,N,12004.27043642,E,2.123,158.9,251225,6.1,W,A,C*5A
$WTRTK,0.550,0.194,-0.006,0.584,2.27,3.65,-68.88,4,21,5,31,789,--,1,9.3,10.0,164,2,3019.24655402,N,12004.25871026,E,4.94,68.88,10.28*55
$GNGGA,093103.00,3019.24831647,N,12004.27043642,E,1,19,1.0,10.2484,M,7.8975,M,,*7B
$GNRMC,093103.00,A,3019.24831647,N,12004.27043642,E,2.123,158.9,251225,6.1,W,A,C*5A
$WTRTK,0.548,0.204,0.027,0.586,2.21,3.64,-68.90,4,21,5,31,789,--,1,9.3,10.0,164,2,3019.24654515,N,12004.25870594,E,4.88,68.90,10.30*72
$GNGGA,093103.10,3019.24824767,N,12004.27045788,E,1,19,1.0,10.2422,M,7.8975,M,,*70
$GNRMC,093103.10,A,3019.24824767,N,12004.27045788,E,2.129,164.5,251225,6.1,W,A,C*54
$WTRTK,0.548,0.204,0.027,0.586,2.16,3.66,-68.91,4,21,5,31,789,--,1,9.3,10.0,164,2,3019.24651130,N,12004.25872239,E,4.90,68.91,10.30*79
$GNGGA,093103.10,3019.24824767,N,12004.27045788,E,1,19,1.0,10.2422,M,7.8975,M,,*70
$GNRMC,093103.10,A,3019.24824767,N,12004.27045788,E,2.129,164.5,251225,6.1,W,A,C*54
$WTRTK,0.545,0.202,0.019,0.582,2.19,3.65,-68.91,4,21,5,31,789,--,1,9.3,9.7,164,2,3019.24651756,N,12004.25869956,E,4.81,68.91,10.30*46
$GNGGA,093103.20,3019.24818693,N,12004.27048344,E,1,00,9999.0,10.2394,M,7.8975,M,,*4C
$GNRMC,093103.20,A,3019.24818693,N,12004.27048344,E,2.074,162.8,251225,6.1,W,A,C*59
$WTRTK,0.545,0.202,0.019,0.582,2.14,3.67,-68.88,4,21,5,31,789,--,1,9.3,9.9,164,2,3019.24648429,N,12004.25871607,E,4.82,68.88,10.30*45
$GNGGA,093103.20,3019.24818693,N,12004.27048344,E,1,00,9999.0,10.2394,M,7.8975,M,,*4C
$GNRMC,093103.20,A,3019.24818693,N,12004.27048344,E,2.074,162.8,251225,6.1,W,A,C*59
$WTRTK,0.542,0.182,-0.022,0.572,2.11,3.66,-68.85,4,21,5,31,789,--,1,9.3,10.0,164,2,3019.24645112,N,12004.25873301,E,4.84,68.85,10.30*51
$GNGGA,093103.30,3019.24812356,N,12004.27050624,E,1,23,0.9,10.2355,M,7.8975,M,,*74
$GNRMC,093103.30,A,3019.24812356,N,12004.27050624,E,2.062,163.4,251225,6.1,W,A,C*5E
$WTRTK,0.542,0.182,-0.022,0.572,2.08,3.65,-68.85,4,21,5,31,789,--,1,9.3,9.9,164,2,3019.24641799,N,12004.25875032,E,4.86,68.85,10.30*6D
$GNGGA,093103.30,3019.24812356,N,12004.27050624,E,1,23,0.9,10.2355,M,7.8975,M,,*74
$GNRMC,093103.30,A,3019.24812356,N,12004.27050624,E,2.062,163.4,251225,6.1,W,A,C*5E
$WTRTK,0.537,0.191,0.008,0.570,2.03,3.64,-68.81,4,21,5,31,789,--,1,9.3,9.8,164,2,3019.24638476,N,12004.25876801,E,4.88,68.81,10.30*48
$GNGGA,093103.40,3019.24806040,N,12004.27053382,E,1,23,0.9,10.2324,M,7.8975,M,,*7E
$GNRMC,093103.40,A,3019.24806040,N,12004.27053382,E,2.130,163.0,251225,6.1,W,A,C*50
$WTRTK,0.537,0.191,0.008,0.570,2.02,3.64,-68.76,4,21,5,31,789,--,1,9.3,9.9,164,2,3019.24635141,N,12004.25878601,E,4.92,68.76,10.30*4F
$GNGGA,093103.40,3019.24806040,N,12004.27053382,E,1,23,0.9,10.2324,M,7.8975,M,,*7E
$GNRMC,093103.40,A,3019.24806040,N,12004.27053382,E,2.130,163.0,251225,6.1,W,A,C*50
$WTRTK,0.528,0.198,0.019,0.565,2.08,3.64,-68.73,4,21,5,31,789,--,1,9.3,9.7,164,2,3019.24631792,N,12004.25880431,E,4.95,68.73,10.30*45
$GNGGA,093103.50,3019.24800064,N,12004.27056110,E,1,23,0.9,10.2328,M,7.8975,M,,*7F
$GNRMC,093103.50,A,3019.24800064,N,12004.27056110,E,2.049,162.9,251225,6.1,W,A,C*5A
$WTRTK,0.528,0.198,0.019,0.565,2.04,3.66,-68.74,4,21,5,31,0,--,1,9.3,9.8,164,2,3019.24628427,N,12004.25882279,E,4.97,68.74,10.30*4D
$GNGGA,093103.50,3019.24800064,N,12004.27056110,E,1,23,0.9,10.2328,M,7.8975,M,,*7F
$GNRMC,093103.50,A,3019.24800064,N,12004.27056110,E,2.049,162.9,251225,6.1,W,A,C*5A
$WTRTK,0.524,0.178,-0.003,0.553,2.03,3.65,-68.75,4,21,5,31,0,--,1,9.3,9.9,164,2,3019.24625050,N,12004.25884145,E,5.00,68.75,10.30*65
$GNGGA,093103.60,3019.24794103,N,12004.27058709,E,1,23,0.9,10.2341,M,7.8975,M,,*71
$GNRMC,093103.60,A,3019.24794103,N,12004.27058709,E,2.092,164.9,251225,6.1,W,A,C*5B
$WTRTK,0.524,0.178,-0.003,0.553,1.99,3.67,-68.78,4,21,5,31,0,--,1,9.3,9.8,164,2,3019.24621650,N,12004.25886042,E,5.04,68.78,10.29*6C
$GNGGA,093103.60,3019.24794103,N,12004.27058709,E,1,23,0.9,10.2341,M,7.8975,M,,*71
$GNRMC,093103.60,A,3019.24794103,N,12004.27058709,E,2.092,164.9,251225,6.1,W,A,C*5B
$WTRTK,0.529,0.188,-0.006,0.561,1.94,3.71,-68.80,4,21,5,31,0,--,1,9.3,10.0,164,2,3019.24618251,N,12004.25887956,E,5.03,68.80,10.29*55
$GNGGA,093103.70,3019.24788062,N,12004.27060828,E,1,20,0.9,10.2328,M,7.8975,M,,*70
$GNRMC,093103.70,A,3019.24788062,N,12004.27060828,E,1.976,164.0,251225,6.1,W,A,C*5F
$WTRTK,0.529,0.188,-0.006,0.561,1.86,3.76,-68.81,4,21,5,31,84,--,1,9.3,10.0,164,2,3019.24614859,N,12004.25889889,E,5.04,68.81,10.29*69
$GNGGA,093103.70,3019.24788062,N,12004.27060828,E,1,20,0.9,10.2328,M,7.8975,M,,*70
$GNRMC,093103.70,A,3019.24788062,N,12004.27060828,E,1.976,164.0,251225,6.1,W,A,C*5F
$WTRTK,0.526,0.198,0.000,0.562,1.83,3.74,-68.80,4,21,5,31,84,--,1,9.3,9.9,164,2,3019.24611487,N,12004.25891847,E,5.02,68.80,10.29*7E
$GNGGA,093103.80,3019.24782358,N,12004.27063091,E,1,20,0.9,10.2297,M,7.8975,M,,*73
$GNRMC,093103.80,A,3019.24782358,N,12004.27063091,E,1.985,163.9,251225,6.1,W,A,C*5B
$WTRTK,0.526,0.198,0.000,0.562,1.82,3.73,-68.75,4,21,5,31,84,--,1,9.3,9.9,164,2,3019.24608122,N,12004.25893829,E,5.03,68.75,10.29*71
$GNGGA,093103.80,3019.24782358,N,12004.27063091,E,1,20,0.9,10.2297,M,7.8975,M,,*73
$GNRMC,093103.80,A,3019.24782358,N,12004.27063091,E,1.985,163.9,251225,6.1,W,A,C*5B
$WTRTK,0.521,0.198,0.001,0.557,2.03,3.64,-68.74,4,21,5,31,754,--,1,9.3,9.8,164,2,3019.24604738,N,12004.25895816,E,5.07,68.74,10.29*49
$GNGGA,093103.90,3019.24776770,N,12004.27065466,E,1,20,0.9,10.2261,M,7.8975,M,,*74
$GNRMC,093103.90,A,3019.24776770,N,12004.27065466,E,2.030,163.7,251225,6.1,W,A,C*5F
$WTRTK,0.521,0.198,0.001,0.557,2.05,3.67,-68.81,4,21,5,31,754,--,1,9.3,9.7,164,2,3019.24601321,N,12004.25897806,E,5.11,68.81,10.30*46
$GNGGA,093103.90,3019.24776770,N,12004.27065466,E,1,20,0.9,10.2261,M,7.8975,M,,*74
$GNRMC,093103.90,A,3019.24776770,N,12004.27065466,E,2.030,163.7,251225,6.1,W,A,C*5F
$WTRTK,0.526,0.191,0.005,0.560,1.96,3.71,-68.86,4,21,5,31,754,--,1,9.3,9.9,164,2,3019.24597888,N,12004.25899811,E,5.13,68.86,10.30*46
$GNGGA,093104.00,3019.24771289,N,12004.27067917,E,1,20,0.9,10.2222,M,7.8975,M,,*70
$GNRMC,093104.00,A,3019.24771289,N,12004.27067917,E,2.028,163.1,251225,6.1,W,A,C*53
$WTRTK,0.526,0.191,0.005,0.560,1.94,3.72,-68.87,4,21,5,31,754,--,1,9.3,9.8,164,2,3019.24594454,N,12004.25901857,E,5.16,68.87,10.30*4F
$GNGGA,093104.00,3019.24771289,N,12004.27067917,E,1,20,0.9,10.2222,M,7.8975,M,,*70
$GNRMC,093104.00,A,3019.24771289,N,12004.27067917,E,2.028,163.1,251225,6.1,W,A,C*53
$WTRTK,0.515,0.198,0.060,0.555,1.90,3.76,-68.87,4,21,5,31,754,--,1,9.3,9.9,164,2,3019.24591012,N,12004.25903937,E,5.18,68.87,10.30*4A
$GNGGA,093104.10,3019.24765465,N,12004.27070286,E,1,19,1.0,10.2110,M,7.8975,M,,*75
$GNRMC,093104.10,A,3019.24765465,N,12004.27070286,E,1.995,163.0,251225,6.1,W,A,C*5B
$WTRTK,0.515,0.198,0.060,0.555,1.86,3.80,-68.95,4,21,5,31,754,--,1,9.3,9.8,164,2,3019.24587563,N,12004.25906027,E,5.20,68.95,10.30*47
$GNGGA,093104.10,3019.24765465,N,12004.27070286,E,1,19,1.0,10.2110,M,7.8975,M,,*75
$GNRMC,093104.10,A,3019.24765465,N,12004.27070286,E,1.995,163.0,251225,6.1,W,A,C*5B
$WTRTK,0.514,0.198,0.030,0.552,1.92,3.88,-69.07,4,21,5,31,754,--,1,9.3,9.9,164,2,3019.24584094,N,12004.25908117,E,5.23,69.07,10.30*49
$GNGGA,093104.20,3019.24759790,N,12004.27072974,E,1,19,1.0,10.1943,M,7.8976,M,,*7A
$GNRMC,093104.20,A,3019.24759790,N,12004.27072974,E,2.039,167.1,251225,6.1,W,A,C*53
$WTRTK,0.514,0.198,0.030,0.552,1.93,3.83,-69.29,4,21,5,31,754,--,1,9.3,9.8,164,2,3019.24580620,N,12004.25910225,E,5.22,69.29,10.30*45
$GNGGA,093104.20,3019.24759790,N,12004.27072974,E,1,19,1.0,10.1943,M,7.8976,M,,*7A
$GNRMC,093104.20,A,3019.24759790,N,12004.27072974,E,2.039,167.1,251225,6.1,W,A,C*53
$WTRTK,0.540,0.205,0.009,0.578,1.88,3.88,-69.41,4,21,5,31,754,--,1,9.3,9.9,164,2,3019.24577150,N,12004.25912356,E,5.24,69.41,10.30*48
$GNGGA,093104.30,3019.24754832,N,12004.27075461,E,1,23,0.9,10.1811,M,7.8976,M,,*78
$GNRMC,093104.30,A,3019.24754832,N,12004.27075461,E,2.017,166.4,251225,6.1,W,A,C*5E
$WTRTK,0.540,0.205,0.009,0.578,1.88,3.85,-69.56,4,21,5,31,1424,--,1,9.3,9.9,164,2,3019.24573684,N,12004.25914519,E,5.25,69.56,10.30*70
$GNGGA,093104.30,3019.24754832,N,12004.27075461,E,1,23,0.9,10.1811,M,7.8976,M,,*78
$GNRMC,093104.30,A,3019.24754832,N,12004.27075461,E,2.017,166.4,251225,6.1,W,A,C*5E
$WTRTK,0.541,0.199,0.017,0.577,1.90,3.83,-69.70,4,21,5,31,1424,--,1,9.3,9.9,164,2,3019.24570220,N,12004.25916711,E,5.26,69.70,10.30*7A
$GNGGA,093104.40,3019.24749646,N,12004.27077987,E,1,19,1.0,10.1632,M,7.8976,M,,*77
$GNRMC,093104.40,A,3019.24749646,N,12004.27077987,E,1.893,159.7,251225,6.1,W,A,C*57
$WTRTK,0.541,0.199,0.017,0.577,1.92,3.76,-69.82,4,21,5,31,1424,--,1,9.3,9.8,164,2,3019.24566757,N,12004.25918903,E,5.26,69.82,10.30*72
$GNGGA,093104.40,3019.24749646,N,12004.27077987,E,1,19,1.0,10.1632,M,7.8976,M,,*77
$GNRMC,093104.40,A,3019.24749646,N,12004.27077987,E,1.893,159.7,251225,6.1,W,A,C*57
$WTRTK,0.516,0.190,0.045,0.552,1.99,3.67,-69.99,4,21,5,31,1424,--,1,9.3,10.0,164,2,3019.24563286,N,12004.25921092,E,5.26,69.99,10.30*45
$GNGGA,093104.50,3019.24744639,N,12004.27081081,E,1,19,1.0,10.1440,M,7.8976,M,,*72
$GNRMC,093104.50,A,3019.24744639,N,12004.27081081,E,1.945,161.7,251225,6.1,W,A,C*54
$WTRTK,0.516,0.190,0.045,0.552,2.10,3.68,-70.07,4,21,5,31,0,--,1,9.3,9.9,165,2,3019.24559809,N,12004.25923293,E,5.30,70.07,10.31*48
$GNGGA,093104.50,3019.24744639,N,12004.27081081,E,1,19,1.0,10.1440,M,7.8976,M,,*72
$GNRMC,093104.50,A,3019.24744639,N,12004.27081081,E,1.945,161.7,251225,6.1,W,A,C*54
$WTRTK,0.538,0.188,0.042,0.571,2.08,3.68,-70.30,4,21,5,31,0,--,1,9.3,9.9,165,2,3019.24556304,N,12004.25925515,E,5.32,70.30,10.31*46
$GNGGA,093104.60,3019.24744909,N,12004.27079015,E,2,07,2.1,10.0267,M,7.8976,M,0.6,0000*53
$GNRMC,093104.60,A,3019.24744909,N,12004.27079015,E,2.039,168.0,251225,6.1,W,D,C*5B
$WTRTK,0.538,0.188,0.042,0.571,1.97,3.72,-70.42,4,21,5,31,0,--,1,9.3,9.8,165,2,3019.24552808,N,12004.25927759,E,5.33,70.42,10.31*43
$GNGGA,093104.60,3019.24744909,N,12004.27079015,E,2,07,2.1,10.0267,M,7.8976,M,0.6,0000*53
$GNRMC,093104.60,A,3019.24744909,N,12004.27079015,E,2.039,168.0,251225,6.1,W,D,C*5B
$WTRTK,0.540,0.196,0.035,0.576,1.91,3.72,-70.53,4,21,5,31,0,--,1,9.3,9.9,165,2,3019.24549310,N,12004.25930030,E,5.34,70.53,10.31*42
$GNGGA,093104.70,3019.24738386,N,12004.27078146,E,1,18,1.0,10.0185,M,7.8976,M,,*7A
$GNRMC,093104.70,A,3019.24738386,N,12004.27078146,E,2.150,168.5,251225,6.1,W,A,C*54
$WTRTK,0.540,0.196,0.035,0.576,1.83,3.71,-70.52,4,21,5,31,84,--,1,9.3,10.0,164,2,3019.24545832,N,12004.25932343,E,5.36,70.52,10.31*4E
$GNGGA,093104.70,3019.24738386,N,12004.27078146,E,1,18,1.0,10.0185,M,7.8976,M,,*7A
$GNRMC,093104.70,A,3019.24738386,N,12004.27078146,E,2.150,168.5,251225,6.1,W,A,C*54
$WTRTK,0.543,0.194,0.033,0.577,1.82,3.72,-70.60,4,21,5,31,84,--,1,9.3,9.8,164,2,3019.24542330,N,12004.25934672,E,5.39,70.60,10.31*7A
$GNGGA,093104.80,3019.24740008,N,12004.27071958,E,2,07,2.1,9.8464,M,7.8976,M,0.8,0000*62
$GNRMC,093104.80,A,3019.24740008,N,12004.27071958,E,2.102,164.8,251225,6.1,W,D,C*5C
$WTRTK,0.543,0.194,0.033,0.577,1.79,3.72,-70.63,4,21,5,31,84,--,1,9.3,9.8,164,2,3019.24538827,N,12004.25937030,E,5.40,70.63,10.31*73
$GNGGA,093104.80,3019.24740008,N,12004.27071958,E,2,07,2.1,9.8464,M,7.8976,M,0.8,0000*62
$GNRMC,093104.80,A,3019.24740008,N,12004.27071958,E,2.102,164.8,251225,6.1,W,D,C*5C
$WTRTK,0.527,0.203,0.062,0.569,1.72,3.79,-70.59,4,21,5,31,84,--,1,9.3,9.8,164,2,3019.24535324,N,12004.25939406,E,5.42,70.59,10.31*7F
$GNGGA,093104.90,3019.24734325,N,12004.27071993,E,1,20,0.9,9.8365,M,7.8976,M,,*47
$GNRMC,093104.90,A,3019.24734325,N,12004.27071993,E,2.013,162.2,251225,6.1,W,A,C*5D
$WTRTK,0.527,0.203,0.062,0.569,1.74,3.83,-70.64,4,21,5,31,84,--,1,9.3,10.0,164,2,3019.24531805,N,12004.25941784,E,5.43,70.64,10.31*47
$GNGGA,093104.90,3019.24734325,N,12004.27071993,E,1,20,0.9,9.8365,M,7.8976,M,,*47
$GNRMC,093104.90,A,3019.24734325,N,12004.27071993,E,2.013,162.2,251225,6.1,W,A,C*5D
$WTRTK,0.530,0.187,0.055,0.565,1.74,3.90,-70.71,4,21,5,31,84,--,1,9.3,10.0,164,2,3019.24528279,N,12004.25944160,E,5.44,70.71,10.31*43
$GNGGA,093105.00,3019.24729737,N,12004.27076574,E,1,20,0.9,9.8267,M,7.8976,M,,*45
$GNRMC,093105.00,A,3019.24729737,N,12004.27076574,E,2.064,164.9,251225,6.1,W,A,C*51
$WTRTK,0.530,0.187,0.055,0.565,1.72,3.93,-70.82,4,21,5,31,84,--,1,9.3,9.8,164,2,3019.24524742,N,12004.25946528,E,5.45,70.82,10.32*7F
$GNGGA,093105.00,3019.24729737,N,12004.27076574,E,1,20,0.9,9.8267,M,7.8976,M,,*45
$GNRMC,093105.00,A,3019.24729737,N,12004.27076574,E,2.064,164.9,251225,6.1,W,A,C*51
$WTRTK,0.543,0.195,0.045,0.579,1.72,3.94,-70.93,4,21,5,31,84,--,1,9.3,9.9,164,2,3019.24521201,N,12004.25948899,E,5.45,70.93,10.32*7C
$GNGGA,093105.10,3019.24724514,N,12004.27079454,E,1,20,0.9,9.8175,M,7.8976,M,,*46
$GNRMC,093105.10,A,3019.24724514,N,12004.27079454,E,2.138,164.8,251225,6.1,W,A,C*5B
$WTRTK,0.543,0.195,0.045,0.579,1.70,3.87,-71.03,4,21,5,31,84,--,1,9.3,9.9,164,2,3019.24517657,N,12004.25951279,E,5.47,71.03,10.32*70
$GNGGA,093105.10,3019.24724514,N,12004.27079454,E,1,20,0.9,9.8175,M,7.8976,M,,*46
$GNRMC,093105.10,A,3019.24724514,N,12004.27079454,E,2.138,164.8,251225,6.1,W,A,C*5B
$WTRTK,0.538,0.190,0.050,0.573,1.64,3.88,-71.14,4,21,5,31,84,--,1,9.3,9.7,164,2,3019.24514102,N,12004.25953672,E,5.48,71.14,10.32*75
$GNGGA,093105.20,3019.24724954,N,12004.27076526,E,2,07,2.1,9.7037,M,7.8976,M,1.2,0000*6F
$GNRMC,093105.20,A,3019.24724954,N,12004.27076526,E,2.134,165.5,251225,6.1,W,D,C*5E
$WTRTK,0.538,0.190,0.050,0.573,1.64,3.83,-71.26,4,21,5,31,84,--,1,9.3,9.9,164,2,3019.24513038,N,12004.25954398,E,0.02,71.26,10.32*72
$GNGGA,093105.20,3019.24724954,N,12004.27076526,E,2,07,2.1,9.7037,M,7.8976,M,1.2,0000*6F
$GNRMC,093105.20,A,3019.24724954,N,12004.27076526,E,2.134,165.5,251225,6.1,W,D,C*5E
$WTRTK,0.533,0.182,0.003,0.563,1.63,3.79,-71.39,4,21,5,31,754,--,1,9.3,9.9,164,2,3019.24513045,N,12004.25954427,E,0.05,71.39,10.32*4B
$GNGGA,093105.30,3019.24719242,N,12004.27078367,E,1,20,0.9,9.6865,M,7.8976,M,,*4E
$GNRMC,093105.30,A,3019.24719242,N,12004.27078367,E,2.091,167.9,251225,6.1,W,A,C*55
$WTRTK,0.533,0.182,0.003,0.563,1.62,3.77,-71.51,4,21,5,31,754,--,1,9.3,9.9,164,2,3019.24513049,N,12004.25954468,E,0.09,71.51,10.32*4F
$GNGGA,093105.30,3019.24719242,N,12004.27078367,E,1,20,0.9,9.6865,M,7.8976,M,,*4E
$GNRMC,093105.30,A,3019.24719242,N,12004.27078367,E,2.091,167.9,251225,6.1,W,A,C*55
$WTRTK,0.538,0.165,0.010,0.562,1.85,3.74,-71.69,4,21,5,31,754,--,1,9.3,9.9,164,2,3019.24513045,N,12004.25954571,E,0.20,71.69,10.32*4A
$GNGGA,093105.40,3019.24722050,N,12004.27077859,E,2,07,2.1,9.5543,M,7.8976,M,0.4,0000*65
$GNRMC,093105.40,A,3019.24722050,N,12004.27077859,E,2.022,171.0,251225,6.1,W,D,C*51
$WTRTK,0.538,0.165,0.010,0.562,1.98,3.60,-71.92,4,21,5,31,754,--,1,9.3,9.9,164,2,3019.24513050,N,12004.25954710,E,0.25,71.92,10.32*47
$GNGGA,093105.40,3019.24722050,N,12004.27077859,E,2,07,2.1,9.5543,M,7.8976,M,0.4,0000*65
$GNRMC,093105.40,A,3019.24722050,N,12004.27077859,E,2.022,171.0,251225,6.1,W,D,C*51
$WTRTK,0.546,0.184,0.034,0.577,1.85,3.57,-71.93,4,21,5,31,754,--,1,9.3,9.8,164,2,3019.24513066,N,12004.25954964,E,0.33,71.93,10.32*45
$GNGGA,093105.50,3019.24716137,N,12004.27079733,E,1,20,0.9,9.5339,M,7.8976,M,,*43
$GNRMC,093105.50,A,3019.24716137,N,12004.27079733,E,1.995,167.7,251225,6.1,W,A,C*59
$WTRTK,0.546,0.184,0.034,0.577,1.75,3.64,-71.92,4,21,5,31,0,--,1,9.3,9.7,164,2,3019.24513088,N,12004.25955197,E,0.42,71.92,10.32*40
$GNGGA,093105.50,3019.24716137,N,12004.27079733,E,1,20,0.9,9.5339,M,7.8976,M,,*43
$GNRMC,093105.50,A,3019.24716137,N,12004.27079733,E,1.995,167.7,251225,6.1,W,A,C*59
$WTRTK,0.527,0.171,0.006,0.554,1.70,3.74,-71.86,4,21,5,31,0,--,1,9.3,10.0,164,2,3019.24513132,N,12004.25955620,E,0.56,71.86,10.32*78
$GNGGA,093105.60,3019.24717818,N,12004.27077483,E,2,07,2.1,9.4097,M,7.8976,M,0.6,0000*61
$GNRMC,093105.60,A,3019.24717818,N,12004.27077483,E,1.916,163.8,251225,6.1,W,D,C*5C
$WTRTK,0.527,0.171,0.006,0.554,1.70,3.75,-71.76,4,21,5,31,0,--,1,9.3,9.9,164,2,3019.24513187,N,12004.25956043,E,0.66,71.76,10.32*45
$GNGGA,093105.60,3019.24717818,N,12004.27077483,E,2,07,2.1,9.4097,M,7.8976,M,0.6,0000*61
$GNRMC,093105.60,A,3019.24717818,N,12004.27077483,E,1.916,163.8,251225,6.1,W,D,C*5C
$WTRTK,0.541,0.185,0.000,0.572,1.72,3.78,-71.65,4,21,5,31,0,--,1,9.3,9.7,164,1,3019.24513255,N,12004.25956652,E,0.75,71.65,10.32*46
$GNGGA,093105.70,3019.24711937,N,12004.27080203,E,1,20,0.9,9.3825,M,7.8976,M,,*4E
$GNRMC,093105.70,A,3019.24711937,N,12004.27080203,E,1.908,166.2,251225,6.1,W,A,C*54
$WTRTK,0.541,0.185,0.000,0.572,1.81,3.82,-71.58,4,21,5,31,83,--,1,9.3,9.8,164,1,3019.24513294,N,12004.25957116,E,0.81,71.58,10.32*7B
$GNGGA,093105.70,3019.24711937,N,12004.27080203,E,1,20,0.9,9.3825,M,7.8976,M,,*4E
$GNRMC,093105.70,A,3019.24711937,N,12004.27080203,E,1.908,166.2,251225,6.1,W,A,C*54
$WTRTK,0.539,0.175,-0.001,0.567,1.82,3.83,-71.48,4,21,5,31,83,--,1,9.3,9.9,164,1,3019.24513364,N,12004.25957862,E,0.91,71.48,10.32*55
$GNGGA,093105.80,3019.24706544,N,12004.27084386,E,1,20,0.9,9.3495,M,7.8976,M,,*40
$GNRMC,093105.80,A,3019.24706544,N,12004.27084386,E,1.751,168.3,251225,6.1,W,A,C*50
$WTRTK,0.539,0.175,-0.001,0.567,1.77,3.81,-71.40,4,21,5,31,83,--,1,9.3,9.8,164,1,3019.24513427,N,12004.25958509,E,0.98,71.40,10.32*5A
$GNGGA,093105.80,3019.24706544,N,12004.27084386,E,1,20,0.9,9.3495,M,7.8976,M,,*40
$GNRMC,093105.80,A,3019.24706544,N,12004.27084386,E,1.751,168.3,251225,6.1,W,A,C*50
$WTRTK,0.525,0.150,-0.084,0.553,1.68,3.79,-71.33,4,21,5,31,83,--,1,9.3,9.8,164,1,3019.24513521,N,12004.25959388,E,1.07,71.33,10.32*5D
$GNGGA,093105.90,3019.24699915,N,12004.27087179,E,1,19,1.0,9.3302,M,7.8976,M,,*44
$GNRMC,093105.90,A,3019.24699915,N,12004.27087179,E,1.716,170.2,251225,6.1,W,A,C*54
$WTRTK,0.525,0.150,-0.084,0.553,1.65,3.72,-71.36,4,21,5,31,83,--,1,9.3,9.8,164,1,3019.24513600,N,12004.25960032,E,1.11,71.36,10.33*55
$GNGGA,093105.90,3019.24699915,N,12004.27087179,E,1,19,1.0,9.3302,M,7.8976,M,,*44
$GNRMC,093105.90,A,3019.24699915,N,12004.27087179,E,1.716,170.2,251225,6.1,W,A,C*54
$WTRTK,0.535,0.170,-0.031,0.562,1.55,3.69,-71.45,4,21,5,31,83,--,1,9.3,9.8,164,1,3019.24513725,N,12004.25961030,E,1.20,71.45,10.33*54
$GNGGA,093106.00,3019.24693985,N,12004.27089684,E,1,19,1.0,9.3125,M,7.8976,M,,*41
$GNRMC,093106.00,A,3019.24693985,N,12004.27089684,E,1.500,171.7,251225,6.1,W,A,C*57
$WTRTK,0.535,0.170,-0.031,0.562,1.49,3.69,-71.58,4,21,5,31,83,--,1,9.3,9.9,164,1,3019.24513795,N,12004.25961610,E,1.21,71.58,10.33*56
$GNGGA,093106.00,3019.24693985,N,12004.27089684,E,1,19,1.0,9.3125,M,7.8976,M,,*41
$GNRMC,093106.00,A,3019.24693985,N,12004.27089684,E,1.500,171.7,251225,6.1,W,A,C*57
$WTRTK,0.547,0.163,-0.023,0.571,1.46,3.64,-71.73,4,21,5,31,83,--,1,9.3,9.8,164,1,3019.24513939,N,12004.25962679,E,1.29,71.73,10.33*5F
$GNGGA,093106.10,3019.24688424,N,12004.27092182,E,1,19,1.0,9.2961,M,7.8976,M,,*4E
$GNRMC,093106.10,A,3019.24688424,N,12004.27092182,E,1.470,169.7,251225,6.1,W,A,C*5E
$WTRTK,0.547,0.163,-0.023,0.571,1.52,3.60,-71.93,4,21,5,31,83,--,1,9.3,10.0,165,1,3019.24514040,N,12004.25963408,E,1.29,71.93,10.33*6A
$GNGGA,093106.10,3019.24688424,N,12004.27092182,E,1,19,1.0,9.2961,M,7.8976,M,,*4E
$GNRMC,093106.10,A,3019.24688424,N,12004.27092182,E,1.470,169.7,251225,6.1,W,A,C*5E
$WTRTK,0.536,0.157,-0.057,0.561,1.55,3.50,-72.20,4,21,5,31,83,--,1,9.3,9.9,165,1,3019.24514188,N,12004.25964536,E,1.35,72.20,10.33*5F
$GNGGA,093106.20,3019.24683042,N,12004.27094616,E,1,19,1.0,9.2808,M,7.8976,M,,*40
$GNRMC,093106.20,A,3019.24683042,N,12004.27094616,E,1.454,169.8,251225,6.1,W,A,C*57
$WTRTK,0.536,0.157,-0.057,0.561,1.65,3.45,-72.47,4,21,5,31,83,--,1,9.3,9.9,165,1,3019.24514319,N,12004.25965421,E,1.37,72.47,10.33*56
$GNGGA,093106.20,3019.24683042,N,12004.27094616,E,1,19,1.0,9.2808,M,7.8976,M,,*40
$GNRMC,093106.20,A,3019.24683042,N,12004.27094616,E,1.454,169.8,251225,6.1,W,A,C*57
$WTRTK,0.537,0.150,-0.018,0.558,1.57,3.49,-72.77,4,21,5,31,83,--,1,9.3,10.0,165,1,3019.24514440,N,12004.25966334,E,1.43,72.77,10.33*65
$GNGGA,093106.30,3019.24677931,N,12004.27096921,E,1,18,1.0,9.2676,M,7.8976,M,,*48
$GNRMC,093106.30,A,3019.24677931,N,12004.27096921,E,1.339,165.5,251225,6.1,W,A,C*54
$WTRTK,0.537,0.150,-0.018,0.558,1.54,3.50,-73.09,4,21,5,31,83,--,1,9.3,9.9,165,1,3019.24514552,N,12004.25967133,E,1.49,73.09,10.34*54
$GNGGA,093106.30,3019.24677931,N,12004.27096921,E,1,18,1.0,9.2676,M,7.8976,M,,*48
$GNRMC,093106.30,A,3019.24677931,N,12004.27096921,E,1.339,165.5,251225,6.1,W,A,C*54
$WTRTK,0.522,0.136,-0.009,0.539,1.51,3.54,-73.44,4,21,5,31,83,--,1,9.3,9.8,165,1,3019.24514744,N,12004.25968454,E,1.61,73.44,10.34*53
$GNGGA,093106.40,3019.24673269,N,12004.27099226,E,1,18,1.0,9.2552,M,7.8976,M,,*4B
$GNRMC,093106.40,A,3019.24673269,N,12004.27099226,E,1.299,165.4,251225,6.1,W,A,C*58
$WTRTK,0.522,0.136,-0.009,0.539,1.51,3.52,-73.70,4,21,5,31,83,--,1,9.3,9.8,165,1,3019.24514911,N,12004.25969517,E,1.70,73.70,10.34*5C
$GNGGA,093106.40,3019.24673269,N,12004.27099226,E,1,18,1.0,9.2552,M,7.8976,M,,*4B
$GNRMC,093106.40,A,3019.24673269,N,12004.27099226,E,1.299,165.4,251225,6.1,W,A,C*58
$WTRTK,0.526,0.122,-0.059,0.543,1.50,3.52,-73.87,4,21,5,31,83,--,1,9.3,9.8,165,1,3019.24515159,N,12004.25971024,E,1.84,73.87,10.34*56
$GNGGA,093106.50,3019.24669020,N,12004.27100410,E,1,18,1.0,9.2459,M,7.8976,M,,*46
$GNRMC,093106.50,A,3019.24669020,N,12004.27100410,E,1.373,179.9,251225,6.1,W,A,C*5A
$WTRTK,0.526,0.122,-0.059,0.543,1.55,3.44,-73.95,4,21,5,31,0,--,1,9.3,10.0,165,1,3019.24515315,N,12004.25972004,E,1.85,73.95,10.34*55
$GNGGA,093106.50,3019.24669020,N,12004.27100410,E,1,18,1.0,9.2459,M,7.8976,M,,*46
$GNRMC,093106.50,A,3019.24669020,N,12004.27100410,E,1.373,179.9,251225,6.1,W,A,C*5A
$WTRTK,0.546,0.146,-0.007,0.565,1.61,3.37,-73.94,4,21,5,31,0,--,1,9.3,9.9,165,1,3019.24515594,N,12004.25973598,E,1.91,73.94,10.34*67
$GNGGA,093106.60,3019.24664668,N,12004.27102002,E,1,18,1.0,9.2392,M,7.8976,M,,*47
$GNRMC,093106.60,A,3019.24664668,N,12004.27102002,E,1.320,178.2,251225,6.1,W,A,C*57
$WTRTK,0.546,0.146,-0.007,0.565,1.58,3.39,-73.90,4,21,5,31,0,--,1,9.3,9.9,165,1,3019.24515776,N,12004.25974807,E,1.93,73.90,10.35*62
$GNGGA,093106.60,3019.24664668,N,12004.27102002,E,1,18,1.0,9.2392,M,7.8976,M,,*47
$GNRMC,093106.60,A,3019.24664668,N,12004.27102002,E,1.320,178.2,251225,6.1,W,A,C*57
$WTRTK,0.537,0.144,-0.006,0.556,1.61,3.33,-73.81,4,21,5,31,0,--,1,9.3,9.9,165,1,3019.24516025,N,12004.25976480,E,1.99,73.81,10.35*6E
$GNGGA,093106.70,3019.24660323,N,12004.27103884,E,1,18,1.0,9.2334,M,7.8976,M,,*43
$GNRMC,093106.70,A,3019.24660323,N,12004.27103884,E,1.216,166.4,251225,6.1,W,A,C*52
$WTRTK,0.537,0.144,-0.006,0.556,1.65,3.25,-73.68,4,21,5,31,753,--,1,9.3,10.1,165,1,3019.24516166,N,12004.25977476,E,1.93,73.68,10.35*58
$GNGGA,093106.70,3019.24660323,N,12004.27103884,E,1,18,1.0,9.2334,M,7.8976,M,,*43
$GNRMC,093106.70,A,3019.24660323,N,12004.27103884,E,1.216,166.4,251225,6.1,W,A,C*52
$WTRTK,0.526,0.140,0.049,0.547,1.61,3.25,-73.56,4,21,5,31,753,--,1,9.3,9.9,165,1,3019.24516369,N,12004.25979127,E,1.91,73.56,10.35*4E
$GNGGA,093106.80,3019.24656183,N,12004.27105791,E,1,18,1.0,9.2282,M,7.8976,M,,*40
$GNRMC,093106.80,A,3019.24656183,N,12004.27105791,E,1.247,166.1,251225,6.1,W,A,C*5C
$WTRTK,0.526,0.140,0.049,0.547,1.53,3.31,-73.44,4,21,5,31,753,--,1,9.3,9.9,165,1,3019.24516477,N,12004.25980292,E,1.85,73.44,10.35*4C
$GNGGA,093106.80,3019.24656183,N,12004.27105791,E,1,18,1.0,9.2282,M,7.8976,M,,*40
$GNRMC,093106.80,A,3019.24656183,N,12004.27105791,E,1.247,166.1,251225,6.1,W,A,C*5C
$WTRTK,0.529,0.130,0.028,0.545,1.58,3.27,-73.22,4,21,5,31,753,--,1,9.3,9.9,165,1,3019.24516619,N,12004.25981880,E,1.83,73.22,10.35*49
$GNGGA,093106.90,3019.24651984,N,12004.27107730,E,1,19,1.0,9.2233,M,7.8976,M,,*4B
$GNRMC,093106.90,A,3019.24651984,N,12004.27107730,E,1.357,165.0,251225,6.1,W,A,C*5E
$WTRTK,0.529,0.130,0.028,0.545,1.55,3.28,-72.96,4,21,5,31,753,--,1,9.3,9.9,165,1,3019.24516662,N,12004.25982767,E,1.73,72.96,10.35*4D
$GNGGA,093106.90,3019.24651984,N,12004.27107730,E,1,19,1.0,9.2233,M,7.8976,M,,*4B
$GNRMC,093106.90,A,3019.24651984,N,12004.27107730,E,1.357,165.0,251225,6.1,W,A,C*5E
$WTRTK,0.508,0.132,0.004,0.525,1.53,3.27,-72.59,4,21,5,31,753,--,1,9.3,9.9,165,1,3019.24516706,N,12004.25984254,E,1.70,72.59,10.35*4E
$GNGGA,093107.00,3019.24646704,N,12004.27109725,E,1,18,1.0,9.2244,M,7.8976,M,,*48
$GNRMC,093107.00,A,3019.24646704,N,12004.27109725,E,1.631,169.5,251225,6.1,W,A,C*50
$WTRTK,0.508,0.132,0.004,0.525,1.58,3.27,-72.14,4,21,5,31,753,--,1,9.3,9.8,165,1,3019.24516700,N,12004.25984838,E,1.58,72.14,10.36*4B
$GNGGA,093107.00,3019.24646704,N,12004.27109725,E,1,18,1.0,9.2244,M,7.8976,M,,*48
$GNRMC,093107.00,A,3019.24646704,N,12004.27109725,E,1.631,169.5,251225,6.1,W,A,C*50
$WTRTK,0.527,0.161,0.057,0.554,1.63,3.27,-71.67,4,21,5,31,753,--,1,9.3,9.9,165,1,3019.24516652,N,12004.25986202,E,1.55,71.67,10.36*43
$GNGGA,093107.10,3019.24641649,N,12004.27111803,E,1,18,1.0,9.2288,M,7.8976,M,,*44
$GNRMC,093107.10,A,3019.24641649,N,12004.27111803,E,1.746,168.1,251225,6.1,W,A,C*58
$WTRTK,0.527,0.161,0.057,0.554,1.65,3.32,-71.22,4,21,5,31,753,--,1,9.3,9.7,165,1,3019.24516596,N,12004.25986921,E,1.49,71.22,10.36*43
$GNGGA,093107.10,3019.24641649,N,12004.27111803,E,1,18,1.0,9.2288,M,7.8976,M,,*44
$GNRMC,093107.10,A,3019.24641649,N,12004.27111803,E,1.746,168.1,251225,6.1,W,A,C*58
$WTRTK,0.542,0.171,0.037,0.570,1.69,3.35,-70.81,4,21,5,31,753,--,1,9.3,9.9,165,1,3019.24516468,N,12004.25988197,E,1.48,70.81,10.36*4E
$GNGGA,093107.20,3019.24636512,N,12004.27113756,E,1,18,1.0,9.2342,M,7.8976,M,,*40
$GNRMC,093107.20,A,3019.24636512,N,12004.27113756,E,1.850,167.8,251225,6.1,W,A,C*55
$WTRTK,0.542,0.171,0.037,0.570,1.67,3.35,-70.47,4,21,5,31,753,--,1,9.3,9.9,165,1,3019.24516352,N,12004.25989054,E,1.42,70.47,10.36*4B
$GNGGA,093107.20,3019.24636512,N,12004.27113756,E,1,18,1.0,9.2342,M,7.8976,M,,*40
$GNRMC,093107.20,A,3019.24636512,N,12004.27113756,E,1.850,167.8,251225,6.1,W,A,C*55
$WTRTK,0.535,0.179,0.041,0.566,1.68,3.34,-70.19,4,21,5,31,753,--,1,9.3,10.0,165,1,3019.24516141,N,12004.25990258,E,1.40,70.19,10.36*7E
$GNGGA,093107.30,3019.24631310,N,12004.27115923,E,1,18,1.0,9.2398,M,7.8976,M,,*4F
$GNRMC,093107.30,A,3019.24631310,N,12004.27115923,E,1.843,161.3,251225,6.1,W,A,C*52
$WTRTK,0.535,0.179,0.041,0.566,1.80,3.37,-69.99,4,21,5,31,753,--,1,9.3,9.9,165,1,3019.24515998,N,12004.25990856,E,1.33,69.99,10.36*45
$GNGGA,093107.30,3019.24631310,N,12004.27115923,E,1,18,1.0,9.2398,M,7.8976,M,,*4F
$GNRMC,093107.30,A,3019.24631310,N,12004.27115923,E,1.843,161.3,251225,6.1,W,A,C*52
$WTRTK,0.532,0.177,0.045,0.562,1.74,3.40,-69.85,4,21,5,31,753,--,1,9.3,9.9,165,1,3019.24515692,N,12004.25991937,E,1.29,69.85,10.36*4E
$GNGGA,093107.40,3019.24626197,N,12004.27117893,E,1,18,1.0,9.2448,M,7.8976,M,,*41
$GNRMC,093107.40,A,3019.24626197,N,12004.27117893,E,1.760,161.8,251225,6.1,W,A,C*53
$WTRTK,0.532,0.177,0.045,0.562,1.70,3.41,-69.77,4,21,5,31,753,--,1,9.3,9.7,165,1,3019.24515470,N,12004.25992619,E,1.22,69.77,10.37*41
$GNGGA,093107.40,3019.24626197,N,12004.27117893,E,1,18,1.0,9.2448,M,7.8976,M,,*41
$GNRMC,093107.40,A,3019.24626197,N,12004.27117893,E,1.760,161.8,251225,6.1,W,A,C*53
$WTRTK,0.524,0.190,0.052,0.560,1.64,3.38,-69.73,4,21,5,31,753,--,1,9.3,9.8,165,1,3019.24515120,N,12004.25993588,E,1.20,69.73,10.37*47
$GNGGA,093107.50,3019.24621065,N,12004.27119664,E,1,18,1.0,9.2513,M,7.8976,M,,*4C
$GNRMC,093107.50,A,3019.24621065,N,12004.27119664,E,1.762,165.9,251225,6.1,W,A,C*56
$WTRTK,0.524,0.190,0.052,0.560,1.61,3.33,-69.67,4,21,5,31,0,--,1,9.3,10.0,165,1,3019.24514944,N,12004.25994038,E,1.14,69.67,10.37*7D
$GNGGA,093107.50,3019.24621065,N,12004.27119664,E,1,18,1.0,9.2513,M,7.8976,M,,*4C
$GNRMC,093107.50,A,3019.24621065,N,12004.27119664,E,1.762,165.9,251225,6.1,W,A,C*56
$WTRTK,0.538,0.192,0.078,0.577,1.58,3.33,-69.62,4,21,5,31,0,--,1,9.3,9.8,165,1,3019.24514566,N,12004.25994934,E,1.15,69.62,10.37*4E
$GNGGA,093107.60,3019.24615573,N,12004.27120875,E,1,18,1.0,9.2583,M,7.8976,M,,*47
$GNRMC,093107.60,A,3019.24615573,N,12004.27120875,E,1.801,166.0,251225,6.1,W,A,C*54
$WTRTK,0.538,0.192,0.078,0.577,1.62,3.36,-69.66,4,21,5,31,0,--,1,9.3,10.0,165,1,3019.24514374,N,12004.25995349,E,1.14,69.66,10.37*77
$GNGGA,093107.60,3019.24615573,N,12004.27120875,E,1,18,1.0,9.2583,M,7.8976,M,,*47
$GNRMC,093107.60,A,3019.24615573,N,12004.27120875,E,1.801,166.0,251225,6.1,W,A,C*54
$WTRTK,0.528,0.180,0.091,0.565,1.62,3.36,-69.77,4,21,5,31,0,--,1,9.3,9.8,165,1,3019.24513962,N,12004.25996228,E,1.17,69.77,10.37*4D
$GNGGA,093107.70,3019.24609959,N,12004.27122074,E,1,18,1.0,9.2639,M,7.8976,M,,*46
$GNRMC,093107.70,A,3019.24609959,N,12004.27122074,E,1.953,168.9,251225,6.1,W,A,C*56
$WTRTK,0.528,0.180,0.091,0.565,1.62,3.38,-69.86,4,21,5,31,83,--,1,9.3,9.8,165,1,3019.24513773,N,12004.25996646,E,1.16,69.86,10.37*7B
$GNGGA,093107.70,3019.24609959,N,12004.27122074,E,1,18,1.0,9.2639,M,7.8976,M,,*46
$GNRMC,093107.70,A,3019.24609959,N,12004.27122074,E,1.953,168.9,251225,6.1,W,A,C*56
$WTRTK,0.518,0.184,0.096,0.558,1.63,3.38,-69.88,4,21,5,31,83,--,1,9.3,9.7,165,1,3019.24513400,N,12004.25997568,E,1.20,69.88,10.38*78
$GNGGA,093107.80,3019.24604018,N,12004.27123271,E,1,18,1.0,9.2683,M,7.8976,M,,*4F
$GNRMC,093107.80,A,3019.24604018,N,12004.27123271,E,1.985,166.5,251225,6.1,W,A,C*57
$WTRTK,0.518,0.184,0.096,0.558,1.64,3.34,-69.90,4,21,5,31,83,--,1,9.3,9.9,165,1,3019.24513233,N,12004.25997986,E,1.19,69.90,10.38*7D
$GNGGA,093107.80,3019.24604018,N,12004.27123271,E,1,18,1.0,9.2683,M,7.8976,M,,*4F
$GNRMC,093107.80,A,3019.24604018,N,12004.27123271,E,1.985,166.5,251225,6.1,W,A,C*57
$WTRTK,0.519,0.181,0.075,0.555,1.63,3.33,-69.85,4,21,5,31,83,--,1,9.3,9.9,165,1,3019.24512860,N,12004.25998941,E,1.23,69.85,10.38*79
$GNGGA,093107.90,3019.24598298,N,12004.27125229,E,1,18,1.0,9.2706,M,7.8976,M,,*45
$GNRMC,093107.90,A,3019.24598298,N,12004.27125229,E,1.898,158.5,251225,6.1,W,A,C*51
$WTRTK,0.519,0.181,0.075,0.555,1.76,3.34,-69.86,4,21,5,31,83,--,1,9.3,9.8,165,1,3019.24512683,N,12004.25999353,E,1.22,69.86,10.38*71
$GNGGA,093107.90,3019.24598298,N,12004.27125229,E,1,18,1.0,9.2706,M,7.8976,M,,*45
$GNRMC,093107.90,A,3019.24598298,N,12004.27125229,E,1.898,158.5,251225,6.1,W,A,C*51
$WTRTK,0.548,0.196,0.065,0.586,1.72,3.31,-69.80,5,21,5,31,83,--,1,9.3,10.0,165,1,3019.24512281,N,12004.26000308,E,1.24,69.80,10.38*48
$GNGGA,093108.00,3019.24592829,N,12004.27127074,E,1,18,1.0,9.2722,M,7.8976,M,,*47
$GNRMC,093108.00,A,3019.24592829,N,12004.27127074,E,1.904,160.9,251225,6.1,W,A,C*56
$WTRTK,0.548,0.196,0.065,0.586,1.69,3.32,-69.72,5,21,5,31,83,--,1,9.3,9.7,165,1,3019.24512112,N,12004.26000707,E,1.23,69.72,10.38*7B
$GNGGA,093108.00,3019.24592829,N,12004.27127074,E,1,18,1.0,9.2722,M,7.8976,M,,*47
$GNRMC,093108.00,A,3019.24592829,N,12004.27127074,E,1.904,160.9,251225,6.1,W,A,C*56
$WTRTK,0.544,0.200,0.048,0.582,1.68,3.33,-69.63,5,21,5,31,83,--,1,9.3,9.9,165,1,3019.24511714,N,12004.26001681,E,1.27,69.63,10.38*77
$GNGGA,093108.10,3019.24586947,N,12004.27128812,E,1,18,1.0,9.2726,M,7.8976,M,,*49
$GNRMC,093108.10,A,3019.24586947,N,12004.27128812,E,1.905,165.4,251225,6.1,W,A,C*55
$WTRTK,0.544,0.200,0.048,0.582,1.70,3.38,-69.56,5,21,5,31,83,--,1,9.3,9.9,165,1,3019.24511551,N,12004.26002076,E,1.28,69.56,10.38*74
$GNGGA,093108.10,3019.24586947,N,12004.27128812,E,1,18,1.0,9.2726,M,7.8976,M,,*49
$GNRMC,093108.10,A,3019.24586947,N,12004.27128812,E,1.905,165.4,251225,6.1,W,A,C*55
$WTRTK,0.544,0.208,0.036,0.584,1.77,3.35,-69.52,5,21,5,31,83,--,1,9.3,9.9,165,1,3019.24511146,N,12004.26003087,E,1.31,69.52,10.38*7C
$GNGGA,093108.20,3019.24580688,N,12004.27130556,E,1,18,1.0,9.2679,M,7.8976,M,,*4F
$GNRMC,093108.20,A,3019.24580688,N,12004.27130556,E,1.952,171.1,251225,6.1,W,A,C*5A
$WTRTK,0.544,0.208,0.036,0.584,1.76,3.33,-69.47,5,21,5,31,83,--,1,9.3,10.0,165,1,3019.24510909,N,12004.26003697,E,1.32,69.47,10.39*4D
$GNGGA,093108.20,3019.24580688,N,12004.27130556,E,1,18,1.0,9.2679,M,7.8976,M,,*4F
$GNRMC,093108.20,A,3019.24580688,N,12004.27130556,E,1.952,171.1,251225,6.1,W,A,C*5A
$WTRTK,0.545,0.199,0.020,0.581,1.83,3.32,-69.43,5,21,5,31,83,--,1,9.3,9.8,165,1,3019.24510499,N,12004.26004754,E,1.36,69.43,10.39*77
$GNGGA,093108.30,3019.24574777,N,12004.27132198,E,1,18,1.0,9.2683,M,7.8976,M,,*45
$GNRMC,093108.30,A,3019.24574777,N,12004.27132198,E,1.859,168.7,251225,6.1,W,A,C*51
$WTRTK,0.545,0.199,0.020,0.581,1.91,3.29,-69.47,5,21,5,31,753,--,1,9.3,9.9,165,1,3019.24510345,N,12004.26005141,E,1.34,69.47,10.39*42
$GNGGA,093108.30,3019.24574777,N,12004.27132198,E,1,18,1.0,9.2683,M,7.8976,M,,*45
$GNRMC,093108.30,A,3019.24574777,N,12004.27132198,E,1.859,168.7,251225,6.1,W,A,C*51
$WTRTK,0.550,0.214,0.013,0.591,1.95,3.31,-69.59,5,21,5,31,753,--,1,9.3,9.9,165,1,3019.24509919,N,12004.26006204,E,1.37,69.59,10.39*45
$GNGGA,093108.40,3019.24570071,N,12004.27135699,E,1,18,1.0,9.2690,M,7.8976,M,,*44
$GNRMC,093108.40,A,3019.24570071,N,12004.27135699,E,1.764,147.6,251225,6.1,W,A,C*5F
$WTRTK,0.550,0.214,0.013,0.591,1.91,3.33,-69.77,5,21,5,31,753,--,1,9.3,9.9,165,1,3019.24509769,N,12004.26006573,E,1.34,69.77,10.39*4E
$GNGGA,093108.40,3019.24570071,N,12004.27135699,E,1,18,1.0,9.2690,M,7.8976,M,,*44
$GNRMC,093108.40,A,3019.24570071,N,12004.27135699,E,1.764,147.6,251225,6.1,W,A,C*5F
$WTRTK,0.558,0.216,0.077,0.603,1.91,3.27,-69.96,5,21,5,31,753,--,1,9.3,10.0,165,1,3019.24509354,N,12004.26007643,E,1.38,69.96,10.39*7D
$GNGGA,093108.50,3019.24564691,N,12004.27139200,E,1,18,1.0,9.2712,M,7.8976,M,,*4B
$GNRMC,093108.50,A,3019.24564691,N,12004.27139200,E,1.745,152.3,251225,6.1,W,A,C*59
$WTRTK,0.558,0.216,0.077,0.603,1.90,3.24,-70.04,5,21,5,31,0,--,1,9.3,9.8,165,1,3019.24509221,N,12004.26008004,E,1.37,70.04,10.40*46
$GNGGA,093108.50,3019.24564691,N,12004.27139200,E,1,18,1.0,9.2712,M,7.8976,M,,*4B
$GNRMC,093108.50,A,3019.24564691,N,12004.27139200,E,1.745,152.3,251225,6.1,W,A,C*59
$WTRTK,0.519,0.183,0.008,0.551,1.91,3.27,-70.19,5,21,5,31,0,--,1,9.3,9.8,165,1,3019.24508829,N,12004.26009116,E,1.42,70.19,10.40*40
$GNGGA,093108.60,3019.24559438,N,12004.27141836,E,1,18,1.0,9.2723,M,7.8976,M,,*45
$GNRMC,093108.60,A,3019.24559438,N,12004.27141836,E,1.785,159.8,251225,6.1,W,A,C*59
$WTRTK,0.519,0.183,0.008,0.551,1.96,3.27,-70.32,5,21,5,31,0,--,1,9.3,9.9,165,1,3019.24508709,N,12004.26009470,E,1.40,70.32,10.40*4C
$GNGGA,093108.60,3019.24559438,N,12004.27141836,E,1,18,1.0,9.2723,M,7.8976,M,,*45
$GNRMC,093108.60,A,3019.24559438,N,12004.27141836,E,1.785,159.8,251225,6.1,W,A,C*59
$WTRTK,0.520,0.179,0.022,0.550,1.98,3.26,-70.38,5,21,5,31,0,--,1,9.3,9.9,165,1,3019.24508511,N,12004.26010079,E,1.39,70.38,10.40*45
$GNGGA,093108.70,3019.24553894,N,12004.27143683,E,1,18,1.0,9.2724,M,7.8976,M,,*41
$GNRMC,093108.70,A,3019.24553894,N,12004.27143683,E,1.871,167.5,251225,6.1,W,A,C*5E
$WTRTK,0.520,0.179,0.022,0.550,2.01,3.26,-70.37,5,21,5,31,83,--,1,9.3,9.9,165,1,3019.24508403,N,12004.26010419,E,1.38,70.37,10.40*7C
$GNGGA,093108.70,3019.24553894,N,12004.27143683,E,1,18,1.0,9.2724,M,7.8976,M,,*41
$GNRMC,093108.70,A,3019.24553894,N,12004.27143683,E,1.871,167.5,251225,6.1,W,A,C*5E
$WTRTK,0.518,0.172,-0.014,0.547,2.14,3.31,-70.29,5,21,5,31,83,--,1,9.3,10.0,165,2,3019.24485421,N,12004.26006704,E,1.52,70.29,10.37*62
$GNGGA,093108.80,3019.24547789,N,12004.27145746,E,1,18,1.0,9.2705,M,7.8976,M,,*45
$GNRMC,093108.80,A,3019.24547789,N,12004.27145746,E,1.904,167.3,251225,6.1,W,A,C*5C
$WTRTK,0.518,0.172,-0.014,0.547,2.20,3.32,-70.20,5,21,5,31,83,--,1,9.3,9.9,165,2,3019.24467152,N,12004.26003507,E,1.69,70.20,10.35*54
$GNGGA,093108.80,3019.24547789,N,12004.27145746,E,1,18,1.0,9.2705,M,7.8976,M,,*45
$GNRMC,093108.80,A,3019.24547789,N,12004.27145746,E,1.904,167.3,251225,6.1,W,A,C*5C
$WTRTK,0.507,0.168,-0.058,0.538,2.24,3.40,-70.02,5,21,5,31,745,--,1,9.3,9.8,165,2,3019.24443615,N,12004.25999201,E,1.98,70.02,10.31*6C
$GNGGA,093108.90,3019.24541634,N,12004.27148404,E,1,18,1.0,9.2682,M,7.8976,M,,*43
$GNRMC,093108.90,A,3019.24541634,N,12004.27148404,E,1.919,159.8,251225,6.1,W,A,C*5E
$WTRTK,0.507,0.168,-0.058,0.538,2.21,3.40,-69.79,5,21,5,31,745,--,1,9.3,9.8,165,2,3019.24442428,N,12004.26000258,E,2.02,69.79,10.31*62
$GNGGA,093108.90,3019.24541634,N,12004.27148404,E,1,18,1.0,9.2682,M,7.8976,M,,*43
$GNRMC,093108.90,A,3019.24541634,N,12004.27148404,E,1.919,159.8,251225,6.1,W,A,C*5E
$WTRTK,0.529,0.184,0.015,0.561,2.24,3.44,-69.52,5,21,5,31,745,--,1,9.3,9.8,165,2,3019.24424937,N,12004.25996704,E,2.27,69.52,10.28*40
$GNGGA,093109.00,3019.24535683,N,12004.27151061,E,1,18,1.0,9.2647,M,7.8976,M,,*42
$GNRMC,093109.00,A,3019.24535683,N,12004.27151061,E,2.044,166.2,251225,6.1,W,A,C*52
$WTRTK,0.529,0.184,0.015,0.561,2.30,3.42,-69.19,5,21,5,31,745,--,1,9.3,9.9,165,2,3019.24423493,N,12004.25997801,E,2.33,69.19,10.28*48
$GNGGA,093109.00,3019.24535683,N,12004.27151061,E,1,18,1.0,9.2647,M,7.8976,M,,*42
$GNRMC,093109.00,A,3019.24535683,N,12004.27151061,E,2.044,166.2,251225,6.1,W,A,C*52
$WTRTK,0.501,0.172,-0.040,0.532,2.18,3.52,-68.77,5,21,5,31,745,--,1,9.3,9.9,165,2,3019.24415372,N,12004.25998694,E,2.48,68.77,10.26*69
$GNGGA,093109.10,3019.24529352,N,12004.27153329,E,1,18,1.0,9.2627,M,7.8976,M,,*4C
$GNRMC,093109.10,A,3019.24529352,N,12004.27153329,E,2.044,167.6,251225,6.1,W,A,C*5F
$WTRTK,0.501,0.172,-0.040,0.532,2.14,3.55,-68.39,5,21,5,31,745,--,1,9.3,10.0,165,2,3019.24405421,N,12004.25997407,E,2.62,68.39,10.25*5F
$GNGGA,093109.10,3019.24529352,N,12004.27153329,E,1,18,1.0,9.2627,M,7.8976,M,,*4C
$GNRMC,093109.10,A,3019.24529352,N,12004.27153329,E,2.044,167.6,251225,6.1,W,A,C*5F
$WTRTK,0.491,0.177,-0.064,0.526,2.11,3.57,-67.96,5,21,5,31,745,--,1,9.3,9.9,165,2,3019.24398324,N,12004.25996167,E,2.71,67.96,10.28*6B
$GNGGA,093109.20,3019.24523064,N,12004.27155547,E,1,18,1.0,9.2626,M,7.8976,M,,*4A
$GNRMC,093109.20,A,3019.24523064,N,12004.27155547,E,1.952,164.8,251225,6.1,W,A,C*58
$WTRTK,0.491,0.177,-0.064,0.526,2.09,3.58,-67.51,5,21,5,31,745,--,1,9.3,9.8,165,2,3019.24391741,N,12004.25994782,E,2.82,67.51,10.32*6A
$GNGGA,093109.20,3019.24523064,N,12004.27155547,E,1,18,1.0,9.2626,M,7.8976,M,,*4A
$GNRMC,093109.20,A,3019.24523064,N,12004.27155547,E,1.952,164.8,251225,6.1,W,A,C*58
$WTRTK,0.553,0.193,-0.015,0.586,2.08,3.52,-67.09,5,21,5,31,745,--,1,9.3,9.9,165,2,3019.24383094,N,12004.25992110,E,2.96,67.09,10.34*6D
$GNGGA,093109.30,3019.24516704,N,12004.27156988,E,1,19,1.0,9.2696,M,7.8976,M,,*4A
$GNRMC,093109.30,A,3019.24516704,N,12004.27156988,E,1.789,163.1,251225,6.1,W,A,C*54
$WTRTK,0.553,0.193,-0.015,0.586,2.13,3.47,-66.75,5,21,5,31,745,--,1,9.3,10.0,165,2,3019.24381177,N,12004.25993469,E,3.03,66.75,10.34*5B
$GNGGA,093109.30,3019.24516704,N,12004.27156988,E,1,19,1.0,9.2696,M,7.8976,M,,*4A
$GNRMC,093109.30,A,3019.24516704,N,12004.27156988,E,1.789,163.1,251225,6.1,W,A,C*54
$WTRTK,0.544,0.190,-0.026,0.577,2.09,3.44,-66.42,5,21,5,31,745,--,1,9.3,9.8,165,2,3019.24373788,N,12004.25990547,E,3.13,66.42,10.36*6E
$GNGGA,093109.40,3019.24510706,N,12004.27158433,E,1,19,1.0,9.2749,M,7.8976,M,,*49
$GNRMC,093109.40,A,3019.24510706,N,12004.27158433,E,1.704,163.6,251225,6.1,W,A,C*56
$WTRTK,0.544,0.190,-0.026,0.577,2.01,3.45,-66.10,5,21,5,31,745,--,1,9.3,9.9,165,2,3019.24370047,N,12004.25989567,E,3.20,66.10,10.36*6B
$GNGGA,093109.40,3019.24510706,N,12004.27158433,E,1,19,1.0,9.2749,M,7.8976,M,,*49
$GNRMC,093109.40,A,3019.24510706,N,12004.27158433,E,1.704,163.6,251225,6.1,W,A,C*56
$WTRTK,0.533,0.206,-0.047,0.573,1.93,3.48,-65.78,5,21,5,31,745,--,1,9.3,10.0,165,2,3019.24366518,N,12004.25988373,E,3.27,65.78,10.36*5D
$GNGGA,093109.50,3019.24504923,N,12004.27159752,E,1,19,1.0,9.2790,M,7.8976,M,,*45
$GNRMC,093109.50,A,3019.24504923,N,12004.27159752,E,1.607,158.6,251225,6.1,W,A,C*54
$WTRTK,0.533,0.206,-0.047,0.573,1.87,3.50,-65.47,5,21,5,31,0,--,1,9.3,9.8,165,2,3019.24364452,N,12004.25989951,E,3.32,65.47,10.36*65
$GNGGA,093109.50,3019.24504923,N,12004.27159752,E,1,19,1.0,9.2790,M,7.8976,M,,*45
$GNRMC,093109.50,A,3019.24504923,N,12004.27159752,E,1.607,158.6,251225,6.1,W,A,C*54
$WTRTK,0.533,0.192,-0.088,0.573,1.85,3.51,-65.18,5,21,5,31,0,--,1,9.3,9.9,165,2,3019.24361649,N,12004.25988696,E,3.36,65.18,10.35*65
$GNGGA,093109.60,3019.24500129,N,12004.27161285,E,1,22,0.9,9.2842,M,7.8976,M,,*44
$GNRMC,093109.60,A,3019.24500129,N,12004.27161285,E,1.613,154.7,251225,6.1,W,A,C*5D
$WTRTK,0.533,0.192,-0.088,0.573,1.82,3.53,-64.92,5,21,5,31,0,--,1,9.3,9.8,165,2,3019.24359557,N,12004.25990388,E,3.44,64.92,10.35*60
$GNGGA,093109.60,3019.24500129,N,12004.27161285,E,1,22,0.9,9.2842,M,7.8976,M,,*44
$GNRMC,093109.60,A,3019.24500129,N,12004.27161285,E,1.613,154.7,251225,6.1,W,A,C*5D
$WTRTK,0.530,0.203,-0.087,0.574,1.80,3.53,-64.68,5,21,5,31,0,--,1,9.3,9.8,165,2,3019.24357757,N,12004.25989129,E,3.47,64.68,10.33*6A
$GNGGA,093109.70,3019.24495264,N,12004.27163116,E,1,21,0.9,9.2891,M,7.8977,M,,*45
$GNRMC,093109.70,A,3019.24495264,N,12004.27163116,E,1.474,150.6,251225,6.1,W,A,C*56
$WTRTK,0.530,0.203,-0.087,0.574,1.76,3.54,-64.46,5,21,5,31,83,--,1,9.3,9.9,165,2,3019.24355673,N,12004.25990971,E,3.53,64.46,10.33*53
$GNGGA,093109.70,3019.24495264,N,12004.27163116,E,1,21,0.9,9.2891,M,7.8977,M,,*45
$GNRMC,093109.70,A,3019.24495264,N,12004.27163116,E,1.474,150.6,251225,6.1,W,A,C*56
$WTRTK,0.510,0.219,-0.103,0.565,1.75,3.54,-64.24,5,21,5,31,83,--,1,9.3,9.7,165,2,3019.24354890,N,12004.25986975,E,3.53,64.24,10.29*50
$GNGGA,093109.80,3019.24490572,N,12004.27164207,E,1,21,0.9,9.2949,M,7.8977,M,,*4F
$GNRMC,093109.80,A,3019.24490572,N,12004.27164207,E,1.413,160.5,251225,6.1,W,A,C*59
$WTRTK,0.510,0.219,-0.103,0.565,1.74,3.55,-64.03,5,21,5,31,83,--,1,9.3,9.7,165,2,3019.24352814,N,12004.25988922,E,3.60,64.03,10.29*56
$GNGGA,093109.80,3019.24490572,N,12004.27164207,E,1,21,0.9,9.2949,M,7.8977,M,,*4F
$GNRMC,093109.80,A,3019.24490572,N,12004.27164207,E,1.413,160.5,251225,6.1,W,A,C*59
$WTRTK,0.539,0.230,-0.061,0.590,1.75,3.55,-63.84,5,21,5,31,83,--,1,9.3,9.9,165,2,3019.24352473,N,12004.25984288,E,3.56,63.84,10.26*56
$GNGGA,093109.90,3019.24487413,N,12004.27165315,E,1,21,0.9,9.3042,M,7.8977,M,,*4E
$GNRMC,093109.90,A,3019.24487413,N,12004.27165315,E,1.264,161.7,251225,6.1,W,A,C*5E
$WTRTK,0.539,0.230,-0.061,0.590,1.75,3.53,-63.62,5,21,5,31,83,--,1,9.3,9.8,165,2,3019.24350422,N,12004.25986307,E,3.62,63.62,10.26*54
$GNGGA,093109.90,3019.24487413,N,12004.27165315,E,1,21,0.9,9.3042,M,7.8977,M,,*4E
$GNRMC,093109.90,A,3019.24487413,N,12004.27165315,E,1.264,161.7,251225,6.1,W,A,C*5E
$WTRTK,0.545,0.240,-0.051,0.598,1.79,3.48,-63.40,5,21,5,31,83,--,1,9.3,9.7,165,2,3019.24350359,N,12004.25981376,E,3.59,63.40,10.27*59
$GNGGA,093110.00,3019.24483301,N,12004.27166497,E,1,22,0.9,9.3122,M,7.8977,M,,*45
$GNRMC,093110.00,A,3019.24483301,N,12004.27166497,E,1.157,162.5,251225,6.1,W,A,C*53
$WTRTK,0.545,0.240,-0.051,0.598,1.79,3.48,-63.23,5,21,5,31,83,--,1,9.3,9.9,165,2,3019.24348320,N,12004.25983466,E,3.65,63.23,10.27*5B
$GNGGA,093110.00,3019.24483301,N,12004.27166497,E,1,22,0.9,9.3122,M,7.8977,M,,*45
$GNRMC,093110.00,A,3019.24483301,N,12004.27166497,E,1.157,162.5,251225,6.1,W,A,C*53
$WTRTK,0.532,0.234,-0.031,0.582,1.85,3.42,-63.04,5,21,5,31,83,--,1,9.3,9.8,165,2,3019.24349708,N,12004.25973815,E,3.55,63.04,10.29*58
$GNGGA,093110.10,3019.24479405,N,12004.27167277,E,1,22,0.9,9.3177,M,7.8977,M,,*4B
$GNRMC,093110.10,A,3019.24479405,N,12004.27167277,E,1.172,162.3,251225,6.1,W,A,C*5C
$WTRTK,0.532,0.234,-0.031,0.582,1.86,3.42,-62.87,5,21,5,31,83,--,1,9.3,9.9,165,2,3019.24347708,N,12004.25975891,E,3.61,62.87,10.29*59
$GNGGA,093110.10,3019.24479405,N,12004.27167277,E,1,22,0.9,9.3177,M,7.8977,M,,*4B
$GNRMC,093110.10,A,3019.24479405,N,12004.27167277,E,1.172,162.3,251225,6.1,W,A,C*5C
$WTRTK,0.521,0.216,-0.089,0.571,1.89,3.37,-62.73,5,21,5,31,83,--,1,9.3,9.9,165,2,3019.24348489,N,12004.25968741,E,3.53,62.73,10.27*5D
$GNGGA,093110.20,3019.24475705,N,12004.27167914,E,1,22,0.9,9.3212,M,7.8977,M,,*49
$GNRMC,093110.20,A,3019.24475705,N,12004.27167914,E,1.174,162.3,251225,6.1,W,A,C*58
$WTRTK,0.521,0.216,-0.089,0.571,1.92,3.34,-62.59,5,21,5,31,83,--,1,9.3,10.0,165,2,3019.24348975,N,12004.25962286,E,3.49,62.59,10.25*66
$GNGGA,093110.20,3019.24475705,N,12004.27167914,E,1,22,0.9,9.3212,M,7.8977,M,,*49
$GNRMC,093110.20,A,3019.24475705,N,12004.27167914,E,1.174,162.3,251225,6.1,W,A,C*58
$WTRTK,0.523,0.227,-0.074,0.575,1.94,3.33,-62.48,5,21,5,31,83,--,1,9.3,9.9,165,2,3019.24348105,N,12004.25960503,E,3.48,62.48,10.23*50
$GNGGA,093110.30,3019.24472149,N,12004.27168717,E,1,22,0.9,9.3256,M,7.8977,M,,*43
$GNRMC,093110.30,A,3019.24472149,N,12004.27168717,E,1.086,155.5,251225,6.1,W,A,C*5C
$WTRTK,0.523,0.227,-0.074,0.575,1.94,3.33,-62.37,5,21,5,31,83,--,1,9.3,9.9,165,2,3019.24346159,N,12004.25962559,E,3.53,62.37,10.23*50
$GNGGA,093110.30,3019.24472149,N,12004.27168717,E,1,22,0.9,9.3256,M,7.8977,M,,*43
$GNRMC,093110.30,A,3019.24472149,N,12004.27168717,E,1.086,155.5,251225,6.1,W,A,C*5C
$WTRTK,0.551,0.217,-0.108,0.602,1.96,3.31,-62.23,5,21,5,31,83,--,1,9.3,9.9,165,2,3019.24345262,N,12004.25960764,E,3.53,62.23,10.21*5B
$GNGGA,093110.40,3019.24468742,N,12004.27169559,E,1,22,0.9,9.3299,M,7.8977,M,,*48
$GNRMC,093110.40,A,3019.24468742,N,12004.27169559,E,1.049,155.5,251225,6.1,W,A,C*57
$WTRTK,0.551,0.217,-0.108,0.602,2.01,3.25,-62.07,5,21,5,31,83,--,1,9.3,10.0,165,2,3019.24345138,N,12004.25958688,E,3.52,62.07,10.21*67
$GNGGA,093110.40,3019.24468742,N,12004.27169559,E,1,22,0.9,9.3299,M,7.8977,M,,*48
$GNRMC,093110.40,A,3019.24468742,N,12004.27169559,E,1.049,155.5,251225,6.1,W,A,C*57
$WTRTK,0.550,0.227,-0.086,0.601,2.03,3.21,-61.90,5,21,5,31,83,--,1,9.3,9.8,165,2,3019.24344902,N,12004.25956640,E,3.52,61.90,10.20*5C
$GNGGA,093110.50,3019.24464872,N,12004.27170393,E,1,19,1.0,9.3339,M,7.8977,M,,*4A
$GNRMC,093110.50,A,3019.24464872,N,12004.27170393,E,1.011,162.4,251225,6.1,W,A,C*56
$WTRTK,0.550,0.227,-0.086,0.601,2.05,3.20,-61.74,5,21,5,31,0,--,1,9.3,9.9,165,2,3019.24343003,N,12004.25958799,E,3.58,61.74,10.20*6F
$GNGGA,093110.50,3019.24464872,N,12004.27170393,E,1,19,1.0,9.3339,M,7.8977,M,,*4A
$GNRMC,093110.50,A,3019.24464872,N,12004.27170393,E,1.011,162.4,251225,6.1,W,A,C*56
$WTRTK,0.522,0.248,-0.134,0.594,2.07,3.20,-61.59,5,21,5,31,0,--,1,9.3,9.8,165,2,3019.24341099,N,12004.25961024,E,3.64,61.59,10.20*62
$GNGGA,093110.60,3019.24461323,N,12004.27170903,E,1,19,1.0,9.3378,M,7.8977,M,,*45
$GNRMC,093110.60,A,3019.24461323,N,12004.27170903,E,0.861,161.1,251225,6.1,W,A,C*54
$WTRTK,0.522,0.248,-0.134,0.594,2.08,3.22,-61.47,5,21,5,31,0,--,1,9.3,9.8,165,2,3019.24339207,N,12004.25963342,E,3.70,61.47,10.20*61
$GNGGA,093110.60,3019.24461323,N,12004.27170903,E,1,19,1.0,9.3378,M,7.8977,M,,*45
$GNRMC,093110.60,A,3019.24461323,N,12004.27170903,E,0.861,161.1,251225,6.1,W,A,C*54
$WTRTK,0.521,0.260,-0.071,0.586,2.08,3.22,-61.35,5,21,5,31,0,--,1,9.3,9.8,165,2,3019.24337340,N,12004.25965762,E,3.78,61.35,10.20*6F
$GNGGA,093110.70,3019.24457826,N,12004.27171466,E,1,19,1.0,9.3420,M,7.8977,M,,*4A
$GNRMC,093110.70,A,3019.24457826,N,12004.27171466,E,0.734,155.5,251225,6.1,W,A,C*5D
$WTRTK,0.521,0.260,-0.071,0.586,2.10,3.21,-61.29,5,21,5,31,83,--,1,9.3,9.9,165,2,3019.24335497,N,12004.25968294,E,3.85,61.29,10.21*52
$GNGGA,093110.70,3019.24457826,N,12004.27171466,E,1,19,1.0,9.3420,M,7.8977,M,,*4A
$GNRMC,093110.70,A,3019.24457826,N,12004.27171466,E,0.734,155.5,251225,6.1,W,A,C*5D
$WTRTK,0.549,0.244,-0.109,0.611,2.10,3.22,-61.31,5,21,5,31,83,--,1,9.3,10.0,165,2,3019.24333692,N,12004.25970960,E,3.95,61.31,10.21*62
$GNGGA,093110.80,3019.24456274,N,12004.27171990,E,1,18,1.0,9.3459,M,7.8977,M,,*42
$GNRMC,093110.80,A,3019.24456274,N,12004.27171990,E,0.522,150.1,251225,6.1,W,A,C*5E
$WTRTK,0.549,0.244,-0.109,0.611,2.11,3.22,-61.35,5,21,5,31,83,--,1,9.3,10.0,165,2,3019.24331939,N,12004.25973782,E,4.06,61.35,10.21*63
$GNGGA,093110.80,3019.24456274,N,12004.27171990,E,1,18,1.0,9.3459,M,7.8977,M,,*42
$GNRMC,093110.80,A,3019.24456274,N,12004.27171990,E,0.522,150.1,251225,6.1,W,A,C*5E
$WTRTK,0.522,0.230,-0.155,0.591,2.13,3.22,-61.44,5,21,5,31,751,--,1,9.3,9.8,165,2,3019.24330231,N,12004.25976749,E,4.16,61.44,10.21*64
$GNGGA,093110.90,3019.24453534,N,12004.27172516,E,1,18,1.0,9.3500,M,7.8977,M,,*49
$GNRMC,093110.90,A,3019.24453534,N,12004.27172516,E,0.340,151.7,251225,6.1,W,A,C*5D
$WTRTK,0.522,0.230,-0.155,0.591,2.13,3.25,-61.57,5,21,5,31,751,--,1,9.3,9.9,165,2,3019.24328567,N,12004.25979859,E,4.28,61.57,10.21*63
$GNGGA,093110.90,3019.24453534,N,12004.27172516,E,1,18,1.0,9.3500,M,7.8977,M,,*49
$GNRMC,093110.90,A,3019.24453534,N,12004.27172516,E,0.340,151.7,251225,6.1,W,A,C*5D
$WTRTK,0.515,0.204,-0.180,0.583,2.13,3.25,-61.71,5,21,5,31,751,--,1,9.3,9.8,165,2,3019.24326964,N,12004.25983137,E,4.41,61.71,10.21*60
$GNGGA,093111.00,3019.24451247,N,12004.27172819,E,1,18,1.0,9.3550,M,7.8977,M,,*47
$GNRMC,093111.00,A,3019.24451247,N,12004.27172819,E,0.115,193.4,251225,6.1,W,A,C*59
$WTRTK,0.515,0.204,-0.180,0.583,2.13,3.26,-61.82,5,21,5,31,751,--,1,9.3,9.9,165,2,3019.24325412,N,12004.25986570,E,4.52,61.82,10.21*6D
$GNGGA,093111.00,3019.24451247,N,12004.27172819,E,1,18,1.0,9.3550,M,7.8977,M,,*47
$GNRMC,093111.00,A,3019.24451247,N,12004.27172819,E,0.115,193.4,251225,6.1,W,A,C*59
$WTRTK,0.543,0.214,-0.049,0.586,2.13,3.26,-61.89,5,21,5,31,751,--,1,9.3,9.9,165,2,3019.24323884,N,12004.25990112,E,4.60,61.89,10.21*6D
$GNGGA,093111.10,3019.24449515,N,12004.27172625,E,1,18,1.0,9.3603,M,7.8977,M,,*4B
$GNRMC,093111.10,A,3019.24449515,N,12004.27172625,E,0.083,299.7,251225,6.1,W,A,C*54
$WTRTK,0.543,0.214,-0.049,0.586,2.13,3.26,-61.93,5,21,5,31,751,--,1,9.3,9.8,165,2,3019.24322360,N,12004.25993726,E,4.67,61.93,10.21*69
$GNGGA,093111.10,3019.24449515,N,12004.27172625,E,1,18,1.0,9.3603,M,7.8977,M,,*4B
$GNRMC,093111.10,A,3019.24449515,N,12004.27172625,E,0.083,299.7,251225,6.1,W,A,C*54
$WTRTK,0.516,0.223,-0.120,0.575,2.13,3.26,-61.95,5,21,5,31,751,--,1,9.3,9.8,165,2,3019.24320832,N,12004.25997391,E,4.72,61.95,10.21*69
$GNGGA,093111.20,3019.24448811,N,12004.27171720,E,1,18,1.1,9.3648,M,7.8977,M,,*49
$GNRMC,093111.20,A,3019.24448811,N,12004.27171720,E,0.090,332.0,251225,6.1,W,A,C*5D
$WTRTK,0.516,0.223,-0.120,0.575,2.13,3.27,-61.97,5,21,5,31,1419,--,1,9.3,9.8,165,2,3019.24319292,N,12004.26001096,E,4.76,61.97,10.21*59
$GNGGA,093111.20,3019.24448811,N,12004.27171720,E,1,18,1.1,9.3648,M,7.8977,M,,*49
$GNRMC,093111.20,A,3019.24448811,N,12004.27171720,E,0.090,332.0,251225,6.1,W,A,C*5D
$WTRTK,0.510,0.197,-0.132,0.563,2.14,3.27,-61.99,5,21,5,31,1419,--,1,9.3,9.7,165,2,3019.24317735,N,12004.26004830,E,4.80,61.99,10.21*51
$GNGGA,093111.30,3019.24448525,N,12004.27170729,E,1,18,1.1,9.3699,M,7.8977,M,,*46
$GNRMC,093111.30,A,3019.24448525,N,12004.27170729,E,0.038,132.2,251225,6.1,W,A,C*5C
$WTRTK,0.510,0.197,-0.132,0.563,2.14,3.27,-62.01,5,21,5,31,1419,--,1,9.3,9.8,165,2,3019.24316158,N,12004.26008588,E,4.83,62.01,10.21*53
$GNGGA,093111.30,3019.24448525,N,12004.27170729,E,1,18,1.1,9.3699,M,7.8977,M,,*46
$GNRMC,093111.30,A,3019.24448525,N,12004.27170729,E,0.038,132.2,251225,6.1,W,A,C*5C
$WTRTK,0.506,0.215,-0.049,0.552,2.16,3.21,-62.03,5,21,5,31,1419,--,1,9.3,9.9,165,2,3019.24324190,N,12004.25990571,E,4.49,62.03,10.21*59
$GNGGA,093111.40,3019.24447700,N,12004.27169613,E,1,18,1.1,9.3756,M,7.8977,M,,*49
$GNRMC,093111.40,A,3019.24447700,N,12004.27169613,E,0.158,158.3,251225,6.1,W,A,C*5B
$WTRTK,0.506,0.215,-0.049,0.552,2.14,3.21,-62.05,5,21,5,31,1419,--,1,9.3,9.9,165,2,3019.24322708,N,12004.25994082,E,4.52,62.05,10.21*5D
$GNGGA,093111.40,3019.24447700,N,12004.27169613,E,1,18,1.1,9.3756,M,7.8977,M,,*49
$GNRMC,093111.40,A,3019.24447700,N,12004.27169613,E,0.158,158.3,251225,6.1,W,A,C*5B
$WTRTK,0.503,0.204,-0.110,0.554,2.21,3.11,-62.06,5,21,5,31,1419,--,1,9.3,9.9,165,2,3019.24335073,N,12004.25962875,E,3.96,62.06,10.19*56
$GNGGA,093111.50,3019.24446491,N,12004.27168314,E,1,18,1.1,9.3819,M,7.8977,M,,*45
$GNRMC,093111.50,A,3019.24446491,N,12004.27168314,E,0.157,163.3,251225,6.1,W,A,C*54
$WTRTK,0.503,0.204,-0.110,0.554,2.21,3.11,-62.08,5,21,5,31,0,--,1,9.3,9.9,165,2,3019.24333748,N,12004.25965960,E,3.99,62.08,10.19*6F
$GNGGA,093111.50,3019.24446491,N,12004.27168314,E,1,18,1.1,9.3819,M,7.8977,M,,*45
$GNRMC,093111.50,A,3019.24446491,N,12004.27168314,E,0.157,163.3,251225,6.1,W,A,C*54
$WTRTK,0.498,0.203,-0.092,0.545,2.25,3.07,-62.09,5,21,5,31,0,--,1,9.3,9.9,165,2,3019.24337862,N,12004.25954570,E,3.78,62.09,10.19*60
$GNGGA,093111.60,3019.24445742,N,12004.27166793,E,1,18,1.1,9.3892,M,7.8977,M,,*4E
$GNRMC,093111.60,A,3019.24445742,N,12004.27166793,E,0.088,108.4,251225,6.1,W,A,C*55
$WTRTK,0.498,0.203,-0.092,0.545,2.29,3.03,-62.11,5,21,5,31,0,--,1,9.3,9.9,165,2,3019.24341475,N,12004.25944549,E,3.59,62.11,10.18*6A
$GNGGA,093111.60,3019.24445742,N,12004.27166793,E,1,18,1.1,9.3892,M,7.8977,M,,*4E
$GNRMC,093111.60,A,3019.24445742,N,12004.27166793,E,0.088,108.4,251225,6.1,W,A,C*55
$WTRTK,0.496,0.211,-0.068,0.544,2.32,2.99,-62.12,5,21,5,31,0,--,1,9.3,9.9,165,2,3019.24345341,N,12004.25935977,E,3.41,62.12,10.16*6F
$GNGGA,093111.70,3019.24445123,N,12004.27165165,E,1,18,1.1,9.3971,M,7.8977,M,,*4E
$GNRMC,093111.70,A,3019.24445123,N,12004.27165165,E,0.063,76.6,251225,6.1,W,A,C*66
$WTRTK,0.496,0.211,-0.068,0.544,2.32,3.00,-62.13,5,21,5,31,83,--,1,9.3,9.8,165,2,3019.24344186,N,12004.25938637,E,3.45,62.13,10.17*5F
$GNGGA,093111.70,3019.24445123,N,12004.27165165,E,1,18,1.1,9.3971,M,7.8977,M,,*4E
$GNRMC,093111.70,A,3019.24445123,N,12004.27165165,E,0.063,76.6,251225,6.1,W,A,C*66
$WTRTK,0.509,0.208,-0.030,0.551,2.35,2.96,-62.14,5,21,5,31,83,--,1,9.3,10.0,165,2,3019.24347673,N,12004.25930882,E,3.30,62.14,10.15*66
$GNGGA,093111.80,3019.24445186,N,12004.27163266,E,1,18,1.1,9.4068,M,7.8977,M,,*4E
$GNRMC,093111.80,A,3019.24445186,N,12004.27163266,E,0.054,0.8,251225,6.1,W,A,C*5B
$WTRTK,0.509,0.208,-0.030,0.551,2.38,2.93,-62.14,5,21,5,31,83,--,1,9.3,9.8,165,2,3019.24350877,N,12004.25923860,E,3.16,62.14,10.14*59
$GNGGA,093111.80,3019.24445186,N,12004.27163266,E,1,18,1.1,9.4068,M,7.8977,M,,*4E
$GNRMC,093111.80,A,3019.24445186,N,12004.27163266,E,0.054,0.8,251225,6.1,W,A,C*5B
$WTRTK,0.484,0.209,-0.082,0.533,2.41,2.90,-62.14,5,21,5,31,83,--,1,9.3,10.0,165,2,3019.24353937,N,12004.25917210,E,3.02,62.14,10.13*62
$GNGGA,093111.90,3019.24445350,N,12004.27161159,E,1,18,1.1,9.4169,M,7.8976,M,,*4A
$GNRMC,093111.90,A,3019.24445350,N,12004.27161159,E,0.035,298.2,251225,6.1,W,A,C*50
$WTRTK,0.484,0.209,-0.082,0.533,2.41,2.91,-62.13,5,21,5,31,751,--,1,9.3,9.7,165,2,3019.24352934,N,12004.25919569,E,3.05,62.13,10.13*66
$GNGGA,093111.90,3019.24445350,N,12004.27161159,E,1,18,1.1,9.4169,M,7.8976,M,,*4A
$GNRMC,093111.90,A,3019.24445350,N,12004.27161159,E,0.035,298.2,251225,6.1,W,A,C*50
$WTRTK,0.483,0.208,-0.138,0.544,2.44,2.88,-62.13,5,21,5,31,751,--,1,9.3,9.8,165,2,3019.24355721,N,12004.25913483,E,2.91,62.13,10.12*6D
$GNGGA,093112.00,3019.24445373,N,12004.27159457,E,1,18,1.1,9.4313,M,7.8976,M,,*4E
$GNRMC,093112.00,A,3019.24445373,N,12004.27159457,E,0.064,241.6,251225,6.1,W,A,C*5F
$WTRTK,0.483,0.208,-0.138,0.544,2.44,2.88,-62.12,5,21,5,31,751,--,1,9.3,9.9,165,2,3019.24354749,N,12004.25915753,E,2.93,62.12,10.12*69
$GNGGA,093112.00,3019.24445373,N,12004.27159457,E,1,18,1.1,9.4313,M,7.8976,M,,*4E
$GNRMC,093112.00,A,3019.24445373,N,12004.27159457,E,0.064,241.6,251225,6.1,W,A,C*5F
$WTRTK,0.483,0.186,-0.111,0.530,2.48,2.83,-62.12,5,21,5,31,751,--,1,9.3,9.9,164,2,3019.24359601,N,12004.25904005,E,2.69,62.12,10.12*63
$GNGGA,093112.10,3019.24446323,N,12004.27157100,E,1,18,1.1,9.4463,M,7.8976,M,,*40
$GNRMC,093112.10,A,3019.24446323,N,12004.27157100,E,0.007,266.9,251225,6.1,W,A,C*5E
$WTRTK,0.483,0.186,-0.111,0.530,2.49,2.83,-62.12,5,21,5,31,751,--,1,9.3,9.9,164,2,3019.24358686,N,12004.25906087,E,2.70,62.12,10.12*6C
$GNGGA,093112.10,3019.24446323,N,12004.27157100,E,1,18,1.1,9.4463,M,7.8976,M,,*40
$GNRMC,093112.10,A,3019.24446323,N,12004.27157100,E,0.007,266.9,251225,6.1,W,A,C*5E
$WTRTK,0.501,0.206,-0.136,0.559,2.51,2.81,-62.11,5,21,5,31,751,--,1,9.3,9.9,164,2,3019.24360134,N,12004.25902442,E,2.61,62.11,10.12*61
$GNGGA,093112.20,3019.24447330,N,12004.27154800,E,1,18,1.1,9.4610,M,7.8976,M,,*4C
$GNRMC,093112.20,A,3019.24447330,N,12004.27154800,E,0.018,63.5,251225,6.1,W,A,C*61
$WTRTK,0.501,0.206,-0.136,0.559,2.53,2.80,-62.11,5,21,5,31,751,--,1,9.3,10.1,164,2,3019.24361537,N,12004.25899265,E,2.53,62.11,10.12*55
$GNGGA,093112.20,3019.24447330,N,12004.27154800,E,1,18,1.1,9.4610,M,7.8976,M,,*4C
$GNRMC,093112.20,A,3019.24447330,N,12004.27154800,E,0.018,63.5,251225,6.1,W,A,C*61
$WTRTK,0.510,0.188,-0.112,0.555,2.55,2.78,-62.10,5,21,5,31,751,--,1,9.3,10.0,164,2,3019.24363251,N,12004.25895451,E,2.43,62.10,10.11*50
$GNGGA,093112.30,3019.24447522,N,12004.27152460,E,1,18,1.1,9.4803,M,7.8976,M,,*48
$GNRMC,093112.30,A,3019.24447522,N,12004.27152460,E,0.066,144.0,251225,6.1,W,A,C*51
$WTRTK,0.510,0.188,-0.112,0.555,2.55,2.78,-62.09,5,21,5,31,751,--,1,9.3,9.8,164,2,3019.24362393,N,12004.25897318,E,2.45,62.09,10.11*60
$GNGGA,093112.30,3019.24447522,N,12004.27152460,E,1,18,1.1,9.4803,M,7.8976,M,,*48
$GNRMC,093112.30,A,3019.24447522,N,12004.27152460,E,0.066,144.0,251225,6.1,W,A,C*51
$WTRTK,0.517,0.168,-0.141,0.562,2.59,2.74,-62.09,5,21,5,31,751,--,1,9.3,9.9,164,2,3019.24365752,N,12004.25889812,E,2.27,62.09,10.09*67
$GNGGA,093112.40,3019.24447944,N,12004.27150506,E,1,18,1.1,9.4919,M,7.8976,M,,*4A
$GNRMC,093112.40,A,3019.24447944,N,12004.27150506,E,0.040,170.6,251225,6.1,W,A,C*5C
$WTRTK,0.517,0.168,-0.141,0.562,2.59,2.75,-62.08,5,21,5,31,751,--,1,9.3,9.9,164,2,3019.24364936,N,12004.25891547,E,2.29,62.08,10.10*69
$GNGGA,093112.40,3019.24447944,N,12004.27150506,E,1,18,1.1,9.4919,M,7.8976,M,,*4A
$GNRMC,093112.40,A,3019.24447944,N,12004.27150506,E,0.040,170.6,251225,6.1,W,A,C*5C
$WTRTK,0.497,0.174,-0.194,0.562,2.62,2.71,-62.08,5,21,5,31,751,--,1,9.3,9.9,164,2,3019.24367544,N,12004.25885555,E,2.14,62.08,10.08*62
$GNGGA,093112.50,3019.24448388,N,12004.27148685,E,1,18,1.1,9.5030,M,7.8976,M,,*4C
$GNRMC,093112.50,A,3019.24448388,N,12004.27148685,E,0.056,175.7,251225,6.1,W,A,C*5A
$WTRTK,0.497,0.174,-0.194,0.562,2.63,2.71,-62.08,5,21,5,31,0,--,1,9.3,9.8,164,2,3019.24366759,N,12004.25887180,E,2.16,62.08,10.08*62
$GNGGA,093112.50,3019.24448388,N,12004.27148685,E,1,18,1.1,9.5030,M,7.8976,M,,*4C
$GNRMC,093112.50,A,3019.24448388,N,12004.27148685,E,0.056,175.7,251225,6.1,W,A,C*5A
$WTRTK,0.492,0.188,-0.176,0.556,2.64,2.70,-62.07,5,21,5,31,0,--,1,9.3,9.9,164,2,3019.24367787,N,12004.25884765,E,2.08,62.07,10.06*65
$GNGGA,093112.60,3019.24448882,N,12004.27147056,E,1,18,1.1,9.5138,M,7.8976,M,,*40
$GNRMC,093112.60,A,3019.24448882,N,12004.27147056,E,0.050,71.9,251225,6.1,W,A,C*62
$WTRTK,0.492,0.188,-0.176,0.556,2.65,2.70,-62.07,5,21,5,31,0,--,1,9.3,10.0,164,2,3019.24367008,N,12004.25886336,E,2.10,62.07,10.06*5C
$GNGGA,093112.60,3019.24448882,N,12004.27147056,E,1,18,1.1,9.5138,M,7.8976,M,,*40
$GNRMC,093112.60,A,3019.24448882,N,12004.27147056,E,0.050,71.9,251225,6.1,W,A,C*62
$WTRTK,0.494,0.184,-0.153,0.549,2.67,2.68,-62.06,5,21,5,31,0,--,1,9.3,9.8,164,2,3019.24369059,N,12004.25882023,E,1.98,62.06,10.05*6D
$GNGGA,093112.70,3019.24449376,N,12004.27145764,E,1,18,1.1,9.5228,M,7.8976,M,,*46
$GNRMC,093112.70,A,3019.24449376,N,12004.27145764,E,0.094,68.7,251225,6.1,W,A,C*68
$WTRTK,0.494,0.184,-0.153,0.549,2.68,2.68,-62.06,5,21,5,31,83,--,1,9.3,10.0,164,2,3019.24368305,N,12004.25883508,E,1.99,62.06,10.05*6E
$GNGGA,093112.70,3019.24449376,N,12004.27145764,E,1,18,1.1,9.5228,M,7.8976,M,,*46
$GNRMC,093112.70,A,3019.24449376,N,12004.27145764,E,0.094,68.7,251225,6.1,W,A,C*68
$WTRTK,0.506,0.171,-0.134,0.551,2.69,2.66,-62.06,5,21,5,31,83,--,1,9.3,9.8,164,2,3019.24369018,N,12004.25882435,E,1.94,62.06,10.05*54
