$GNGGA,091842.90,3019.24310864,N,12004.27216818,E,4,24,0.7,4.4400,M,7.8977,M,0.9,0*5F
$GNRMC,091842.90,D,3019.24310864,N,12004.27216818,E,0.003,245.4,251225,6.1,W,R,S*5C
$WTRTK,-0.529,-0.149,0.043,0.552,-0.96,0.29,100.40,4,21,5,31,784,--,1,9.3,12.4,165,2,3019.23993010,N,12004.26469284,E,0.46,259.60,8.58*44
$GNGGA,091842.90,3019.24310864,N,12004.27216818,E,4,24,0.7,4.4400,M,7.8977,M,0.9,0*5F
$GNRMC,091842.90,D,3019.24310864,N,12004.27216818,E,0.003,245.4,251225,6.1,W,R,S*5C
$WTRTK,-0.529,-0.149,0.043,0.552,-0.97,0.29,100.44,4,21,5,31,784,--,1,9.3,12.5,165,2,3019.23992815,N,12004.26468722,E,0.43,259.56,8.57*4B
$GNGGA,091843.00,3019.24310859,N,12004.27217011,E,4,24,0.7,4.4493,M,7.8977,M,1.0,0*5B
$GNRMC,091843.00,D,3019.24310859,N,12004.27217011,E,0.004,217.2,251225,6.1,W,R,S*5C
$WTRTK,-0.531,-0.149,0.045,0.554,-0.97,0.29,100.51,4,21,5,31,784,--,1,9.3,12.4,165,2,3019.23992872,N,12004.26468766,E,0.43,259.49,8.56*49
$GNGGA,091843.10,3019.24310367,N,12004.27217622,E,4,24,0.7,4.4480,M,7.8977,M,1.1,0*59
$GNRMC,091843.10,D,3019.24310367,N,12004.27217622,E,0.002,187.5,251225,6.1,W,R,S*56
$WTRTK,-0.531,-0.149,0.045,0.554,-0.98,0.29,100.55,4,21,5,31,784,--,1,9.3,12.4,165,2,3019.23992787,N,12004.26468475,E,0.41,259.45,8.55*4B
$GNGGA,091843.10,3019.24310367,N,12004.27217622,E,4,24,0.7,4.4480,M,7.8977,M,1.1,0*59
$GNRMC,091843.10,D,3019.24310367,N,12004.27217622,E,0.002,187.5,251225,6.1,W,R,S*56
$WTRTK,-0.521,-0.148,0.049,0.544,-0.98,0.29,100.60,4,21,5,31,784,--,1,9.3,12.4,165,2,3019.23992720,N,12004.26468222,E,0.40,259.40,8.54*4C
$GNGGA,091843.20,3019.24310494,N,12004.27217584,E,4,24,0.7,4.4510,M,7.8977,M,1.2,0*55
$GNRMC,091843.20,D,3019.24310494,N,12004.27217584,E,0.003,186.9,251225,6.1,W,R,S*5D
$WTRTK,-0.514,-0.153,0.059,0.540,-0.99,0.29,100.65,4,21,5,31,784,--,1,9.3,12.5,165,2,3019.23992664,N,12004.26468003,E,0.38,259.35,8.53*4A
$GNGGA,091843.20,3019.24310494,N,12004.27217584,E,4,24,0.7,4.4510,M,7.8977,M,1.2,0*55
$GNRMC,091843.20,D,3019.24310494,N,12004.27217584,E,0.003,186.9,251225,6.1,W,R,S*5D
$WTRTK,-0.514,-0.153,0.059,0.540,-0.99,0.29,100.71,4,21,5,31,784,--,1,9.3,12.5,165,2,3019.23992669,N,12004.26467928,E,0.37,259.29,8.52*4E
$GNGGA,091843.30,3019.24310557,N,12004.27217518,E,4,24,0.7,4.4462,M,7.8977,M,1.3,0*5A
$GNRMC,091843.30,D,3019.24310557,N,12004.27217518,E,0.002,179.0,251225,6.1,W,R,S*5F
$WTRTK,-0.517,-0.151,0.051,0.541,-0.99,0.29,100.76,4,21,5,31,784,--,1,9.3,12.4,165,2,3019.23992630,N,12004.26467753,E,0.36,259.24,8.51*41
$GNGGA,091843.30,3019.24310557,N,12004.27217518,E,4,24,0.7,4.4462,M,7.8977,M,1.3,0*5A
$GNRMC,091843.30,D,3019.24310557,N,12004.27217518,E,0.002,179.0,251225,6.1,W,R,S*5F
$WTRTK,-0.517,-0.151,0.051,0.541,-1.00,0.29,100.81,4,21,5,31,784,--,1,9.3,12.5,165,2,3019.23992602,N,12004.26467601,E,0.35,259.19,8.51*43
$GNGGA,091843.40,3019.24310521,N,12004.27217739,E,4,24,0.7,4.4526,M,7.8977,M,1.4,0*5B
$GNRMC,091843.40,D,3019.24310521,N,12004.27217739,E,0.002,126.4,251225,6.1,W,R,S*56
$WTRTK,-0.523,-0.150,0.050,0.547,-1.01,0.29,100.85,4,21,5,31,1445,--,1,9.3,12.4,165,2,3019.23992581,N,12004.26467469,E,0.33,259.15,8.50*76
$GNGGA,091843.40,3019.24310521,N,12004.27217739,E,4,24,0.7,4.4526,M,7.8977,M,1.4,0*5B
$GNRMC,091843.40,D,3019.24310521,N,12004.27217739,E,0.002,126.4,251225,6.1,W,R,S*56
$WTRTK,-0.523,-0.150,0.050,0.547,-1.01,0.29,100.92,4,21,5,31,0,--,1,9.3,12.3,165,2,3019.23992599,N,12004.26467439,E,0.33,259.08,8.49*4B
$GNGGA,091843.50,3019.24310498,N,12004.27217527,E,4,24,0.7,4.4529,M,7.8977,M,0.5,0*5B
$GNRMC,091843.50,D,3019.24310498,N,12004.27217527,E,0.001,228.4,251225,6.1,W,R,S*57
$WTRTK,-0.517,-0.149,0.048,0.541,-1.01,0.29,100.97,4,21,5,31,0,--,1,9.3,12.4,165,2,3019.23992588,N,12004.26467337,E,0.32,259.03,8.48*4B
$GNGGA,091843.50,3019.24310498,N,12004.27217527,E,4,24,0.7,4.4529,M,7.8977,M,0.5,0*5B
$GNRMC,091843.50,D,3019.24310498,N,12004.27217527,E,0.001,228.4,251225,6.1,W,R,S*57
$WTRTK,-0.517,-0.149,0.048,0.541,-1.02,0.29,101.01,4,21,5,31,0,--,1,9.3,12.3,165,2,3019.23992583,N,12004.26467255,E,0.31,258.99,8.48*4E
$GNGGA,091843.60,3019.24310507,N,12004.27217641,E,4,25,0.7,4.4522,M,7.8977,M,0.6,0*55
$GNRMC,091843.60,D,3019.24310507,N,12004.27217641,E,0.001,214.7,251225,6.1,W,R,S*5C
$WTRTK,-0.520,-0.151,0.048,0.544,-1.02,0.28,101.06,4,21,5,31,0,--,1,9.3,12.4,165,2,3019.23992583,N,12004.26467186,E,0.30,258.94,8.47*49
$GNGGA,091843.60,3019.24310507,N,12004.27217641,E,4,25,0.7,4.4522,M,7.8977,M,0.6,0*55
$GNRMC,091843.60,D,3019.24310507,N,12004.27217641,E,0.001,214.7,251225,6.1,W,R,S*5C
$WTRTK,-0.520,-0.151,0.048,0.544,-1.02,0.29,101.12,4,21,5,31,87,--,1,9.3,12.5,165,2,3019.23992607,N,12004.26467187,E,0.30,258.88,8.46*71
$GNGGA,091843.70,3019.24310485,N,12004.27217780,E,4,25,0.7,4.4538,M,7.8977,M,0.7,0*59
$GNRMC,091843.70,D,3019.24310485,N,12004.27217780,E,0.000,107.3,251225,6.1,W,R,S*5E
$WTRTK,-0.526,-0.153,0.036,0.549,-1.03,0.28,101.17,4,21,5,31,87,--,1,9.3,12.3,165,2,3019.23992612,N,12004.26467135,E,0.29,258.83,8.46*7C
$GNGGA,091843.70,3019.24310485,N,12004.27217780,E,4,25,0.7,4.4538,M,7.8977,M,0.7,0*59
$GNRMC,091843.70,D,3019.24310485,N,12004.27217780,E,0.000,107.3,251225,6.1,W,R,S*5E
$WTRTK,-0.526,-0.153,0.036,0.549,-1.03,0.28,101.21,4,21,5,31,87,--,1,9.3,12.4,165,2,3019.23992621,N,12004.26467095,E,0.28,258.79,8.45*72
$GNGGA,091843.80,3019.24310426,N,12004.27217626,E,4,25,0.7,4.4559,M,7.8977,M,0.8,0*5A
$GNRMC,091843.80,D,3019.24310426,N,12004.27217626,E,0.002,285.0,251225,6.1,W,R,S*5D
$WTRTK,-0.525,-0.147,0.027,0.546,-1.03,0.28,101.26,4,21,5,31,87,--,1,9.3,12.4,165,2,3019.23992632,N,12004.26467063,E,0.27,258.74,8.45*75
$GNGGA,091843.80,3019.24310426,N,12004.27217626,E,4,25,0.7,4.4559,M,7.8977,M,0.8,0*5A
$GNRMC,091843.80,D,3019.24310426,N,12004.27217626,E,0.002,285.0,251225,6.1,W,R,S*5D
$WTRTK,-0.525,-0.147,0.027,0.546,-1.03,0.28,101.32,4,21,5,31,87,--,1,9.3,12.5,165,2,3019.23992659,N,12004.26467080,E,0.27,258.68,8.44*7D
$GNGGA,091843.90,3019.24310528,N,12004.27217542,E,4,26,0.7,4.4474,M,7.8977,M,0.9,0*59
$GNRMC,091843.90,D,3019.24310528,N,12004.27217542,E,0.002,321.4,251225,6.1,W,R,S*59
$WTRTK,-0.521,-0.153,0.036,0.544,-1.04,0.28,101.37,4,21,5,31,87,--,1,9.3,12.4,165,2,3019.23992673,N,12004.26467061,E,0.26,258.63,8.44*70
$GNGGA,091843.90,3019.24310528,N,12004.27217542,E,4,26,0.7,4.4474,M,7.8977,M,0.9,0*59
$GNRMC,091843.90,D,3019.24310528,N,12004.27217542,E,0.002,321.4,251225,6.1,W,R,S*59
$WTRTK,-0.521,-0.153,0.036,0.544,-1.04,0.28,101.41,4,21,5,31,87,--,1,9.3,12.4,165,2,3019.23992689,N,12004.26467053,E,0.25,258.59,8.43*78
$GNGGA,091843.90,3019.24310528,N,12004.27217542,E,4,26,0.7,4.4474,M,7.8977,M,0.9,0*59
$GNRMC,091843.90,D,3019.24310528,N,12004.27217542,E,0.002,321.4,251225,6.1,W,R,S*59
$WTRTK,-0.521,-0.153,0.036,0.544,-1.04,0.28,101.45,4,21,5,31,87,--,1,9.3,12.4,165,2,3019.23992696,N,12004.26467010,E,0.24,258.55,8.42*79
$GNGGA,091844.00,3019.24310480,N,12004.27217758,E,4,26,0.7,4.4504,M,7.8977,M,1.0,0*53
$GNRMC,091844.00,D,3019.24310480,N,12004.27217758,E,0.003,317.2,251225,6.1,W,R,S*5F
$WTRTK,-0.527,-0.149,0.048,0.550,-1.04,0.28,101.51,4,21,5,31,87,--,1,9.3,12.4,165,2,3019.23992730,N,12004.26467074,E,0.24,258.49,8.42*7F
$GNGGA,091844.10,3019.24309876,N,12004.27218221,E,4,26,0.7,4.4639,M,7.8977,M,1.1,0*57
$GNRMC,091844.10,D,3019.24309876,N,12004.27218221,E,0.003,273.6,251225,6.1,W,R,S*50
$WTRTK,-0.527,-0.149,0.048,0.550,-1.05,0.28,101.55,4,21,5,31,87,--,1,9.3,12.2,165,2,3019.23992747,N,12004.26467079,E,0.23,258.45,8.42*7A
$GNGGA,091844.10,3019.24309876,N,12004.27218221,E,4,26,0.7,4.4639,M,7.8977,M,1.1,0*57
$GNRMC,091844.10,D,3019.24309876,N,12004.27218221,E,0.003,273.6,251225,6.1,W,R,S*50
$WTRTK,-0.526,-0.150,0.050,0.550,-1.05,0.28,101.60,4,21,5,31,87,--,1,9.3,12.4,165,2,3019.23992765,N,12004.26467085,E,0.23,258.40,8.41*7F
$GNGGA,091844.20,3019.24309879,N,12004.27218082,E,4,26,0.7,4.4656,M,7.8977,M,1.2,0*5A
$GNRMC,091844.20,D,3019.24309879,N,12004.27218082,E,0.005,24.1,251225,6.1,W,R,S*66
$WTRTK,-0.517,-0.148,0.045,0.540,-1.05,0.28,101.64,4,21,5,31,87,--,1,9.3,12.5,165,2,3019.23992785,N,12004.26467111,E,0.22,258.36,8.41*76
$GNGGA,091844.20,3019.24309879,N,12004.27218082,E,4,26,0.7,4.4656,M,7.8977,M,1.2,0*5A
$GNRMC,091844.20,D,3019.24309879,N,12004.27218082,E,0.005,24.1,251225,6.1,W,R,S*66
$WTRTK,-0.517,-0.148,0.045,0.540,-1.05,0.28,101.71,4,21,5,31,87,--,1,9.3,12.4,165,2,3019.23992808,N,12004.26467141,E,0.22,258.29,8.41*72
$GNGGA,091844.30,3019.24309830,N,12004.27217974,E,4,25,0.7,4.4565,M,7.8977,M,1.3,0*58
$GNRMC,091844.30,D,3019.24309830,N,12004.27217974,E,0.001,352.1,251225,6.1,W,R,S*53
$WTRTK,-0.512,-0.153,0.040,0.536,-1.05,0.27,101.75,4,21,5,31,748,--,1,9.3,12.3,165,2,3019.23992825,N,12004.26467158,E,0.21,258.25,8.40*48
$GNGGA,091844.30,3019.24309830,N,12004.27217974,E,4,25,0.7,4.4565,M,7.8977,M,1.3,0*58
$GNRMC,091844.30,D,3019.24309830,N,12004.27217974,E,0.001,352.1,251225,6.1,W,R,S*53
$WTRTK,-0.512,-0.153,0.040,0.536,-1.05,0.28,101.79,4,21,5,31,748,--,1,9.3,12.4,165,2,3019.23992843,N,12004.26467179,E,0.21,258.21,8.40*4B
$GNGGA,091844.40,3019.24310018,N,12004.27218337,E,4,25,0.7,4.4634,M,7.8977,M,0.4,0*56
$GNRMC,091844.40,D,3019.24310018,N,12004.27218337,E,0.001,345.8,251225,6.1,W,R,S*53
$WTRTK,-0.510,-0.160,0.031,0.536,-1.06,0.28,101.84,4,21,5,31,748,--,1,9.3,12.4,165,2,3019.23992859,N,12004.26467199,E,0.20,258.16,8.40*4E
$GNGGA,091844.40,3019.24310018,N,12004.27218337,E,4,25,0.7,4.4634,M,7.8977,M,0.4,0*56
$GNRMC,091844.40,D,3019.24310018,N,12004.27218337,E,0.001,345.8,251225,6.1,W,R,S*53
$WTRTK,-0.510,-0.160,0.031,0.536,-1.05,0.29,101.91,4,21,5,31,0,--,1,9.3,12.4,165,2,3019.23992877,N,12004.26467229,E,0.20,258.09,8.39*47
$GNGGA,091844.50,3019.24309853,N,12004.27218145,E,4,24,0.7,4.4608,M,7.8977,M,0.5,0*50
$GNRMC,091844.50,D,3019.24309853,N,12004.27218145,E,0.000,351.5,251225,6.1,W,R,S*53
$WTRTK,-0.515,-0.149,0.050,0.539,-1.05,0.29,101.96,4,21,5,31,0,--,1,9.3,12.4,165,2,3019.23992901,N,12004.26467302,E,0.21,258.04,8.39*42
$GNGGA,091844.50,3019.24309853,N,12004.27218145,E,4,24,0.7,4.4608,M,7.8977,M,0.5,0*50
$GNRMC,091844.50,D,3019.24309853,N,12004.27218145,E,0.000,351.5,251225,6.1,W,R,S*53
$WTRTK,-0.515,-0.149,0.050,0.539,-1.05,0.29,102.01,4,21,5,31,0,--,1,9.3,12.4,165,2,3019.23992920,N,12004.26467358,E,0.21,257.99,8.39*48
$GNGGA,092414.30,3019.25962212,N,12004.26175972,E,4,27,0.7,6.6585,M,7.8969,M,1.3,0*5D
$GNRMC,092414.30,D,3019.25962212,N,12004.26175972,E,0.003,318.7,251225,6.1,W,R,S*5F
$WTRTK,-0.541,-0.139,-0.031,0.560,3.29,1.09,105.37,4,21,5,31,754,--,1,9.3,10.8,159,2,3019.25629736,N,12004.25669384,E,0.64,254.63,9.61*4A
$GNGGA,092414.40,3019.25962083,N,12004.26175865,E,4,27,0.7,6.6601,M,7.8969,M,1.4,0*5F
$GNRMC,092414.40,D,3019.25962083,N,12004.26175865,E,0.002,285.1,251225,6.1,W,R,S*57
$WTRTK,-0.547,-0.142,-0.030,0.566,3.29,1.10,105.37,4,21,5,31,754,--,1,9.3,10.8,159,2,3019.25629892,N,12004.25668999,E,0.65,254.63,9.61*48
$GNGGA,092414.40,3019.25962083,N,12004.26175865,E,4,27,0.7,6.6601,M,7.8969,M,1.4,0*5F
$GNRMC,092414.40,D,3019.25962083,N,12004.26175865,E,0.002,285.1,251225,6.1,W,R,S*57
$WTRTK,-0.547,-0.142,-0.030,0.566,3.30,1.09,105.36,4,21,5,31,0,--,1,9.3,10.8,159,2,3019.25629678,N,12004.25669523,E,0.69,254.64,9.61*42
$GNGGA,092414.50,3019.25962147,N,12004.26175919,E,4,27,0.7,6.6632,M,7.8969,M,1.5,0*5C
$GNRMC,092414.50,D,3019.25962147,N,12004.26175919,E,0.004,264.8,251225,6.1,W,R,S*55
$WTRTK,-0.528,-0.140,0.001,0.547,3.29,1.10,105.36,4,21,5,31,0,--,1,9.3,10.7,159,2,3019.25629846,N,12004.25669111,E,0.70,254.64,9.61*64
$GNGGA,092414.50,3019.25962147,N,12004.26175919,E,4,27,0.7,6.6632,M,7.8969,M,1.5,0*5C
$GNRMC,092414.50,D,3019.25962147,N,12004.26175919,E,0.004,264.8,251225,6.1,W,R,S*55
$WTRTK,-0.528,-0.140,0.001,0.547,3.30,1.10,105.35,4,21,5,31,0,--,1,9.3,10.7,159,2,3019.25629617,N,12004.25669678,E,0.74,254.65,9.61*68
$GNGGA,092414.60,3019.25962182,N,12004.26175823,E,4,27,0.7,6.6600,M,7.8969,M,1.6,0*5C
$GNRMC,092414.60,D,3019.25962182,N,12004.26175823,E,0.005,281.3,251225,6.1,W,R,S*56
$WTRTK,-0.528,-0.139,-0.001,0.546,3.30,1.10,105.35,4,21,5,31,0,--,1,9.3,10.7,159,2,3019.25629794,N,12004.25669238,E,0.76,254.65,9.61*42
$GNGGA,092414.60,3019.25962182,N,12004.26175823,E,4,27,0.7,6.6600,M,7.8969,M,1.6,0*5C
$GNRMC,092414.60,D,3019.25962182,N,12004.26175823,E,0.005,281.3,251225,6.1,W,R,S*56
$WTRTK,-0.528,-0.139,-0.001,0.546,3.14,1.23,105.35,4,21,5,31,0,--,1,9.3,10.8,159,2,3019.25639677,N,12004.25644566,E,0.08,254.65,9.68*45
$GNGGA,092414.70,3019.25962123,N,12004.26175836,E,4,27,0.7,6.6624,M,7.8969,M,1.7,0*55
$GNRMC,092414.70,D,3019.25962123,N,12004.26175836,E,0.003,297.1,251225,6.1,W,R,S*5B
$WTRTK,-0.526,-0.141,-0.003,0.545,3.14,1.24,105.35,4,21,5,31,748,--,1,9.3,10.7,159,2,3019.25640036,N,12004.25643657,E,0.08,254.65,9.69*4C
$GNGGA,092414.70,3019.25962123,N,12004.26175836,E,4,27,0.7,6.6624,M,7.8969,M,1.7,0*55
$GNRMC,092414.70,D,3019.25962123,N,12004.26175836,E,0.003,297.1,251225,6.1,W,R,S*5B
$WTRTK,-0.526,-0.141,-0.003,0.545,3.13,1.24,105.35,4,21,5,31,748,--,1,9.3,10.8,159,2,3019.25640230,N,12004.25643154,E,0.07,254.65,9.69*4B
$GNGGA,092414.80,3019.25962155,N,12004.26175807,E,4,27,0.7,6.6621,M,7.8969,M,0.8,0*52
$GNRMC,092414.80,D,3019.25962155,N,12004.26175807,E,0.003,328.3,251225,6.1,W,R,S*50
$WTRTK,-0.527,-0.143,0.002,0.546,3.13,1.24,105.34,4,21,5,31,748,--,1,9.3,10.7,159,2,3019.25640233,N,12004.25643150,E,0.10,254.66,9.69*6B
$GNGGA,092414.80,3019.25962155,N,12004.26175807,E,4,27,0.7,6.6621,M,7.8969,M,0.8,0*52
$GNRMC,092414.80,D,3019.25962155,N,12004.26175807,E,0.003,328.3,251225,6.1,W,R,S*50
$WTRTK,-0.527,-0.143,0.002,0.546,3.12,1.25,105.34,4,21,5,31,748,--,1,9.3,10.8,159,2,3019.25640033,N,12004.25643715,E,0.10,254.66,9.69*61
$GNGGA,092414.90,3019.25962089,N,12004.26175852,E,4,27,0.7,6.6600,M,7.8969,M,0.9,0*51
$GNRMC,092414.90,D,3019.25962089,N,12004.26175852,E,0.003,30.5,251225,6.1,W,R,S*6D
$WTRTK,-0.529,-0.142,0.002,0.548,3.12,1.26,105.34,4,21,5,31,748,--,1,9.3,10.7,159,2,3019.25639825,N,12004.25644305,E,0.12,254.66,9.69*6D
$GNGGA,092414.90,3019.25962089,N,12004.26175852,E,4,27,0.7,6.6600,M,7.8969,M,0.9,0*51
$GNRMC,092414.90,D,3019.25962089,N,12004.26175852,E,0.003,30.5,251225,6.1,W,R,S*6D
$WTRTK,-0.529,-0.142,0.002,0.548,3.11,1.27,105.34,4,21,5,31,748,--,1,9.3,10.9,159,2,3019.25639197,N,12004.25646114,E,0.12,254.66,9.69*61
$GNGGA,092415.00,3019.25962148,N,12004.26175863,E,4,28,0.7,6.6647,M,7.8969,M,1.0,0*53
$GNRMC,092415.00,D,3019.25962148,N,12004.26175863,E,0.004,40.9,251225,6.1,W,R,S*67
$WTRTK,-0.527,-0.140,-0.002,0.545,3.09,1.29,105.34,4,21,5,31,748,--,1,9.3,10.7,159,2,3019.25638294,N,12004.25648646,E,0.12,254.66,9.69*4B
$GNGGA,092415.00,3019.25962148,N,12004.26175863,E,4,28,0.7,6.6647,M,7.8969,M,1.0,0*53
$GNRMC,092415.00,D,3019.25962148,N,12004.26175863,E,0.004,40.9,251225,6.1,W,R,S*67
$WTRTK,-0.527,-0.140,-0.002,0.545,3.10,1.29,105.34,4,21,5,31,748,--,1,9.3,10.6,159,2,3019.25638255,N,12004.25648754,E,0.14,254.66,9.69*4B
$GNGGA,092415.10,3019.25962198,N,12004.26175891,E,4,29,0.6,6.6671,M,7.8969,M,1.1,0*56
$GNRMC,092415.10,D,3019.25962198,N,12004.26175891,E,0.002,56.6,251225,6.1,W,R,S*68
$WTRTK,-0.521,-0.139,0.006,0.539,3.09,1.29,105.34,4,21,5,31,748,--,1,9.3,10.7,159,2,3019.25637460,N,12004.25650876,E,0.16,254.66,9.69*63
$GNGGA,092415.10,3019.25962198,N,12004.26175891,E,4,29,0.6,6.6671,M,7.8969,M,1.1,0*56
$GNRMC,092415.10,D,3019.25962198,N,12004.26175891,E,0.002,56.6,251225,6.1,W,R,S*68
$WTRTK,-0.521,-0.139,0.006,0.539,3.07,1.31,105.34,4,21,5,31,748,--,1,9.3,10.7,159,2,3019.25635941,N,12004.25655064,E,0.15,254.66,9.69*65
$GNGGA,092415.20,3019.25962338,N,12004.26176041,E,4,29,0.6,6.6639,M,7.8969,M,1.2,0*54
$GNRMC,092415.20,D,3019.25962338,N,12004.26176041,E,0.002,58.2,251225,6.1,W,R,S*6F
$WTRTK,-0.525,-0.142,0.006,0.545,3.07,1.32,105.33,4,21,5,31,748,--,1,9.3,10.8,159,2,3019.25635444,N,12004.25656468,E,0.18,254.67,9.69*62
$GNGGA,092415.20,3019.25962338,N,12004.26176041,E,4,29,0.6,6.6639,M,7.8969,M,1.2,0*54
$GNRMC,092415.20,D,3019.25962338,N,12004.26176041,E,0.002,58.2,251225,6.1,W,R,S*6F
$WTRTK,-0.525,-0.142,0.006,0.545,3.04,1.33,105.33,4,21,5,31,748,--,1,9.3,10.7,159,2,3019.25633667,N,12004.25661728,E,0.17,254.67,9.69*66
$GNGGA,092415.30,3019.25962256,N,12004.26175941,E,4,29,0.6,6.6637,M,7.8969,M,1.3,0*59
$GNRMC,092415.30,D,3019.25962256,N,12004.26175941,E,0.000,53.5,251225,6.1,W,R,S*63
$WTRTK,-0.526,-0.140,0.000,0.545,3.03,1.35,105.33,4,21,5,31,748,--,1,9.3,10.7,159,2,3019.25632555,N,12004.25665036,E,0.18,254.67,9.69*60
$GNGGA,092415.30,3019.25962256,N,12004.26175941,E,4,29,0.6,6.6637,M,7.8969,M,1.3,0*59
$GNRMC,092415.30,D,3019.25962256,N,12004.26175941,E,0.000,53.5,251225,6.1,W,R,S*63
$WTRTK,-0.526,-0.140,0.000,0.545,3.00,1.37,105.33,4,21,5,31,748,--,1,9.3,10.7,159,2,3019.25630618,N,12004.25670753,E,0.17,254.67,9.69*66
$GNGGA,092415.40,3019.25962194,N,12004.26175935,E,4,29,0.6,6.6646,M,7.8969,M,1.4,0*51
$GNRMC,092415.40,D,3019.25962194,N,12004.26175935,E,0.001,220.3,251225,6.1,W,R,S*5B
$WTRTK,-0.525,-0.138,-0.002,0.543,3.00,1.37,105.33,4,21,5,31,748,--,1,9.3,10.7,159,2,3019.25629999,N,12004.25672564,E,0.19,254.67,9.69*47
$GNGGA,092415.40,3019.25962194,N,12004.26175935,E,4,29,0.6,6.6646,M,7.8969,M,1.4,0*51
$GNRMC,092415.40,D,3019.25962194,N,12004.26175935,E,0.001,220.3,251225,6.1,W,R,S*5B
$WTRTK,-0.525,-0.138,-0.002,0.543,2.97,1.40,105.33,4,21,5,31,0,--,1,9.3,10.6,159,2,3019.25627916,N,12004.25678516,E,0.17,254.67,9.69*4A
$GNGGA,092415.50,3019.25962225,N,12004.26175926,E,4,29,0.6,6.6664,M,7.8969,M,1.5,0*5A
$GNRMC,092415.50,D,3019.25962225,N,12004.26175926,E,0.000,178.0,251225,6.1,W,R,S*5D
$WTRTK,-0.532,-0.143,-0.012,0.551,2.96,1.41,105.33,4,21,5,31,0,--,1,9.3,10.7,159,2,3019.25626656,N,12004.25682120,E,0.18,254.67,9.69*42
$GNGGA,092415.50,3019.25962225,N,12004.26175926,E,4,29,0.6,6.6664,M,7.8969,M,1.5,0*5A
$GNRMC,092415.50,D,3019.25962225,N,12004.26175926,E,0.000,178.0,251225,6.1,W,R,S*5D
$WTRTK,-0.532,-0.143,-0.012,0.551,2.93,1.43,105.33,4,21,5,31,0,--,1,9.3,10.7,159,2,3019.25624636,N,12004.25688158,E,0.17,254.67,9.69*4B
$GNGGA,092415.60,3019.25962252,N,12004.26175995,E,4,29,0.6,6.6662,M,7.8969,M,1.6,0*54
$GNRMC,092415.60,D,3019.25962252,N,12004.26175995,E,0.001,107.9,251225,6.1,W,R,S*56
$WTRTK,-0.528,-0.141,-0.003,0.547,2.93,1.44,105.33,4,21,5,31,0,--,1,9.3,10.6,159,2,3019.25624008,N,12004.25690063,E,0.19,254.67,9.69*46
$GNGGA,092415.60,3019.25962252,N,12004.26175995,E,4,29,0.6,6.6662,M,7.8969,M,1.6,0*54
$GNRMC,092415.60,D,3019.25962252,N,12004.26175995,E,0.001,107.9,251225,6.1,W,R,S*56
$WTRTK,-0.528,-0.141,-0.003,0.547,2.90,1.46,105.33,4,21,5,31,661,--,1,9.3,10.7,159,2,3019.25622026,N,12004.25696216,E,0.17,254.67,9.69*45
$GNGGA,092415.70,3019.25962242,N,12004.26175978,E,4,29,0.6,6.6652,M,7.8969,M,1.7,0*55
$GNRMC,092415.70,D,3019.25962242,N,12004.26175978,E,0.003,94.9,251225,6.1,W,R,S*6C
$WTRTK,-0.532,-0.143,-0.010,0.551,2.88,1.47,105.33,4,21,5,31,661,--,1,9.3,10.7,159,2,3019.25620849,N,12004.25699841,E,0.18,254.67,9.69*4A
$GNGGA,092415.70,3019.25962242,N,12004.26175978,E,4,29,0.6,6.6652,M,7.8969,M,1.7,0*55
$GNRMC,092415.70,D,3019.25962242,N,12004.26175978,E,0.003,94.9,251225,6.1,W,R,S*6C
$WTRTK,-0.532,-0.143,-0.010,0.551,2.86,1.49,105.33,4,21,5,31,661,--,1,9.3,10.6,159,2,3019.25619003,N,12004.25705523,E,0.16,254.67,9.69*44
$GNGGA,092415.80,3019.25962157,N,12004.26175883,E,4,29,0.6,6.6630,M,7.8969,M,0.8,0*52
$GNRMC,092415.80,D,3019.25962157,N,12004.26175883,E,0.003,80.8,251225,6.1,W,R,S*65
$WTRTK,-0.530,-0.142,-0.005,0.549,2.86,1.50,105.33,4,21,5,31,661,--,1,9.3,10.9,159,2,3019.25618432,N,12004.25707287,E,0.18,254.67,9.69*4F
$GNGGA,092415.80,3019.25962157,N,12004.26175883,E,4,29,0.6,6.6630,M,7.8969,M,0.8,0*52
$GNRMC,092415.80,D,3019.25962157,N,12004.26175883,E,0.003,80.8,251225,6.1,W,R,S*65
$WTRTK,-0.530,-0.142,-0.005,0.549,2.83,1.52,105.33,4,21,5,31,661,--,1,9.3,10.7,159,2,3019.25616651,N,12004.25712837,E,0.16,254.67,9.69*44
$GNGGA,092415.90,3019.25962228,N,12004.26175944,E,4,29,0.6,6.6650,M,7.8969,M,0.9,0*55
$GNRMC,092415.90,D,3019.25962228,N,12004.26175944,E,0.004,90.7,251225,6.1,W,R,S*6C
$WTRTK,-0.531,-0.143,-0.007,0.550,2.82,1.53,105.33,4,21,5,31,661,--,1,9.3,10.8,159,2,3019.25615606,N,12004.25716095,E,0.16,254.67,9.69*44
$GNGGA,092415.90,3019.25962228,N,12004.26175944,E,4,29,0.6,6.6650,M,7.8969,M,0.9,0*55
$GNRMC,092415.90,D,3019.25962228,N,12004.26175944,E,0.004,90.7,251225,6.1,W,R,S*6C
$WTRTK,-0.531,-0.143,-0.007,0.550,2.80,1.55,105.33,4,21,5,31,661,--,1,9.3,10.7,159,2,3019.25614001,N,12004.25721058,E,0.15,254.67,9.69*49
$GNGGA,092416.00,3019.25962309,N,12004.26175947,E,4,29,0.6,6.6650,M,7.8969,M,1.0,0*56
$GNRMC,092416.00,D,3019.25962309,N,12004.26175947,E,0.004,102.4,251225,6.1,W,R,S*5E
$WTRTK,-0.530,-0.145,-0.001,0.550,2.77,1.57,105.32,4,21,5,31,661,--,1,9.3,10.6,159,2,3019.25612269,N,12004.25726443,E,0.14,254.68,9.69*4F
$GNGGA,092416.00,3019.25962309,N,12004.26175947,E,4,29,0.6,6.6650,M,7.8969,M,1.0,0*56
$GNRMC,092416.00,D,3019.25962309,N,12004.26175947,E,0.004,102.4,251225,6.1,W,R,S*5E
$WTRTK,-0.530,-0.145,-0.001,0.550,2.77,1.57,105.32,4,21,5,31,661,--,1,9.3,10.7,159,2,3019.25612228,N,12004.25726575,E,0.16,254.68,9.69*4D
$GNGGA,092416.10,3019.25962208,N,12004.26175946,E,4,29,0.6,6.6624,M,7.8969,M,1.1,0*54
$GNRMC,092416.10,D,3019.25962208,N,12004.26175946,E,0.005,99.8,251225,6.1,W,R,S*60
$WTRTK,-0.534,-0.142,-0.009,0.553,2.76,1.58,105.32,4,21,5,31,661,--,1,9.3,10.7,159,2,3019.25611314,N,12004.25729609,E,0.16,254.68,9.69*41
$GNGGA,092416.10,3019.25962208,N,12004.26175946,E,4,29,0.6,6.6624,M,7.8969,M,1.1,0*54
$GNRMC,092416.10,D,3019.25962208,N,12004.26175946,E,0.005,99.8,251225,6.1,W,R,S*60
$WTRTK,-0.534,-0.142,-0.009,0.553,2.74,1.60,105.32,4,21,5,31,661,--,1,9.3,10.8,159,2,3019.25609961,N,12004.25734115,E,0.14,254.68,9.69*42
$GNGGA,092416.20,3019.25962266,N,12004.26175993,E,4,29,0.6,6.6658,M,7.8969,M,1.2,0*5F
$GNRMC,092416.20,D,3019.25962266,N,12004.26175993,E,0.004,95.6,251225,6.1,W,R,S*60
$WTRTK,-0.530,-0.141,-0.010,0.549,2.73,1.60,105.32,4,21,5,31,661,--,1,9.3,10.7,159,2,3019.25609542,N,12004.25735478,E,0.15,254.68,9.69*4D
$GNGGA,092416.20,3019.25962266,N,12004.26175993,E,4,29,0.6,6.6658,M,7.8969,M,1.2,0*5F
$GNRMC,092416.20,D,3019.25962266,N,12004.26175993,E,0.004,95.6,251225,6.1,W,R,S*60
$WTRTK,-0.530,-0.141,-0.010,0.549,2.71,1.62,105.31,4,21,5,31,661,--,1,9.3,10.6,159,2,3019.25608292,N,12004.25739486,E,0.14,254.69,9.69*49
$GNGGA,092416.30,3019.25962238,N,12004.26176054,E,4,29,0.6,6.6667,M,7.8969,M,1.3,0*59
$GNRMC,092416.30,D,3019.25962238,N,12004.26176054,E,0.005,92.9,251225,6.1,W,R,S*62
$WTRTK,-0.535,-0.145,-0.004,0.554,2.70,1.63,105.31,4,21,5,31,661,--,1,9.3,10.7,159,2,3019.25607573,N,12004.25741822,E,0.14,254.69,9.69*4A
$GNGGA,092416.30,3019.25962238,N,12004.26176054,E,4,29,0.6,6.6667,M,7.8969,M,1.3,0*59
$GNRMC,092416.30,D,3019.25962238,N,12004.26176054,E,0.005,92.9,251225,6.1,W,R,S*62
$WTRTK,-0.535,-0.145,-0.004,0.554,2.68,1.65,105.31,4,21,5,31,661,--,1,9.3,10.9,159,2,3019.25606511,N,12004.25745398,E,0.13,254.69,9.69*47
$GNGGA,092416.40,3019.25962267,N,12004.26175884,E,4,29,0.6,6.6633,M,7.8969,M,1.4,0*54
$GNRMC,092416.40,D,3019.25962267,N,12004.26175884,E,0.005,82.5,251225,6.1,W,R,S*64
$WTRTK,-0.527,-0.143,-0.005,0.546,2.67,1.65,105.31,4,21,5,31,661,--,1,9.3,10.7,159,2,3019.25606181,N,12004.25746507,E,0.13,254.69,9.69*4F
$GNGGA,092416.40,3019.25962267,N,12004.26175884,E,4,29,0.6,6.6633,M,7.8969,M,1.4,0*54
$GNRMC,092416.40,D,3019.25962267,N,12004.26175884,E,0.005,82.5,251225,6.1,W,R,S*64
$WTRTK,-0.527,-0.143,-0.005,0.546,2.65,1.66,105.31,4,21,5,31,0,--,1,9.3,10.7,159,2,3019.25605207,N,12004.25749753,E,0.12,254.69,9.69*4C
$GNGGA,092416.50,3019.25962249,N,12004.26175876,E,4,29,0.6,6.6636,M,7.8969,M,1.5,0*50
$GNRMC,092416.50,D,3019.25962249,N,12004.26175876,E,0.005,81.2,251225,6.1,W,R,S*60
$WTRTK,-0.528,-0.141,-0.001,0.547,2.64,1.68,105.31,4,21,5,31,0,--,1,9.3,10.7,159,2,3019.25604644,N,12004.25751642,E,0.12,254.69,9.69*41
$GNGGA,092416.50,3019.25962249,N,12004.26175876,E,4,29,0.6,6.6636,M,7.8969,M,1.5,0*50
$GNRMC,092416.50,D,3019.25962249,N,12004.26175876,E,0.005,81.2,251225,6.1,W,R,S*60
$WTRTK,-0.528,-0.141,-0.001,0.547,2.63,1.69,105.31,4,21,5,31,0,--,1,9.3,10.8,159,2,3019.25603829,N,12004.25754493,E,0.11,254.69,9.70*4A
$GNGGA,092416.60,3019.25962289,N,12004.26175955,E,4,29,0.6,6.6645,M,7.8969,M,1.6,0*58
$GNRMC,092416.60,D,3019.25962289,N,12004.26175955,E,0.006,83.7,251225,6.1,W,R,S*6B
$WTRTK,-0.532,-0.146,-0.011,0.552,2.62,1.69,105.31,4,21,5,31,0,--,1,9.3,10.8,159,2,3019.25603574,N,12004.25755374,E,0.12,254.69,9.70*4B
$GNGGA,092416.60,3019.25962289,N,12004.26175955,E,4,29,0.6,6.6645,M,7.8969,M,1.6,0*58
$GNRMC,092416.60,D,3019.25962289,N,12004.26175955,E,0.006,83.7,251225,6.1,W,R,S*6B
$WTRTK,-0.532,-0.146,-0.011,0.552,2.60,1.71,105.30,4,21,5,31,87,--,1,9.3,10.7,159,2,3019.25602833,N,12004.25757934,E,0.11,254.70,9.70*79
$GNGGA,092416.70,3019.25962209,N,12004.26175930,E,4,29,0.6,6.6658,M,7.8969,M,1.7,0*5F
$GNRMC,092416.70,D,3019.25962209,N,12004.26175930,E,0.006,84.7,251225,6.1,W,R,S*66
$WTRTK,-0.531,-0.139,-0.009,0.550,2.60,1.71,105.30,4,21,5,31,87,--,1,9.3,10.6,159,2,3019.25602407,N,12004.25759422,E,0.11,254.70,9.70*77
$GNGGA,092416.70,3019.25962209,N,12004.26175930,E,4,29,0.6,6.6658,M,7.8969,M,1.7,0*5F
$GNRMC,092416.70,D,3019.25962209,N,12004.26175930,E,0.006,84.7,251225,6.1,W,R,S*66
$WTRTK,-0.531,-0.139,-0.009,0.550,2.58,1.72,105.30,4,21,5,31,87,--,1,9.3,10.7,159,2,3019.25601796,N,12004.25761668,E,0.10,254.70,9.70*70
$GNGGA,092416.80,3019.25962215,N,12004.26175857,E,4,29,0.6,6.6606,M,7.8969,M,1.8,0*59
$GNRMC,092416.80,D,3019.25962215,N,12004.26175857,E,0.006,90.1,251225,6.1,W,R,S*67
$WTRTK,-0.532,-0.142,-0.003,0.551,2.58,1.73,105.30,4,21,5,31,87,--,1,9.3,10.7,159,2,3019.25601607,N,12004.25762385,E,0.11,254.70,9.70*78
$GNGGA,092416.80,3019.25962215,N,12004.26175857,E,4,29,0.6,6.6606,M,7.8969,M,1.8,0*59
$GNRMC,092416.80,D,3019.25962215,N,12004.26175857,E,0.006,90.1,251225,6.1,W,R,S*67
$WTRTK,-0.532,-0.142,-0.003,0.551,2.57,1.74,105.30,4,21,5,31,748,--,1,9.3,10.7,159,2,3019.25601070,N,12004.25764460,E,0.10,254.70,9.70*49
$GNGGA,092416.90,3019.25962283,N,12004.26175998,E,4,29,0.6,6.6659,M,7.8969,M,1.9,0*5E
$GNRMC,092416.90,D,3019.25962283,N,12004.26175998,E,0.006,88.2,251225,6.1,W,R,S*61
$WTRTK,-0.531,-0.142,-0.008,0.550,2.55,1.75,105.30,4,21,5,31,748,--,1,9.3,10.8,159,2,3019.25600760,N,12004.25765668,E,0.10,254.70,9.70*40
$GNGGA,092416.90,3019.25962283,N,12004.26175998,E,4,29,0.6,6.6659,M,7.8969,M,1.9,0*5E
$GNRMC,092416.90,D,3019.25962283,N,12004.26175998,E,0.006,88.2,251225,6.1,W,R,S*61
$WTRTK,-0.531,-0.142,-0.008,0.550,2.54,1.76,105.29,4,21,5,31,748,--,1,9.3,10.6,159,2,3019.25600314,N,12004.25767435,E,0.09,254.71,9.71*43
$GNGGA,092417.00,3019.25962303,N,12004.26175922,E,4,29,0.6,6.6616,M,7.8969,M,1.0,0*5C
$GNRMC,092417.00,D,3019.25962303,N,12004.26175922,E,0.006,82.9,251225,6.1,W,R,S*60
$WTRTK,-0.534,-0.146,-0.002,0.553,2.54,1.76,105.29,4,21,5,31,748,--,1,9.3,10.7,159,2,3019.25600054,N,12004.25768467,E,0.09,254.71,9.71*45
$GNGGA,092417.00,3019.25962303,N,12004.26175922,E,4,29,0.6,6.6616,M,7.8969,M,1.0,0*5C
$GNRMC,092417.00,D,3019.25962303,N,12004.26175922,E,0.006,82.9,251225,6.1,W,R,S*60
$WTRTK,-0.534,-0.146,-0.002,0.553,2.53,1.77,105.29,4,21,5,31,748,--,1,9.3,10.7,159,2,3019.25599793,N,12004.25769553,E,0.09,254.71,9.71*4B
$GNGGA,092417.10,3019.25962248,N,12004.26175926,E,4,29,0.6,6.6636,M,7.8969,M,1.1,0*54
$GNRMC,092417.10,D,3019.25962248,N,12004.26175926,E,0.005,77.1,251225,6.1,W,R,S*6A
$WTRTK,-0.536,-0.144,-0.004,0.555,2.53,1.78,105.29,4,21,5,31,748,--,1,9.3,10.7,159,2,3019.25599560,N,12004.25770522,E,0.08,254.71,9.71*45
$GNGGA,092417.10,3019.25962248,N,12004.26175926,E,4,29,0.6,6.6636,M,7.8969,M,1.1,0*54
$GNRMC,092417.10,D,3019.25962248,N,12004.26175926,E,0.005,77.1,251225,6.1,W,R,S*6A
$WTRTK,-0.536,-0.144,-0.004,0.555,2.52,1.79,105.29,4,21,5,31,748,--,1,9.3,10.8,159,2,3019.25599235,N,12004.25771951,E,0.08,254.71,9.71*44
$GNGGA,092417.20,3019.25962239,N,12004.26175891,E,4,29,0.6,6.6646,M,7.8969,M,1.2,0*58
$GNRMC,092417.20,D,3019.25962239,N,12004.26175891,E,0.005,73.0,251225,6.1,W,R,S*67
$WTRTK,-0.535,-0.144,-0.005,0.554,2.51,1.79,105.29,4,21,5,31,748,--,1,9.3,10.7,159,2,3019.25599131,N,12004.25772411,E,0.08,254.71,9.71*46
$GNGGA,092417.20,3019.25962239,N,12004.26175891,E,4,29,0.6,6.6646,M,7.8969,M,1.2,0*58
$GNRMC,092417.20,D,3019.25962239,N,12004.26175891,E,0.005,73.0,251225,6.1,W,R,S*67
$WTRTK,-0.535,-0.144,-0.005,0.554,2.50,1.80,105.29,4,21,5,31,748,--,1,9.3,10.7,159,2,3019.25598848,N,12004.25773717,E,0.07,254.71,9.71*4C
$GNGGA,092417.30,3019.25962207,N,12004.26175942,E,4,29,0.6,6.6630,M,7.8969,M,1.3,0*5B
$GNRMC,092417.30,D,3019.25962207,N,12004.26175942,E,0.006,79.4,251225,6.1,W,R,S*69
$WTRTK,-0.531,-0.143,-0.003,0.550,2.49,1.80,105.29,4,21,5,31,748,--,1,9.3,10.9,159,2,3019.25598686,N,12004.25774482,E,0.07,254.71,9.71*4F
$GNGGA,092417.30,3019.25962207,N,12004.26175942,E,4,29,0.6,6.6630,M,7.8969,M,1.3,0*5B
$GNRMC,092417.30,D,3019.25962207,N,12004.26175942,E,0.006,79.4,251225,6.1,W,R,S*69
$WTRTK,-0.531,-0.143,-0.003,0.550,2.49,1.81,105.29,4,21,5,31,748,--,1,9.3,10.7,159,2,3019.25598463,N,12004.25775621,E,0.07,254.71,9.71*43
$GNGGA,092417.40,3019.25962374,N,12004.26175970,E,4,29,0.6,6.6678,M,7.8969,M,1.4,0*53
$GNRMC,092417.40,D,3019.25962374,N,12004.26175970,E,0.006,67.6,251225,6.1,W,R,S*67
$WTRTK,-0.532,-0.145,-0.004,0.552,2.48,1.81,105.29,4,21,5,31,748,--,1,9.3,10.6,159,2,3019.25598392,N,12004.25775993,E,0.07,254.71,9.71*4C
$GNGGA,092417.40,3019.25962374,N,12004.26175970,E,4,29,0.6,6.6678,M,7.8969,M,1.4,0*53
$GNRMC,092417.40,D,3019.25962374,N,12004.26175970,E,0.006,67.6,251225,6.1,W,R,S*67
$WTRTK,-0.532,-0.145,-0.004,0.552,2.47,1.82,105.28,4,21,5,31,0,--,1,9.3,10.7,159,2,3019.25598209,N,12004.25777052,E,0.07,254.72,9.72*4E
$GNGGA,092417.50,3019.25962312,N,12004.26176016,E,4,29,0.6,6.6690,M,7.8969,M,1.5,0*5F
$GNRMC,092417.50,D,3019.25962312,N,12004.26176016,E,0.007,79.3,251225,6.1,W,R,S*67
$WTRTK,-0.530,-0.143,-0.002,0.549,2.47,1.82,105.28,4,21,5,31,0,--,1,9.3,10.7,159,2,3019.25598102,N,12004.25777648,E,0.06,254.72,9.72*42
$GNGGA,092417.50,3019.25962312,N,12004.26176016,E,4,29,0.6,6.6690,M,7.8969,M,1.5,0*5F
$GNRMC,092417.50,D,3019.25962312,N,12004.26176016,E,0.007,79.3,251225,6.1,W,R,S*67
$WTRTK,-0.530,-0.143,-0.002,0.549,2.46,1.83,105.28,4,21,5,31,0,--,1,9.3,10.9,159,2,3019.25597955,N,12004.25778510,E,0.06,254.72,9.72*48
$GNGGA,092417.60,3019.25962229,N,12004.26175928,E,4,29,0.6,6.6642,M,7.8969,M,1.6,0*5E
$GNRMC,092417.60,D,3019.25962229,N,12004.26175928,E,0.008,81.7,251225,6.1,W,R,S*66
$WTRTK,-0.532,-0.144,-0.004,0.552,2.46,1.83,105.28,4,21,5,31,0,--,1,9.3,10.7,159,2,3019.25597909,N,12004.25778802,E,0.07,254.72,9.72*49
$GNGGA,092417.60,3019.25962229,N,12004.26175928,E,4,29,0.6,6.6642,M,7.8969,M,1.6,0*5E
$GNRMC,092417.60,D,3019.25962229,N,12004.26175928,E,0.008,81.7,251225,6.1,W,R,S*66
$WTRTK,-0.532,-0.144,-0.004,0.552,2.44,1.84,105.28,4,21,5,31,87,--,1,9.3,10.7,159,2,3019.25597792,N,12004.25779645,E,0.06,254.72,9.72*72
$GNGGA,092417.70,3019.25962281,N,12004.26176024,E,4,29,0.6,6.6666,M,7.8969,M,1.7,0*5C
$GNRMC,092417.70,D,3019.25962281,N,12004.26176024,E,0.006,80.8,251225,6.1,W,R,S*63
$WTRTK,-0.535,-0.143,-0.007,0.554,2.44,1.85,105.28,4,21,5,31,87,--,1,9.3,10.7,159,2,3019.25597723,N,12004.25780136,E,0.06,254.72,9.72*79
$GNGGA,092417.70,3019.25962281,N,12004.26176024,E,4,29,0.6,6.6666,M,7.8969,M,1.7,0*5C
$GNRMC,092417.70,D,3019.25962281,N,12004.26176024,E,0.006,80.8,251225,6.1,W,R,S*63
$WTRTK,-0.535,-0.143,-0.007,0.554,2.43,1.85,105.28,4,21,5,31,87,--,1,9.3,10.6,159,2,3019.25597623,N,12004.25780827,E,0.05,254.72,9.72*74
$GNGGA,092417.80,3019.25962333,N,12004.26175987,E,4,29,0.6,6.6634,M,7.8969,M,1.8,0*50
$GNRMC,092417.80,D,3019.25962333,N,12004.26175987,E,0.007,72.8,251225,6.1,W,R,S*6B
$WTRTK,-0.538,-0.145,-0.009,0.557,2.43,1.85,105.28,4,21,5,31,87,--,1,9.3,10.7,159,2,3019.25597590,N,12004.25781064,E,0.06,254.72,9.72*75
$GNGGA,092417.80,3019.25962333,N,12004.26175987,E,4,29,0.6,6.6634,M,7.8969,M,1.8,0*50
$GNRMC,092417.80,D,3019.25962333,N,12004.26175987,E,0.007,72.8,251225,6.1,W,R,S*6B
$WTRTK,-0.538,-0.145,-0.009,0.557,2.42,1.86,105.28,4,21,5,31,87,--,1,9.3,10.8,159,2,3019.25597511,N,12004.25781720,E,0.05,254.72,9.72*75

